time,field.airspeed,field.angular_velocity.x,field.angular_velocity.y,field.angular_velocity.z,field.linear_acceleration.x,field.linear_acceleration.y,field.linear_acceleration.z,field.magnetic_field.x,field.magnetic_field.y,field.magnetic_field.z,field.fluid_pressure,field.temperature,field.alt_error,field.aspd_error,field.xtrack_error,field.wp_dist,field.measured.pitch,field.measured.roll,field.measured.yaw,label
2018-07-21 00:33:19.000,19.3867607117,0.447,-0.196,-0.164,-1.1571847,0.81395195,10.8461549,31000.0,-354000.0,-303000.0,97214.77661,59.59,1.889999986,-380.6278076,-25.99288177,18.0,-3.372425556,27.78909492,-92.62657928,0.0
2018-07-21 00:33:19.040,19.3867607117,0.4295,-0.1945,-0.1845,-1.2160246,0.701175475,10.694151825,34000.0,-359500.0,-295000.0,97213.339235,59.59,1.889999986,-380.6278076,-25.99288177,18.0,-3.372425556,27.78909492,-92.62657928,0.0
2018-07-21 00:33:19.080,19.3867607117,0.412,-0.193,-0.205,-1.2748645,0.588399,10.54214875,37000.0,-365000.0,-287000.0,97211.90186,59.59,1.889999986,-380.6278076,-25.99288177,18.0,-3.372425556,27.78909492,-92.62657928,0.0
2018-07-21 00:33:19.120,19.3867607117,0.3773333333333333,-0.208,-0.218,-1.3337044,0.8074141833333334,10.81673495,38333.333333333336,-368666.6666666667,-282000.0,97212.84587,59.586666666666666,2.159999847,-395.6001282,-158.9363556,20.0,-3.372425556,27.78909492,-92.62657928,0.0
2018-07-21 00:33:19.160,19.3867607117,0.3426666666666667,-0.223,-0.2309999999999999,-1.3925443,1.0264293666666666,11.09132115,39666.66666666666,-372333.3333333333,-277000.0,97213.78988,59.583333333333336,2.284999847,-351.1851349,-157.99805450000002,21.0,-3.372425556,27.78909492,-92.62657928,0.0
2018-07-21 00:33:19.200,19.3867607117,0.308,-0.238,-0.244,-1.4513842,1.24544455,11.36590735,41000.0,-376000.0,-272000.0,97214.73389,59.58,2.409999847,-306.7701416,-157.0597534,22.0,-3.372425556,27.78909492,-92.62657928,0.0
2018-07-21 00:33:19.240,19.3867607117,0.2533333333333333,-0.2446666666666666,-0.263,-1.4088887166666666,0.9675894666666668,12.1406327,43666.66666666666,-378666.6666666667,-268333.3333333333,97216.92301666668,59.58,2.409999847,-306.7701416,-157.0597534,22.0,-3.372425556,27.78909492,-92.62657928,0.0
2018-07-21 00:33:19.280,19.3867607117,0.1986666666666666,-0.2513333333333333,-0.282,-1.3663932333333333,0.6897343833333334,12.91535805,46333.333333333336,-381333.3333333333,-264666.6666666667,97219.11214333332,59.58,2.529999852,-322.723114,-156.1256485,23.0,-3.372425556,27.78909492,-92.62657928,0.0
2018-07-21 00:33:19.320,19.3867607117,0.144,-0.258,-0.301,-1.32389775,0.4118793,13.6900834,49000.0,-384000.0,-261000.0,97221.30127,59.58,2.649999857,-338.6760864,-155.1915436,24.0,-3.372425556,27.78909492,-92.62657928,0.0
2018-07-21 00:33:19.360,19.46356086734,0.1009999999999999,-0.2465,-0.3045,-1.387640975,0.34323275,13.38607725,51000.0,-385000.0,-258000.0,97221.844485,59.575,2.649999857,-338.6760864,-155.1915436,24.0,-2.01270175,36.04430008,-86.03304291,0.0
2018-07-21 00:33:19.400,19.54036102298,0.058,-0.235,-0.308,-1.4513842,0.2745862,13.0820711,53000.0,-386000.0,-255000.0,97222.3877,59.57,2.7549998760000003,-350.5907135,-154.27437594999998,25.0,-2.01270175,36.04430008,-86.03304291,0.0
2018-07-21 00:33:19.440,19.61716117862,0.0005,-0.2165,-0.3289999999999999,-1.426867575,0.269682875,12.6701918,55000.0,-385500.0,-255000.0,97220.959475,59.565,2.859999895,-362.5053406,-153.3572083,26.0,-2.01270175,36.04430008,-86.03304291,0.0
2018-07-21 00:33:19.480,19.69396133426,-0.057,-0.198,-0.35,-1.40235095,0.26477955,12.2583125,57000.0,-385000.0,-255000.0,97219.53125,59.56,2.9499999285,-373.54078675,-152.4527283,27.0,-2.01270175,36.04430008,-86.03304291,0.0
2018-07-21 00:33:19.520,19.7707614899,-0.04625,-0.1965,-0.36,-1.426867575,0.475622525,12.07198615,57750.0,-384250.0,-256250.0,97220.7321175,59.56,3.039999962,-384.5762329,-151.5482483,28.0,-2.01270175,36.04430008,-86.03304291,0.0
2018-07-21 00:33:19.560,19.84756164554,-0.0355,-0.195,-0.37,-1.4513842,0.6864655,11.8856598,58500.0,-383500.0,-257500.0,97221.932985,59.56,3.1299999955,-388.80958555,-150.64797975,29.0,-2.01270175,36.04430008,-86.03304291,0.0
2018-07-21 00:33:19.600,19.92436180118,-0.02475,-0.1935,-0.38,-1.475900825,0.897308475,11.69933345,59250.0,-382750.0,-258750.0,97223.1338525,59.56,3.220000029,-393.0429382,-149.7477112,30.0,-2.01270175,36.04430008,-86.03304291,0.0
2018-07-21 00:33:19.640,20.00116195682,-0.014,-0.192,-0.39,-1.50041745,1.10815145,11.5130071,60000.0,-382000.0,-260000.0,97224.33472,59.56,3.2733333113333334,-400.5207010666667,-149.1559906,30.33333333333333,-2.01270175,36.04430008,-86.03304291,0.0
2018-07-21 00:33:19.680,20.07796211246,-0.0465,-0.181,-0.4215,-1.318994425,0.8776951749999999,11.508103775,61000.0,-379000.0,-263000.0,97227.13013,59.56,3.3266665936666664,-407.9984639333333,-148.56427,30.666666666666668,-2.01270175,36.04430008,-86.03304291,0.0
2018-07-21 00:33:19.720,20.1547622681,-0.079,-0.17,-0.453,-1.1375714,0.6472389,11.50320045,62000.0,-376000.0,-266000.0,97229.92554,59.56,3.379999876,-415.4762268,-147.9725494,31.0,-2.01270175,36.04430008,-86.03304291,0.0
2018-07-21 00:33:19.760,20.15265712741,-0.0775,-0.1815,-0.43,-1.024794925,0.328522775,10.949124725,69000.0,-374500.0,-268500.0,97230.896,59.555,3.379999876,-415.4762268,-147.9725494,31.0,-2.918628693,35.74515533,-76.44602203,0.0
2018-07-21 00:33:19.800,20.15055198672,-0.076,-0.193,-0.407,-0.91201845,0.00980665,10.395049,76000.0,-373000.0,-271000.0,97231.86646,59.55,3.379999876,-415.4762268,-147.9725494,31.0,-2.918628693,35.74515533,-76.44602203,0.0
2018-07-21 00:33:19.840,20.14844684603,-0.027,-0.2063333333333333,-0.3823333333333333,-0.8401030166666666,0.0065377666666671,10.940952516666666,77333.33333333333,-370333.3333333333,-273000.0,97231.57145666669,59.55,3.529999852,-406.98365785,-146.2311935,33.0,-2.918628693,35.74515533,-76.44602203,0.0
2018-07-21 00:33:19.880,20.14634170534,0.0219999999999999,-0.2196666666666666,-0.3576666666666667,-0.7681875833333334,0.0032688833333343,11.486856033333334,78666.66666666667,-367666.6666666667,-275000.0,97231.27645333334,59.55,3.679999828,-398.4910889,-144.4898376,35.0,-2.918628693,35.74515533,-76.44602203,0.0
2018-07-21 00:33:19.920,20.14423656465,0.071,-0.233,-0.333,-0.69627215,1.47e-15,12.03275955,80000.0,-365000.0,-277000.0,97230.98145,59.55,3.679999828,-398.4910889,-144.4898376,35.0,-2.918628693,35.74515533,-76.44602203,0.0
2018-07-21 00:33:19.960,20.14213142396,0.0839999999999999,-0.2436666666666666,-0.296,-0.5622479333333333,0.0228821833333343,12.715956166666668,83000.0,-363666.6666666667,-277666.6666666667,97234.86532,59.54666666666667,3.679999828,-398.4910889,-144.4898376,35.0,-2.918628693,35.74515533,-76.44602203,0.0
2018-07-21 00:33:20.000,20.14002628327,0.097,-0.2543333333333333,-0.259,-0.4282237166666666,0.0457643666666671,13.399152783333331,86000.0,-362333.3333333333,-278333.3333333333,97238.74919,59.54333333333333,3.829999924,-403.1690674,-142.7737885,37.0,-2.918628693,35.74515533,-76.44602203,0.0
2018-07-21 00:33:20.040,20.13792114258,0.11,-0.265,-0.222,-0.2941995,0.06864655,14.0823494,89000.0,-361000.0,-279000.0,97242.63306,59.54,3.829999924,-403.1690674,-142.7737885,37.0,-2.918628693,35.74515533,-76.44602203,0.0
2018-07-21 00:33:20.080,20.13581600189,0.181,-0.244,-0.192,-0.5295591,-0.0588399,13.5724036,86000.0,-360000.0,-280000.0,97244.7876,59.54,3.970000029,-413.3710938,-141.0916138,39.0,-2.918628693,35.74515533,-76.44602203,0.0
2018-07-21 00:33:20.120,20.1337108612,0.2116666666666666,-0.2486666666666666,-0.164,-0.5132146833333333,-0.0915287333333333,13.216095316666664,89666.66666666667,-361666.6666666667,-277666.6666666667,97244.14673,59.53666666666667,3.970000029,-413.3710938,-141.0916138,39.0,-2.972463131,36.21107864,-71.837867735,0.0
2018-07-21 00:33:20.160,20.118305630144445,0.2423333333333333,-0.2533333333333333,-0.136,-0.4968702666666666,-0.1242175666666666,12.859787033333332,93333.33333333331,-363333.3333333333,-275333.3333333333,97243.50586,59.53333333333333,3.970000029,-413.3710938,-141.0916138,39.0,-3.026297569,36.67700195,-67.22971344,0.0
2018-07-21 00:33:20.200,20.102900399088888,0.273,-0.258,-0.108,-0.48052585,-0.1569064,12.50347875,97000.0,-365000.0,-273000.0,97242.86499,59.53,3.970000029,-413.3710938,-141.0916138,39.0,-3.026297569,36.67700195,-67.22971344,0.0
2018-07-21 00:33:20.240,20.087495168033332,0.155,-0.274,-0.0805,-0.63743225,0.0343232749999999,12.26811915,100000.0,-367500.0,-270000.0,97244.973755,59.53,4.099999905,-409.0385437,-139.443222,41.0,-3.026297569,36.67700195,-67.22971344,0.0
2018-07-21 00:33:20.280,20.07208993697778,0.037,-0.29,-0.053,-0.79433865,0.22555295,12.03275955,103000.0,-370000.0,-267000.0,97247.08252,59.53,4.099999905,-409.0385437,-139.443222,41.0,-3.026297569,36.67700195,-67.22971344,0.0
2018-07-21 00:33:20.320,20.056684705922223,-0.0893333333333333,-0.311,-0.0436666666666666,-0.9022118,0.4314926,12.369454533333332,101666.66666666669,-370333.3333333333,-268000.0,97246.79362,59.52666666666667,4.239999771,-404.3016357,-137.8455658,43.0,-3.026297569,36.67700195,-67.22971344,0.0
2018-07-21 00:33:20.360,20.041279474866663,-0.2156666666666666,-0.3319999999999999,-0.0343333333333333,-1.01008495,0.63743225,12.706149516666668,100333.33333333331,-370666.6666666667,-269000.0,97246.50472,59.52333333333333,4.239999771,-404.3016357,-137.8455658,43.0,-3.026297569,36.67700195,-67.22971344,0.0
2018-07-21 00:33:20.400,20.025874243811117,-0.342,-0.353,-0.025,-1.1179581,0.8433719,13.0428445,99000.0,-371000.0,-270000.0,97246.21582,59.52,4.239999771,-404.3016357,-137.8455658,43.0,-3.026297569,36.67700195,-67.22971344,0.0
2018-07-21 00:33:20.440,20.01046901275556,-0.4066666666666667,-0.3423333333333333,-0.0363333333333333,-1.1048825666666666,0.9022118,13.039575616666664,96666.66666666669,-368333.3333333333,-274333.3333333333,97246.56575666666,59.52,4.369999886,-401.0419922,-136.2648468,45.0,-3.026297569,36.67700195,-67.22971344,0.0
2018-07-21 00:33:20.480,19.9950637817,-0.4713333333333334,-0.3316666666666666,-0.0476666666666666,-1.0918070333333334,0.9610517,13.036306733333332,94333.33333333331,-365666.6666666667,-278666.6666666667,97246.91569333331,59.52,4.5,-399.5063782,-134.7347565,47.0,-3.026297569,36.67700195,-67.22971344,0.0
2018-07-21 00:33:20.520,19.981923209266668,-0.536,-0.321,-0.059,-1.0787315,1.0198916,13.03303785,92000.0,-363000.0,-283000.0,97247.26563,59.52,4.5,-399.5063782,-134.7347565,47.0,-0.9320003985,35.5403347,-64.75010681,0.0
2018-07-21 00:33:20.560,19.968782636833332,-0.6085,-0.282,-0.1055,-1.01008495,0.965955025,13.26839745,86500.0,-355500.0,-294500.0,97244.741825,59.515,4.5,-399.5063782,-134.7347565,47.0,1.162296772,34.40366745,-62.27050018,0.0
2018-07-21 00:33:20.600,19.9556420644,-0.681,-0.243,-0.152,-0.9414384,0.91201845,13.50375705,81000.0,-348000.0,-306000.0,97242.21802,59.51,4.559999942999999,-398.3365021,-133.99087525,47.5,1.162296772,34.40366745,-62.27050018,0.0
2018-07-21 00:33:20.640,19.942501491966667,-0.6745000000000001,-0.215,-0.1905,-0.907115125,1.318994425,13.538080325,77000.0,-336000.0,-319000.0,97245.58411,59.51,4.619999886,-397.166626,-133.246994,48.0,1.162296772,34.40366745,-62.27050018,0.0
2018-07-21 00:33:20.680,19.92936091953333,-0.668,-0.187,-0.229,-0.87279185,1.7259704,13.5724036,73000.0,-324000.0,-332000.0,97248.9502,59.51,4.619999886,-397.166626,-133.246994,48.0,1.162296772,34.40366745,-62.27050018,0.0
2018-07-21 00:33:20.720,19.9162203471,-0.6900000000000001,-0.156,-0.27,-0.9054806833333332,1.2879400333333333,13.20955755,72333.33333333333,-315666.6666666667,-340000.0,97248.50057333334,59.50666666666667,4.710000038,-399.6046143,-131.8014679,50.0,1.162296772,34.40366745,-62.27050018,0.0
2018-07-21 00:33:20.760,19.903079774666665,-0.712,-0.125,-0.311,-0.9381695166666668,0.8499096666666667,12.8467115,71666.66666666667,-307333.3333333333,-348000.0,97248.05094666668,59.50333333333333,4.710000038,-399.6046143,-131.8014679,50.0,1.162296772,34.40366745,-62.27050018,0.0
2018-07-21 00:33:20.800,19.88993920223333,-0.734,-0.094,-0.352,-0.97085835,0.4118793,12.48386545,71000.0,-299000.0,-356000.0,97247.60132,59.5,4.710000038,-399.6046143,-131.8014679,50.0,1.162296772,34.40366745,-62.27050018,0.0
2018-07-21 00:33:20.840,19.8767986298,-0.7043333333333334,-0.088,-0.3493333333333333,-0.9773961166666668,0.6047434166666668,12.496940983333332,72000.0,-289000.0,-364000.0,97247.92684,59.5,4.759999752,-387.6798706,-130.4066925,52.0,1.162296772,34.40366745,-62.27050018,0.0
2018-07-21 00:33:20.880,19.800008297,-0.6746666666666666,-0.082,-0.3466666666666666,-0.9839338833333332,0.7976075333333335,12.510016516666669,73000.0,-279000.0,-372000.0,97248.25236,59.5,4.779999733,-377.9829102,-129.062561,54.0,2.08007741,21.41206741,-56.48377991,0.0
2018-07-21 00:33:20.920,19.7232179642,-0.645,-0.076,-0.344,-0.99047165,0.99047165,12.52309205,74000.0,-269000.0,-380000.0,97248.57788,59.5,4.779999733,-377.9829102,-129.062561,54.0,2.08007741,21.41206741,-56.48377991,0.0
2018-07-21 00:33:20.960,19.6464276314,-0.5545,-0.073,-0.3525,-1.044408225,0.40207265,11.7091401,75000.0,-255000.0,-390000.0,97248.828125,59.5,4.779999733,-377.9829102,-129.062561,54.0,2.08007741,21.41206741,-56.48377991,0.0
2018-07-21 00:33:21.000,19.5696372986,-0.464,-0.07,-0.361,-1.0983448,-0.18632635,10.89518815,76000.0,-241000.0,-400000.0,97249.07837,59.5,4.779999733,-377.9829102,-129.062561,54.0,2.08007741,21.41206741,-56.48377991,0.0
2018-07-21 00:33:21.040,19.4928469658,-0.425,-0.0843333333333333,-0.3333333333333333,-1.0591182,-0.1111420333333333,10.692517383333334,76666.66666666667,-233000.0,-404666.6666666667,97249.08040333334,59.49666666666667,4.779999733,-363.5238647,-127.7354202,56.0,2.08007741,21.41206741,-56.48377991,0.0
2018-07-21 00:33:21.080,19.416056633,-0.386,-0.0986666666666666,-0.3056666666666667,-1.0198916,-0.0359577166666666,10.489846616666666,77333.33333333333,-225000.0,-409333.3333333333,97249.08243666666,59.49333333333333,4.774999857,-355.19113155,-127.08875275,57.0,2.08007741,21.41206741,-56.48377991,0.0
2018-07-21 00:33:21.120,19.3392663002,-0.347,-0.113,-0.278,-0.980665,0.0392266,10.28717585,78000.0,-217000.0,-414000.0,97249.08447,59.49,4.769999981,-346.8583984,-126.4420853,58.0,2.08007741,21.41206741,-56.48377991,0.0
2018-07-21 00:33:21.160,19.2624759674,-0.3406666666666667,-0.119,-0.2326666666666667,-0.9643205833333334,-0.1046042666666666,10.6892485,79000.0,-211333.3333333333,-417000.0,97247.73966333334,59.486666666666665,4.769999981,-346.8583984,-126.4420853,58.0,2.08007741,21.41206741,-56.48377991,0.0
2018-07-21 00:33:21.200,19.1856856346,-0.3343333333333333,-0.125,-0.1873333333333333,-0.9479761666666666,-0.2484351333333333,11.09132115,80000.0,-205666.66666666663,-420000.0,97246.39485666668,59.48333333333333,4.754999875999999,-331.63317870000003,-125.8080788,58.5,2.08007741,21.41206741,-56.48377991,0.0
2018-07-21 00:33:21.240,19.1088953018,-0.328,-0.131,-0.142,-0.93163175,-0.392266,11.4933938,81000.0,-200000.0,-423000.0,97245.05005,59.48,4.739999771,-316.407959,-125.1740723,59.0,2.08007741,21.41206741,-56.48377991,0.0
2018-07-21 00:33:21.280,19.032104969,-0.329,-0.132,-0.1305,-0.97085835,-0.12748645,11.52281375,78500.0,-191500.0,-428000.0,97245.684815,59.485,4.739999771,-316.407959,-125.1740723,59.0,2.08007741,21.41206741,-56.48377991,0.0
2018-07-21 00:33:21.320,18.9553146362,-0.33,-0.133,-0.119,-1.01008495,0.1372931,11.5522337,76000.0,-183000.0,-433000.0,97246.31958,59.49,4.710000038,-295.5314636,-123.9399261,61.0,2.08007741,21.41206741,-56.48377991,0.0
2018-07-21 00:33:21.360,18.917043832607693,-0.3675,-0.1425,-0.069,-0.8433719,-0.132389775,12.253409175,72500.0,-175000.0,-437000.0,97247.7417,59.485,4.710000038,-295.5314636,-123.9399261,61.0,2.645475626,9.566061974,-48.37078476,0.0
2018-07-21 00:33:21.400,18.878773029015385,-0.405,-0.152,-0.019,-0.67665885,-0.40207265,12.95458465,69000.0,-167000.0,-441000.0,97249.16382,59.48,4.6849999425,-292.7750549,-123.3312416,62.0,2.645475626,9.566061974,-48.37078476,0.0
2018-07-21 00:33:21.440,18.84050222542308,-0.432,-0.132,0.0055,-0.671755525,-0.2549729,12.50347875,64500.0,-158000.0,-445000.0,97247.72034,59.475,4.659999847,-290.0186462,-122.7225571,63.0,2.645475626,9.566061974,-48.37078476,0.0
2018-07-21 00:33:21.480,18.80223142183077,-0.459,-0.112,0.03,-0.6668522,-0.10787315,12.05237285,60000.0,-149000.0,-449000.0,97246.27686,59.47,4.6199998855,-282.1287994,-122.1308365,64.0,2.645475626,9.566061974,-48.37078476,0.0
2018-07-21 00:33:21.520,18.76396061823846,-0.4215,-0.1065,0.0575,-0.622722275,0.2108429749999999,11.99353295,57500.0,-139000.0,-453500.0,97246.1792,59.47,4.579999924,-274.2389526,-121.5391159,65.0,2.645475626,9.566061974,-48.37078476,0.0
2018-07-21 00:33:21.560,18.725689814646152,-0.384,-0.101,0.085,-0.57859235,0.5295591,11.93469305,55000.0,-129000.0,-458000.0,97246.08154,59.47,4.579999924,-274.2389526,-121.5391159,65.0,2.645475626,9.566061974,-48.37078476,0.0
2018-07-21 00:33:21.600,18.687419011053848,-0.39875,-0.085,0.07775,-0.5638823749999999,0.5271074375,11.8243682375,52000.0,-124750.0,-459250.0,97246.157835,59.47,4.480000019,-267.8632813,-120.3725662,66.0,2.645475626,9.566061974,-48.37078476,0.0
2018-07-21 00:33:21.640,18.64914820746154,-0.4135,-0.069,0.0705,-0.5491724,0.524655775,11.714043425,49000.0,-120500.0,-460500.0,97246.23413,59.47,4.480000019,-267.8632813,-120.3725662,66.0,2.645475626,9.566061974,-48.37078476,0.0
2018-07-21 00:33:21.680,18.61087740386923,-0.42825,-0.053,0.06325,-0.5344624250000001,0.5222041125,11.6037186125,46000.0,-116250.0,-461750.0,97246.310425,59.47,4.480000019,-267.8632813,-120.3725662,66.0,2.645475626,9.566061974,-48.37078476,0.0
2018-07-21 00:33:21.720,18.572606600276924,-0.443,-0.037,0.056,-0.51975245,0.51975245,11.4933938,43000.0,-112000.0,-463000.0,97246.38672,59.47,4.4200000765,-258.83436585,-119.80197905,67.0,2.645475626,9.566061974,-48.37078476,0.0
2018-07-21 00:33:21.760,18.534335796684616,-0.475,-0.0404999999999999,0.0515,-0.5295591,0.495235825,11.0815145,42500.0,-102500.0,-466500.0,97246.170045,59.465,4.360000134,-249.8054504,-119.2313919,68.0,2.645475626,9.566061974,-48.37078476,0.0
2018-07-21 00:33:21.800,18.496064993092308,-0.507,-0.044,0.047,-0.53936575,0.4707192,10.6696352,42000.0,-93000.0,-470000.0,97245.95337,59.46,4.2950000765,-247.79243465,-118.6481285,69.0,2.645475626,9.566061974,-48.37078476,0.0
2018-07-21 00:33:21.840,18.4577941895,-0.4875,-0.03,0.0295,-0.544269075,0.46091255,10.596085325,40000.0,-82500.0,-472500.0,97243.948365,59.46,4.230000019,-245.7794189,-118.0648651,70.0,2.645475626,9.566061974,-48.37078476,0.0
2018-07-21 00:33:21.880,18.430191675866663,-0.468,-0.016,0.012,-0.5491724,0.4511059,10.52253545,38000.0,-72000.0,-475000.0,97241.94336,59.46,4.1549999715000006,-234.77792355,-117.49848175,70.5,4.837021828,-3.439061403,-49.16924667,0.0
2018-07-21 00:33:21.920,18.402589162233333,-0.3315,-0.013,-0.00075,-0.505042475,0.456009225,10.7603467125,37500.0,-67000.0,-476000.0,97242.240905,59.4575,4.11749994775,-229.277175875,-117.215290075,70.75,4.837021828,-3.439061403,-49.16924667,0.0
2018-07-21 00:33:21.960,18.3749866486,-0.195,-0.01,-0.0135,-0.46091255,0.46091255,10.998157975,37000.0,-62000.0,-477000.0,97242.53845,59.455,4.079999924,-223.7764282,-116.9320984,71.0,4.837021828,-3.439061403,-49.16924667,0.0
2018-07-21 00:33:22.000,18.347384134966667,-0.0584999999999999,-0.0069999999999999,-0.02625,-0.416782625,0.465815875,11.2359692375,36500.0,-57000.0,-478000.0,97242.835995,59.4525,3.929999828,-215.6213684,-115.7824631,73.0,4.837021828,-3.439061403,-49.16924667,0.0
2018-07-21 00:33:22.040,18.31978162133333,0.078,-0.004,-0.039,-0.3726527,0.4707192,11.4737805,36000.0,-52000.0,-479000.0,97243.13354,59.45,3.929999828,-215.6213684,-115.7824631,73.0,4.837021828,-3.439061403,-49.16924667,0.0
2018-07-21 00:33:22.080,18.2921791077,0.0,-0.037,-0.053,-0.46091255,0.79433865,12.22889255,34000.0,-45000.0,-480000.0,97242.05322,59.45,3.929999828,-215.6213684,-115.7824631,73.0,4.837021828,-3.439061403,-49.16924667,0.0
2018-07-21 00:33:22.120,18.264576594066668,-0.0506666666666666,-0.041,-0.0553333333333333,-0.40207265,0.5851301166666667,11.862777616666666,35000.0,-43666.66666666666,-480000.0,97241.46525,59.45,3.769999981,-220.9371643,-114.6327667,75.0,4.837021828,-3.439061403,-49.16924667,0.0
2018-07-21 00:33:22.160,18.23697408043333,-0.1013333333333333,-0.045,-0.0576666666666666,-0.34323275,0.3759215833333333,11.496662683333334,36000.0,-42333.333333333336,-480000.0,97240.87728,59.45,3.769999981,-220.9371643,-114.6327667,75.0,4.837021828,-3.439061403,-49.16924667,0.0
2018-07-21 00:33:22.200,18.2093715668,-0.152,-0.049,-0.06,-0.28439285,0.16671305,11.13054775,37000.0,-41000.0,-480000.0,97240.28931,59.45,3.7099999586666654,-214.72302246666663,-114.24674223333334,75.66666666666667,4.9133380256666666,-4.647308667333333,-48.92052713666666,0.0
2018-07-21 00:33:22.240,18.04619789126,-0.102,-0.0416666666666666,-0.0423333333333333,-0.2909306166666666,0.0424954833333333,10.741550633333333,36333.333333333336,-39000.0,-480333.3333333333,97240.23437666666,59.45,3.649999936333333,-208.5088806333333,-113.86071776666668,76.33333333333333,4.989654223333334,-5.855555931666666,-48.671807603333335,0.0
2018-07-21 00:33:22.280,17.883024215720003,-0.052,-0.0343333333333333,-0.0246666666666666,-0.2974683833333333,-0.0817220833333333,10.352553516666667,35666.666666666664,-37000.0,-480666.6666666667,97240.17944333333,59.45,3.589999914,-202.2947388,-113.4746933,77.0,5.065970421,-7.063803196,-48.42308807,0.0
2018-07-21 00:33:22.320,17.71985054018,-0.002,-0.027,-0.007,-0.30400615,-0.20593965,9.9635564,35000.0,-35000.0,-481000.0,97240.12451,59.45,3.4999998805,-184.67655945,-112.8956375,77.5,5.065970421,-7.063803196,-48.42308807,0.0
2018-07-21 00:33:22.360,17.55667686464,-0.003,-0.004,0.01,-0.3334260999999999,-0.348136075,9.389867375,34500.0,-34000.0,-480500.0,97238.171385,59.445,3.409999847,-167.0583801,-112.3165817,78.0,5.065970421,-7.063803196,-48.42308807,0.0
2018-07-21 00:33:22.400,17.393503189100002,-0.004,0.019,0.027,-0.36284605,-0.4903325,8.81617835,34000.0,-33000.0,-480000.0,97236.21826,59.44,3.314999938,-154.3396988,-111.7417717,79.0,5.065970421,-7.063803196,-48.42308807,0.0
2018-07-21 00:33:22.440,17.23032951356,-0.028,0.0115,0.056,-0.3726526999999999,-0.588399,8.4141057,34500.0,-32500.0,-481000.0,97236.505125,59.44,3.220000029,-141.6210175,-111.1669617,80.0,5.065970421,-7.063803196,-48.42308807,0.0
2018-07-21 00:33:22.480,17.06715583802,-0.052,0.004,0.085,-0.38245935,-0.6864655,8.01203305,35000.0,-32000.0,-482000.0,97236.79199,59.44,3.220000029,-141.6210175,-111.1669617,80.0,5.065970421,-7.063803196,-48.42308807,0.0
2018-07-21 00:33:22.520,16.90398216248,-0.0456666666666666,0.008,0.103,-0.3661149333333333,-0.6831966166666666,8.041452999999999,34666.666666666664,-31666.666666666668,-482000.0,97234.73103666666,59.43666666666667,3.039999962,-92.80109406,-110.0004272,82.0,5.065970421,-7.063803196,-48.42308807,0.0
2018-07-21 00:33:22.560,16.74080848694,-0.0393333333333333,0.012,0.121,-0.3497705166666666,-0.6799277333333333,8.07087295,34333.333333333336,-31333.33333333333,-482000.0,97232.67008333332,59.43333333333333,2.9999999405,-84.04169083,-109.713005025,82.25,5.065970421,-7.063803196,-48.42308807,0.0
2018-07-21 00:33:22.600,16.5776348114,-0.033,0.016,0.139,-0.3334261,-0.67665885,8.1002929,34000.0,-31000.0,-482000.0,97230.60913,59.43,2.959999919,-75.2822876,-109.42558285,82.5,5.065970421,-7.063803196,-48.42308807,0.0
2018-07-21 00:33:22.640,16.50515669042727,-0.0026666666666666,0.0133333333333333,0.17,-0.2909306166666666,-0.5230213333333333,8.162401683333332,33333.333333333336,-31333.33333333333,-481666.6666666667,97231.45955333332,59.43,2.879999876,-57.76348114,-108.8507385,83.0,4.741984844,-8.364494324,-49.31959915,0.0
2018-07-21 00:33:22.680,16.432678569454545,0.0276666666666666,0.0106666666666666,0.201,-0.2484351333333333,-0.3693838166666667,8.224510466666667,32666.666666666668,-31666.666666666668,-481333.3333333333,97232.30997666666,59.43,2.75,-33.04977417,-107.7011185,85.0,4.741984844,-8.364494324,-49.31959915,0.0
2018-07-21 00:33:22.720,16.36020044848182,0.058,0.008,0.232,-0.20593965,-0.2157463,8.28661925,32000.0,-32000.0,-481000.0,97233.1604,59.43,2.75,-33.04977417,-107.7011185,85.0,4.741984844,-8.364494324,-49.31959915,0.0
2018-07-21 00:33:22.760,16.28772232750909,0.0215,0.0095,0.2515,-0.14709975,-0.024516625,8.507268875,31500.0,-33500.0,-481500.0,97232.86438,59.425,2.689999938,-15.506267547499998,-107.1305199,85.5,4.741984844,-8.364494324,-49.31959915,0.0
2018-07-21 00:33:22.800,16.21524420653636,-0.015,0.011,0.271,-0.08825985,0.16671305,8.7279185,31000.0,-35000.0,-482000.0,97232.56836,59.42,2.629999876,2.037239075,-106.5599213,86.0,4.741984844,-8.364494324,-49.31959915,0.0
2018-07-21 00:33:22.840,16.142766085563636,-0.023,0.013,0.2645,-0.024516625,0.161809725,8.688691899999998,28500.0,-36500.0,-481500.0,97231.918335,59.42,2.629999876,2.037239075,-106.5599213,86.0,4.741984844,-8.364494324,-49.31959915,0.0
2018-07-21 00:33:22.880,16.07028796459091,-0.031,0.015,0.258,0.0392266,0.1569064,8.6494653,26000.0,-38000.0,-481000.0,97231.26831,59.42,2.629999876,2.037239075,-106.5599213,86.0,4.741984844,-8.364494324,-49.31959915,0.0
2018-07-21 00:33:22.920,15.997809843618182,-0.0176666666666666,0.0186666666666666,0.2536666666666666,0.0424954833333333,0.2320907166666666,8.675616366666667,27000.0,-38000.0,-480666.6666666667,97231.38427666666,59.41666666666666,2.5799999235,8.8956356075,-105.9935646,87.0,4.741984844,-8.364494324,-49.31959915,0.0
2018-07-21 00:33:22.960,15.925331722645454,-0.0043333333333333,0.0223333333333333,0.2493333333333333,0.0457643666666666,0.3072750333333333,8.701767433333332,28000.0,-38000.0,-480333.3333333333,97231.50024333331,59.41333333333333,2.529999971,15.75403214,-105.4272079,88.0,4.741984844,-8.364494324,-49.31959915,0.0
2018-07-21 00:33:23.000,15.852853601672727,0.009,0.026,0.245,0.04903325,0.38245935,8.7279185,29000.0,-38000.0,-480000.0,97231.61621,59.41,2.499999999666666,17.823505403333332,-105.04681646666668,88.66666666666667,4.2505765753333336,-8.554350217333333,-51.143844603333335,0.0
2018-07-21 00:33:23.040,15.7803754807,-0.0209999999999999,0.037,0.236,0.063743225,0.387362675,8.615142025,29000.0,-39000.0,-479000.0,97230.53894,59.41,2.4700000283333337,19.892978666666668,-104.66642503333333,89.33333333333333,3.7591683066666666,-8.744206110666667,-52.96809005666667,0.0
2018-07-21 00:33:23.080,15.75449123387,-0.051,0.048,0.227,0.0784532,0.392266,8.50236555,29000.0,-40000.0,-478000.0,97229.46167,59.41,2.440000057,21.96245193,-104.2860336,90.0,3.267760038,-8.934062004,-54.79233551,0.0
2018-07-21 00:33:23.120,15.72860698704,-0.0413333333333333,0.0503333333333333,0.214,0.1503686333333333,0.4086104166666666,8.629852,29000.0,-40000.0,-478000.0,97230.33854333332,59.41,2.4049999715,32.049083705,-103.71965405,90.5,3.267760038,-8.934062004,-54.79233551,0.0
2018-07-21 00:33:23.160,15.70272274021,-0.0316666666666666,0.0526666666666666,0.201,0.2222840666666666,0.4249548333333333,8.75733845,29000.0,-40000.0,-478000.0,97231.21541666667,59.41,2.369999886,42.13571548,-103.1532745,91.0,3.267760038,-8.934062004,-54.79233551,0.0
2018-07-21 00:33:23.200,15.67683849338,-0.022,0.055,0.188,0.2941995,0.44129925,8.8848249,29000.0,-40000.0,-478000.0,97232.09229,59.41,2.369999886,42.13571548,-103.1532745,91.0,3.267760038,-8.934062004,-54.79233551,0.0
2018-07-21 00:33:23.240,15.65095424655,0.0313333333333333,0.0573333333333333,0.1616666666666666,0.2876617333333333,0.4707191999999999,8.790027283333334,28000.0,-40666.66666666666,-478333.3333333333,97231.83187333331,59.406666666666666,2.319999933,45.15914917,-101.9867401,93.0,3.267760038,-8.934062004,-54.79233551,0.0
2018-07-21 00:33:23.280,15.62506999972,0.0846666666666666,0.0596666666666666,0.1353333333333333,0.2811239666666666,0.50013915,8.695229666666666,27000.0,-41333.333333333336,-478666.6666666667,97231.57145666669,59.40333333333333,2.2999999520000003,44.328451155,-101.42881395,93.5,3.267760038,-8.934062004,-54.79233551,0.0
2018-07-21 00:33:23.320,15.59918575289,0.138,0.062,0.109,0.2745862,0.5295591,8.60043205,26000.0,-42000.0,-479000.0,97231.31104,59.4,2.279999971,43.49775314,-100.8708878,94.0,3.267760038,-8.934062004,-54.79233551,0.0
2018-07-21 00:33:23.360,15.57330150606,0.181,0.0655,0.0885,0.367749375,0.4903324999999999,8.551398800000001,29500.0,-44500.0,-478000.0,97231.567385,59.4,2.2699999805,45.67222595,-100.283397695,95.0,3.267760038,-8.934062004,-54.79233551,0.0
2018-07-21 00:33:23.400,15.54741725923,0.224,0.069,0.068,0.46091255,0.4511059,8.50236555,33000.0,-47000.0,-477000.0,97231.82373,59.4,2.2666666503333333,46.39705022,-100.08756766,95.33333333333331,2.605045159333333,-8.621033986333334,-55.87210083,0.0
2018-07-21 00:33:23.440,15.5215330124,0.2226666666666666,0.0653333333333333,0.0586666666666666,0.4936013833333333,0.392266,8.525247733333334,34333.333333333336,-51000.0,-476666.6666666667,97232.41373666668,59.39666666666667,2.2633333201666663,47.12187449,-99.891737625,95.66666666666669,1.942330280666667,-8.308005968666667,-56.95186615,0.0
2018-07-21 00:33:23.480,15.466453416014286,0.2213333333333333,0.0616666666666666,0.0493333333333333,0.5262902166666666,0.3334261,8.548129916666667,35666.666666666664,-55000.0,-476333.3333333333,97233.00374333332,59.39333333333333,2.25999999,47.84669876,-99.69590759,96.0,1.279615402,-7.994977951,-58.03163147,0.0
2018-07-21 00:33:23.520,15.411373819628572,0.22,0.058,0.04,0.55897905,0.2745862,8.5710121,37000.0,-59000.0,-476000.0,97233.59375,59.39,2.254999995,50.363588335,-99.10841751,97.0,1.279615402,-7.994977951,-58.03163147,0.0
2018-07-21 00:33:23.560,15.356294223242855,0.2475,0.073,0.0335,0.367749375,0.392266,7.899256575000001,40000.0,-63500.0,-474500.0,97233.48999,59.39,2.25,52.88047791,-98.52092743,98.0,1.279615402,-7.994977951,-58.03163147,0.0
2018-07-21 00:33:23.600,15.301214626857144,0.275,0.088,0.027,0.1765197,0.5099458,7.22750105,43000.0,-68000.0,-473000.0,97233.38623,59.39,2.2566666603333334,60.0166626,-98.12644195666668,98.33333333333331,1.279615402,-7.994977951,-58.03163147,0.0
2018-07-21 00:33:23.640,15.246135030471429,0.1925,0.077,0.0275,0.28439285,0.446202575,7.428537374999999,44000.0,-75500.0,-472000.0,97232.72705,59.39,2.2633333206666664,67.15284729000001,-97.73195648333332,98.66666666666669,1.279615402,-7.994977951,-58.03163147,0.0
2018-07-21 00:33:23.680,15.191055434085715,0.11,0.066,0.028,0.392266,0.38245935,7.6295737,45000.0,-83000.0,-471000.0,97232.06787,59.39,2.269999981,74.28903198,-97.33747101,99.0,1.279615402,-7.994977951,-58.03163147,0.0
2018-07-21 00:33:23.720,15.1359758377,0.105,0.062,0.0216666666666666,0.392266,0.3759215833333333,8.008764166666667,46666.66666666666,-84000.0,-470666.6666666667,97233.43505666668,59.38666666666667,2.299999952,86.40242004,-96.14558411,101.0,1.279615402,-7.994977951,-58.03163147,0.0
2018-07-21 00:33:23.760,15.1590681076,0.1,0.058,0.0153333333333333,0.392266,0.3693838166666666,8.387954633333333,48333.333333333336,-85000.0,-470333.3333333333,97234.80224333332,59.38333333333333,2.299999952,86.40242004,-96.14558411,101.0,-0.137615085,-4.495714188,-58.40196228,0.0
2018-07-21 00:33:23.800,15.1821603775,0.095,0.054,0.009,0.392266,0.36284605,8.7671451,50000.0,-86000.0,-470000.0,97236.16943,59.38,2.359999895,90.95373535,-94.9451828,102.0,-0.137615085,-4.495714188,-58.40196228,0.0
2018-07-21 00:33:23.840,15.2052526474,0.1105,0.0555,0.0014999999999999,0.328522775,0.36284605,8.762241775,50500.0,-88000.0,-469000.0,97236.813355,59.38,2.359999895,90.95373535,-94.9451828,102.0,-0.137615085,-4.495714188,-58.40196228,0.0
2018-07-21 00:33:23.880,15.2283449173,0.126,0.057,-0.006,0.26477955,0.36284605,8.75733845,51000.0,-90000.0,-468000.0,97237.45728,59.38,2.359999895,90.95373535,-94.9451828,102.0,-0.137615085,-4.495714188,-58.40196228,0.0
2018-07-21 00:33:23.920,15.2514371872,0.1073333333333333,0.0466666666666666,-0.0043333333333333,0.3334261,0.2615106666666666,8.665809716666667,51000.0,-91666.66666666669,-467000.0,97237.51831333332,59.38,2.440000057,82.70359039,-93.7532959,104.0,-0.137615085,-4.495714188,-58.40196228,0.0
2018-07-21 00:33:23.960,15.2745294571,0.0886666666666666,0.0363333333333333,-0.0026666666666666,0.40207265,0.1601752833333333,8.574280983333335,51000.0,-93333.33333333331,-466000.0,97237.57934666668,59.38,2.440000057,82.70359039,-93.7532959,104.0,-0.137615085,-4.495714188,-58.40196228,0.0
2018-07-21 00:33:24.000,15.297621727,0.07,0.026,-0.001,0.4707192,0.0588399,8.48275225,51000.0,-95000.0,-465000.0,97237.64038,59.38,2.480000019,84.11207199,-93.15734482,105.0,-0.137615085,-4.495714188,-58.40196228,0.0
2018-07-21 00:33:24.040,15.3207139969,0.0946666666666666,0.0233333333333333,0.0116666666666666,0.4903325,0.1340242166666666,8.603700933333334,50666.66666666666,-96333.33333333331,-465333.3333333333,97236.90999333332,59.376666666666665,2.519999981,85.52055359,-92.56139374,106.0,-0.137615085,-4.495714188,-58.40196228,0.0
2018-07-21 00:33:24.080,15.3438062668,0.1193333333333333,0.0206666666666666,0.0243333333333333,0.5099458,0.2092085333333333,8.724649616666667,50333.333333333336,-97666.66666666669,-465666.6666666667,97236.17960666666,59.373333333333335,2.5533332826666664,78.93845113333333,-92.15564473666667,106.33333333333331,-0.137615085,-4.495714188,-58.40196228,0.0
2018-07-21 00:33:24.120,15.3668985367,0.144,0.018,0.037,0.5295591,0.28439285,8.8455983,50000.0,-99000.0,-466000.0,97235.44922,59.37,2.5866665843333334,72.35634867666667,-91.74989573333332,106.66666666666669,-0.137615085,-4.495714188,-58.40196228,0.0
2018-07-21 00:33:24.160,15.3899908066,0.1435,0.0195,0.031,0.505042475,0.30400615,8.536688825,55000.0,-102500.0,-465000.0,97237.677005,59.37,2.619999886,65.77424622,-91.34414673,107.0,-0.137615085,-4.495714188,-58.40196228,0.0
2018-07-21 00:33:24.200,15.4130830765,0.143,0.021,0.025,0.48052585,0.32361945,8.22777935,60000.0,-106000.0,-464000.0,97239.90479,59.37,2.74000001,58.69169235,-90.11844635,109.0,-0.137615085,-4.495714188,-58.40196228,0.0
2018-07-21 00:33:24.240,15.443161646544445,0.147,0.0083333333333333,0.0136666666666666,0.4870636166666666,0.3595771666666666,8.593894283333334,59000.0,-108000.0,-463000.0,97239.65251,59.37,2.74000001,58.69169235,-90.11844635,109.0,-1.214199781,-1.639002919,-58.51540375,0.0
2018-07-21 00:33:24.280,15.473240216588888,0.151,-0.0043333333333333,0.0023333333333333,0.4936013833333333,0.3955348833333333,8.960009216666666,58000.0,-110000.0,-462000.0,97239.40023,59.37,2.869999886,53.13625336,-88.89273071,110.0,-1.214199781,-1.639002919,-58.51540375,0.0
2018-07-21 00:33:24.320,15.503318786633333,0.155,-0.017,-0.009,0.50013915,0.4314926,9.32612415,57000.0,-112000.0,-461000.0,97239.14795,59.37,2.869999886,53.13625336,-88.89273071,110.0,-1.214199781,-1.639002919,-58.51540375,0.0
2018-07-21 00:33:24.360,15.533397356677778,0.1669999999999999,-0.023,-0.023,0.4952358249999999,0.4167826249999999,9.58109705,59500.0,-115500.0,-459500.0,97242.53235,59.37,2.869999886,53.13625336,-88.89273071,110.0,-1.214199781,-1.639002919,-58.51540375,0.0
2018-07-21 00:33:24.400,15.56347592672222,0.179,-0.029,-0.037,0.4903325,0.40207265,9.83606995,62000.0,-119000.0,-458000.0,97245.91675,59.37,2.934999943,47.918367385,-88.27143097,111.0,-1.214199781,-1.639002919,-58.51540375,0.0
2018-07-21 00:33:24.440,15.593554496766666,0.243,-0.0275,-0.0409999999999999,0.4118793,0.3530394,9.5712904,60000.0,-122500.0,-456500.0,97243.344115,59.365,3.0,42.70048141,-87.65013123,112.0,-1.214199781,-1.639002919,-58.51540375,0.0
2018-07-21 00:33:24.480,15.623633066811111,0.307,-0.026,-0.045,0.3334261,0.30400615,9.30651085,58000.0,-126000.0,-455000.0,97240.77148,59.36,3.069999933,37.16073036,-87.02458954,113.0,-1.214199781,-1.639002919,-58.51540375,0.0
2018-07-21 00:33:24.520,15.653711636855554,0.3163333333333333,-0.0296666666666666,-0.0416666666666666,0.3072750333333333,0.3889971166666666,9.116915616666668,58000.0,-130000.0,-454000.0,97242.1936,59.36,3.139999866,31.62097931,-86.39904785,114.0,-1.214199781,-1.639002919,-58.51540375,0.0
2018-07-21 00:33:24.560,15.6837902069,0.3256666666666666,-0.0333333333333333,-0.0383333333333333,0.2811239666666666,0.4739880833333333,8.927320383333333,58000.0,-134000.0,-453000.0,97243.61572,59.36,3.139999866,31.62097931,-86.39904785,114.0,-1.214199781,-1.639002919,-58.51540375,0.0
2018-07-21 00:33:24.600,15.741400188866669,0.335,-0.037,-0.035,0.2549729,0.55897905,8.73772515,58000.0,-138000.0,-452000.0,97245.03784,59.36,3.289999962,21.82769775,-85.16490173,115.0,-1.219840884,2.19431901,-58.06549454,0.0
2018-07-21 00:33:24.640,15.799010170833332,0.279,-0.04775,-0.03525,0.3015544875,0.4927841625,9.1128295125,59000.0,-141500.0,-450250.0,97246.0586525,59.3575,3.289999962,21.82769775,-85.16490173,115.0,-1.219840884,2.19431901,-58.06549454,0.0
2018-07-21 00:33:24.680,15.8566201528,0.223,-0.0584999999999999,-0.0355,0.348136075,0.426589275,9.487933875,60000.0,-145000.0,-448500.0,97247.079465,59.355,3.3699998855,14.7617816905,-84.535144805,116.0,-1.219840884,2.19431901,-58.06549454,0.0
2018-07-21 00:33:24.720,15.914230134766663,0.1669999999999999,-0.06925,-0.03575,0.3947176624999999,0.3603943875,9.8630382375,61000.0,-148500.0,-446750.0,97248.1002775,59.3525,3.449999809,7.695865631,-83.90538788,117.0,-1.219840884,2.19431901,-58.06549454,0.0
2018-07-21 00:33:24.760,15.971840116733333,0.111,-0.08,-0.036,0.44129925,0.2941995,10.2381426,62000.0,-152000.0,-445000.0,97249.12109,59.35,3.529999852,3.7339687345,-83.279830935,118.0,-1.219840884,2.19431901,-58.06549454,0.0
2018-07-21 00:33:24.800,16.0294500987,0.159,-0.083,-0.031,0.6864655,0.196133,11.3953273,58000.0,-160000.0,-443000.0,97249.84131,59.35,3.609999895,-0.227928162,-82.65427399,119.0,-1.219840884,2.19431901,-58.06549454,0.0
2018-07-21 00:33:24.840,16.087060080666664,0.178,-0.091,-0.0283333333333333,0.7322298666666667,0.2124774166666666,11.604535833333331,59000.0,-162000.0,-442666.6666666667,97250.07324333332,59.34666666666667,3.64499992125,-5.2279472365,-82.34151077499999,119.25,-1.219840884,2.19431901,-58.06549454,0.0
2018-07-21 00:33:24.880,16.14467006263333,0.197,-0.099,-0.0256666666666666,0.7779942333333333,0.2288218333333333,11.813744366666668,60000.0,-164000.0,-442333.3333333333,97250.30517666668,59.34333333333333,3.6799999475,-10.227966311,-82.02874756,119.5,-1.219840884,2.19431901,-58.06549454,0.0
2018-07-21 00:33:24.920,16.2022800446,0.216,-0.107,-0.023,0.8237586,0.24516625,12.0229529,61000.0,-166000.0,-442000.0,97250.53711,59.34,3.71499997375,-15.227985385500002,-81.71598434500001,119.75,-0.6871913894999999,4.3447071315,-57.64299965,0.0
2018-07-21 00:33:24.960,16.19066619877,0.131,-0.0829999999999999,0.004,0.789435325,0.1765197,11.4737805,59500.0,-168500.0,-440000.0,97250.897215,59.34,3.75,-20.22800446,-81.40322113,120.0,-0.154541895,6.495095253,-57.22050476,0.0
2018-07-21 00:33:25.000,16.179052352939998,0.046,-0.059,0.031,0.75511205,0.10787315,10.9246081,58000.0,-171000.0,-438000.0,97251.25732,59.34,3.75,-20.22800446,-81.40322113,120.0,-0.154541895,6.495095253,-57.22050476,0.0
2018-07-21 00:33:25.040,16.16743850711,-0.008,-0.0554999999999999,0.0485,0.7060788,0.142196425,10.586278675,59500.0,-173500.0,-437500.0,97251.66626,59.34,3.814999938,-15.376567845,-80.77768326,121.0,-0.154541895,6.495095253,-57.22050476,0.0
2018-07-21 00:33:25.080,16.155824661279997,-0.062,-0.052,0.066,0.65704555,0.1765197,10.24794925,61000.0,-176000.0,-437000.0,97252.0752,59.34,3.879999876,-10.52513123,-80.15214539,122.0,-0.154541895,6.495095253,-57.22050476,0.0
2018-07-21 00:33:25.120,16.14421081545,-0.061,-0.052,0.062,0.583495675,0.32361945,10.0223963,54500.0,-175000.0,-438000.0,97252.154545,59.34,4.0,-20.67184448,-78.9010849,123.0,-0.154541895,6.495095253,-57.22050476,0.0
2018-07-21 00:33:25.160,16.13259696962,-0.06,-0.052,0.058,0.5099458,0.4707192,9.79684335,48000.0,-174000.0,-439000.0,97252.23389,59.34,4.0,-20.67184448,-78.9010849,123.0,-0.154541895,6.495095253,-57.22050476,0.0
2018-07-21 00:33:25.200,16.120983123789998,-0.0827499999999999,-0.05575,0.05475,0.50013915,0.4976874875,9.9267814625,47500.0,-173500.0,-439250.0,97252.494815,59.337500000000006,4.099999905,-6.677246094,-77.67537689,125.0,-0.154541895,6.495095253,-57.22050476,0.0
2018-07-21 00:33:25.240,16.10936927796,-0.1055,-0.0595,0.0515,0.4903325,0.524655775,10.056719575,47000.0,-173000.0,-439500.0,97252.75574,59.335,4.133333206333333,-7.322883606,-77.26399485,125.66666666666669,-0.154541895,6.495095253,-57.22050476,0.0
2018-07-21 00:33:25.280,16.097755432129997,-0.12825,-0.06325,0.04825,0.48052585,0.5516240625,10.1866576875,46500.0,-172500.0,-439750.0,97253.016665,59.3325,4.166666507666667,-7.968521118,-76.85261281,126.33333333333331,-0.154541895,6.495095253,-57.22050476,0.0
2018-07-21 00:33:25.320,16.0861415863,-0.151,-0.067,0.045,0.4707192,0.57859235,10.3165958,46000.0,-172000.0,-440000.0,97253.27759,59.33,4.199999809,-8.61415863,-76.44123077,127.0,-0.154541895,6.495095253,-57.22050476,0.0
2018-07-21 00:33:25.360,16.102032852169998,-0.1426666666666666,-0.0596666666666666,0.0353333333333333,0.48052585,0.5459035166666666,9.966825283333334,46000.0,-170333.33333333334,-440666.6666666667,97253.52376333332,59.33,4.199999809,-8.61415863,-76.44123077,127.0,1.272412539,5.782345295,-58.11488342,0.0
2018-07-21 00:33:25.400,16.117924118039998,-0.1343333333333333,-0.0523333333333333,0.0256666666666666,0.4903325,0.5132146833333333,9.617054766666666,46000.0,-168666.66666666666,-441333.3333333333,97253.76993666666,59.33,4.22999986,-3.731664021666667,-76.02421061,127.33333333333331,1.272412539,5.782345295,-58.11488342,0.0
2018-07-21 00:33:25.440,16.133815383909997,-0.126,-0.045,0.016,0.50013915,0.48052585,9.26728425,46000.0,-167000.0,-442000.0,97254.01611,59.33,4.259999911,1.1508305866666664,-75.60719045,127.66666666666669,1.272412539,5.782345295,-58.11488342,0.0
2018-07-21 00:33:25.480,16.149706649779997,-0.121,-0.062,0.002,0.6080123,0.4903325,9.91452315,42000.0,-163000.0,-445000.0,97259.33228,59.33,4.289999962,6.033325195,-75.19017029,128.0,1.272412539,5.782345295,-58.11488342,0.0
2018-07-21 00:33:25.520,16.165597915649997,-0.1066666666666666,-0.066,-0.0056666666666666,0.6505077833333333,0.50013915,10.283906966666668,39000.0,-160333.33333333334,-446333.3333333333,97259.23462333334,59.32666666666667,4.369999886,0.089168549,-73.97293091,130.0,1.272412539,5.782345295,-58.11488342,0.0
2018-07-21 00:33:25.560,16.18148918152,-0.0923333333333333,-0.0699999999999999,-0.0133333333333333,0.6930032666666667,0.5099458,10.653290783333334,36000.0,-157666.66666666666,-447666.6666666667,97259.13696666666,59.32333333333333,4.369999886,0.089168549,-73.97293091,130.0,1.272412539,5.782345295,-58.11488342,0.0
2018-07-21 00:33:25.600,16.19738044739,-0.078,-0.074,-0.021,0.73549875,0.51975245,11.0226746,33000.0,-155000.0,-449000.0,97259.03931,59.32,4.460000038,-5.674362183,-72.73872375,132.0,1.272412539,5.782345295,-58.11488342,0.0
2018-07-21 00:33:25.640,16.21327171326,-0.044,-0.0675,-0.0235,0.838468575,0.377556025,11.1403544,38500.0,-153500.0,-449500.0,97258.27637,59.32,4.460000038,-5.674362183,-72.73872375,132.0,1.272412539,5.782345295,-58.11488342,0.0
2018-07-21 00:33:25.680,16.22916297913,-0.01,-0.061,-0.026,0.9414384,0.2353596,11.2580342,44000.0,-152000.0,-450000.0,97257.51343,59.32,4.460000038,-5.674362183,-72.73872375,132.0,1.272412539,5.782345295,-58.11488342,0.0
2018-07-21 00:33:25.720,16.245054245,0.0409999999999999,-0.0613333333333333,-0.0193333333333333,0.9414384,0.2484351333333333,11.127278866666668,39333.333333333336,-152000.0,-450333.3333333333,97258.85213333332,59.31666666666667,4.529999733,-24.5054245,-71.51301575,133.0,1.8221489195,4.8560652735,-58.008821485,0.0
2018-07-21 00:33:25.760,16.250082882972727,0.092,-0.0616666666666666,-0.0126666666666666,0.9414384,0.2615106666666666,10.996523533333333,34666.666666666664,-152000.0,-450666.6666666667,97260.19083666668,59.31333333333333,4.5599997045,-26.988506315,-70.89594269,134.0,2.0970171097500003,4.39292526275,-57.9557905175,0.0
2018-07-21 00:33:25.800,16.25511152094545,0.143,-0.062,-0.006,0.9414384,0.2745862,10.8657682,30000.0,-152000.0,-451000.0,97261.52954,59.31,4.589999676,-29.47158813,-70.27886963,135.0,2.3718853,3.929785252,-57.90275955,0.0
2018-07-21 00:33:25.840,16.26014015891818,0.1475,-0.0605,0.0034999999999999,0.887501825,0.367749375,10.645118575,30500.0,-154500.0,-450000.0,97260.791015,59.31,4.589999676,-29.47158813,-70.27886963,135.0,2.3718853,3.929785252,-57.90275955,0.0
2018-07-21 00:33:25.880,16.265168796890908,0.152,-0.059,0.013,0.83356525,0.46091255,10.42446895,31000.0,-157000.0,-449000.0,97260.05249,59.31,4.589999676,-29.47158813,-70.27886963,135.0,2.3718853,3.929785252,-57.90275955,0.0
2018-07-21 00:33:25.920,16.270197434863636,0.1069999999999999,-0.0656666666666666,0.019,0.8368341333333333,0.4543747833333333,10.712130683333331,30333.33333333333,-159000.0,-448333.3333333333,97261.43188333334,59.31,4.603333155333333,-32.80626932333333,-69.87030283666667,135.66666666666666,2.3718853,3.929785252,-57.90275955,0.0
2018-07-21 00:33:25.960,16.27522607283636,0.0619999999999999,-0.0723333333333333,0.025,0.8401030166666666,0.4478370166666666,10.999792416666669,29666.666666666668,-161000.0,-447666.6666666667,97262.81127666666,59.31,4.616666634666667,-36.14095051666667,-69.46173604333333,136.33333333333334,2.3718853,3.929785252,-57.90275955,0.0
2018-07-21 00:33:26.000,16.28025471080909,0.017,-0.079,0.031,0.8433719,0.44129925,11.28745415,29000.0,-163000.0,-447000.0,97264.19067,59.31,4.630000114,-39.47563171,-69.05316925,137.0,2.3718853,3.929785252,-57.90275955,0.0
2018-07-21 00:33:26.040,16.285283348781817,0.009,-0.078,0.0263333333333333,0.8466407833333333,0.4936013833333333,11.375714,29000.0,-163666.66666666666,-446666.6666666667,97262.86010333333,59.31,4.659999847,-22.84984589,-67.82746124,138.0,2.3718853,3.929785252,-57.90275955,0.0
2018-07-21 00:33:26.080,16.290311986754546,0.001,-0.077,0.0216666666666666,0.8499096666666667,0.5459035166666667,11.46397385,29000.0,-164333.33333333334,-446333.3333333333,97261.52953666668,59.31,4.6699998375,-26.44338608,-67.21461105,139.0,2.3718853,3.929785252,-57.90275955,0.0
2018-07-21 00:33:26.120,16.29534062472727,-0.007,-0.076,0.017,0.85317855,0.59820565,11.5522337,29000.0,-165000.0,-446000.0,97260.19897,59.31,4.679999828,-30.03692627,-66.60176086,140.0,2.3718853,3.929785252,-57.90275955,0.0
2018-07-21 00:33:26.160,16.3003692627,-0.061,-0.0574999999999999,0.0095,0.81395195,0.5687857000000001,11.007964625,24500.0,-165500.0,-447000.0,97261.370845,59.31,4.679999828,-30.03692627,-66.60176086,140.0,3.768116236,5.366607666,-58.06469345,0.0
2018-07-21 00:33:26.200,16.293444527522222,-0.115,-0.039,0.002,0.77472535,0.53936575,10.46369555,20000.0,-166000.0,-448000.0,97262.54272,59.31,4.690000057,-18.29528809,-65.41828918,142.0,3.768116236,5.366607666,-58.06469345,0.0
2018-07-21 00:33:26.240,16.286519792344443,-0.1146666666666666,-0.041,-0.0056666666666666,0.7126165666666666,0.53936575,10.486577733333334,22333.33333333333,-164333.33333333334,-448666.6666666667,97264.12963666666,59.306666666666665,4.690000057,-18.29528809,-65.41828918,142.0,3.768116236,5.366607666,-58.06469345,0.0
2018-07-21 00:33:26.280,16.279595057166667,-0.1143333333333333,-0.043,-0.0133333333333333,0.6505077833333334,0.53936575,10.509459916666666,24666.666666666668,-162666.66666666666,-449333.3333333333,97265.71655333332,59.303333333333335,4.684999942499999,-16.9254303,-64.80966949,142.5,3.768116236,5.366607666,-58.06469345,0.0
2018-07-21 00:33:26.320,16.272670321988887,-0.114,-0.045,-0.021,0.588399,0.53936575,10.5323421,27000.0,-161000.0,-450000.0,97267.30347,59.3,4.679999828,-15.55557251,-64.2010498,143.0,3.768116236,5.366607666,-58.06469345,0.0
2018-07-21 00:33:26.360,16.26574558681111,-0.1223333333333333,-0.0286666666666666,-0.026,0.6308944833333333,0.5753234666666667,10.16949605,24333.33333333333,-159000.0,-450333.3333333333,97264.96785666668,59.3,4.673333167666667,-16.76718394,-63.79811986000001,143.66666666666666,3.768116236,5.366607666,-58.06469345,0.0
2018-07-21 00:33:26.400,16.25882085163333,-0.1306666666666666,-0.0123333333333333,-0.031,0.6733899666666667,0.6112811833333333,9.80665,21666.666666666668,-157000.0,-450666.6666666667,97262.63224333333,59.3,4.666666507333333,-17.97879537,-63.39518992,144.33333333333334,3.768116236,5.366607666,-58.06469345,0.0
2018-07-21 00:33:26.440,16.251896116455555,-0.139,0.004,-0.036,0.71588545,0.6472389,9.44380395,19000.0,-155000.0,-451000.0,97260.29663,59.3,4.659999847,-19.1904068,-62.99225998,145.0,3.768116236,5.366607666,-58.06469345,0.0
2018-07-21 00:33:26.480,16.244971381277775,-0.1345,0.0085,-0.0409999999999999,0.6864655,0.57859235,9.4732239,17500.0,-152500.0,-452000.0,97261.553955,59.295,4.659999847,-19.1904068,-62.99225998,145.0,3.768116236,5.366607666,-58.06469345,0.0
2018-07-21 00:33:26.520,16.2380466461,-0.13,0.013,-0.046,0.65704555,0.5099458,9.50264385,16000.0,-150000.0,-453000.0,97262.81128,59.29,4.639999866,-23.80466461,-61.78517914,147.0,3.768116236,5.366607666,-58.06469345,0.0
2018-07-21 00:33:26.560,16.28710333505,-0.12,0.009,-0.0525,0.61781895,0.593302325,9.752713425,17000.0,-146000.0,-454500.0,97262.506105,59.29,4.639999866,-23.80466461,-61.78517914,147.0,4.198384762,2.881933451,-57.43548584,0.0
2018-07-21 00:33:26.600,16.336160023999998,-0.11,0.005,-0.059,0.57859235,0.67665885,10.002783,18000.0,-142000.0,-456000.0,97262.20093,59.29,4.629999875999999,-27.488708495,-61.180747985,147.5,4.198384762,2.881933451,-57.43548584,0.0
2018-07-21 00:33:26.640,16.385216712949997,-0.1475,-0.0154999999999999,-0.059,0.6423355749999999,0.671755525,11.0226746,17000.0,-139500.0,-456500.0,97264.157105,59.285,4.619999886,-31.17275238,-60.57631683,148.0,4.198384762,2.881933451,-57.43548584,0.0
2018-07-21 00:33:26.680,16.4342734019,-0.185,-0.036,-0.059,0.7060788,0.6668522,12.0425662,16000.0,-137000.0,-457000.0,97266.11328,59.28,4.613333225666667,-36.98590596333333,-60.18291727333334,148.66666666666666,4.198384762,2.881933451,-57.43548584,0.0
2018-07-21 00:33:26.720,16.48333009085,-0.1813333333333333,-0.0283333333333333,-0.0533333333333333,0.7910697666666666,0.5459035166666667,11.89546645,15000.0,-134333.33333333334,-458000.0,97264.08488,59.28,4.606666565333333,-42.79905954666667,-59.789517716666666,149.33333333333334,4.198384762,2.881933451,-57.43548584,0.0
2018-07-21 00:33:26.760,16.5323867798,-0.1776666666666666,-0.0206666666666666,-0.0476666666666666,0.8760607333333333,0.4249548333333333,11.7483667,14000.0,-131666.66666666666,-459000.0,97262.05648,59.28,4.599999905,-48.61221313,-59.39611816,150.0,4.198384762,2.881933451,-57.43548584,0.0
2018-07-21 00:33:26.800,16.58144346875,-0.174,-0.013,-0.042,0.9610517,0.30400615,11.60126695,13000.0,-129000.0,-460000.0,97260.02808,59.28,4.583333174666667,-52.08034515,-58.99298349666667,150.66666666666666,4.198384762,2.881933451,-57.43548584,0.0
2018-07-21 00:33:26.840,16.6305001577,-0.2076666666666666,-0.0246666666666666,-0.021,0.8825985,0.51975245,11.964113,14000.0,-126000.0,-461000.0,97261.11654,59.28,4.566666444333333,-55.54847717,-58.589848833333335,151.33333333333334,4.198384762,2.881933451,-57.43548584,0.0
2018-07-21 00:33:26.880,16.67955684665,-0.2413333333333333,-0.0363333333333333,0.0,0.8041453,0.7354987500000001,12.32695905,15000.0,-123000.0,-462000.0,97262.205,59.28,4.549999714,-59.01660919,-58.18671417,152.0,4.198384762,2.881933451,-57.43548584,0.0
2018-07-21 00:33:26.920,16.7286135356,-0.275,-0.048,0.021,0.7256921,0.95124505,12.6898051,16000.0,-120000.0,-463000.0,97263.29346,59.28,4.480000019,-82.67269135,-57.1485939,153.0,4.198384762,2.881933451,-57.43548584,0.0
2018-07-21 00:33:26.960,16.77767022455,-0.2195,-0.02,-0.0104999999999999,0.63743225,0.652142225,12.096502775,16000.0,-114000.0,-465000.0,97262.023925,59.28,4.480000019,-82.67269135,-57.1485939,153.0,4.3107583525,0.5721238854999999,-56.927188875,0.0
2018-07-21 00:33:27.000,16.8267269135,-0.164,0.008,-0.042,0.5491724,0.3530394,11.50320045,16000.0,-108000.0,-467000.0,97260.75439,59.28,4.480000019,-82.67269135,-57.1485939,153.0,4.423131943,-1.73768568,-56.41889191,0.0
2018-07-21 00:33:27.040,16.78832950596,-0.068,-0.002,-0.0564999999999999,0.5099458,0.36284605,11.32668075,18500.0,-103000.0,-467500.0,97257.86438,59.275000000000006,4.389999866,-98.57578278,-55.93159103,155.0,4.423131943,-1.73768568,-56.41889191,0.0
2018-07-21 00:33:27.080,16.74993209842,0.028,-0.012,-0.071,0.4707192,0.3726527,11.15016105,21000.0,-98000.0,-468000.0,97254.97437,59.27,4.389999866,-98.57578278,-55.93159103,155.0,4.423131943,-1.73768568,-56.41889191,0.0
2018-07-21 00:33:27.120,16.71153469088,0.0406666666666666,-0.0146666666666666,-0.0683333333333333,0.4511059,0.2778550833333333,10.79712165,21000.0,-99000.0,-468000.0,97256.12793333334,59.27,4.3349997995,-96.21419907,-55.318902965,156.0,4.423131943,-1.73768568,-56.41889191,0.0
2018-07-21 00:33:27.160,16.67313728334,0.0533333333333333,-0.0173333333333333,-0.0656666666666666,0.4314926,0.1830574666666666,10.44408225,21000.0,-100000.0,-468000.0,97257.28149666666,59.27,4.279999733,-93.85261536,-54.7062149,157.0,4.423131943,-1.73768568,-56.41889191,0.0
2018-07-21 00:33:27.200,16.6347398758,0.066,-0.02,-0.063,0.4118793,0.08825985,10.09104285,21000.0,-101000.0,-468000.0,97258.43506,59.27,4.196666399666667,-81.44537608,-53.928808843333336,158.0,4.423131943,-1.73768568,-56.41889191,0.0
2018-07-21 00:33:27.240,16.596342468259998,0.0913333333333333,-0.0223333333333333,-0.0483333333333333,0.3203505666666666,0.1340242166666666,9.99297635,22000.0,-102000.0,-468333.3333333333,97258.10343666669,59.27,4.113333066333333,-69.0381368,-53.151402786666665,159.0,4.423131943,-1.73768568,-56.41889191,0.0
2018-07-21 00:33:27.280,16.557945060719998,0.1166666666666666,-0.0246666666666666,-0.0336666666666666,0.2288218333333333,0.1797885833333333,9.89490985,23000.0,-103000.0,-468666.6666666667,97257.77181333333,59.27,4.029999733,-56.63089752,-52.37399673,160.0,4.423131943,-1.73768568,-56.41889191,0.0
2018-07-21 00:33:27.320,16.51954765318,0.142,-0.027,-0.019,0.1372931,0.22555295,9.79684335,24000.0,-104000.0,-469000.0,97257.44019,59.27,4.029999733,-56.63089752,-52.37399673,160.0,4.423131943,-1.73768568,-56.41889191,0.0
2018-07-21 00:33:27.360,16.48115024564,0.1483333333333333,-0.026,-0.009,0.10787315,0.2418973666666666,9.554945983333331,24666.666666666668,-105666.66666666669,-468000.0,97255.98551666668,59.266666666666666,4.029999733,-56.63089752,-52.37399673,160.0,4.423131943,-1.73768568,-56.41889191,0.0
2018-07-21 00:33:27.400,16.4427528381,0.1546666666666666,-0.025,0.001,0.0784532,0.2582417833333333,9.313048616666666,25333.33333333333,-107333.33333333331,-467000.0,97254.53084333333,59.263333333333335,3.9674997925,-52.5624752025,-51.9330759025,160.75,4.45251417175,-1.34650514625,-56.13023186,0.0
2018-07-21 00:33:27.440,16.41010332105,0.161,-0.024,0.011,0.04903325,0.2745862,9.07115125,26000.0,-109000.0,-466000.0,97253.07617,59.26,3.904999852,-48.494052885,-51.492155075,161.5,4.4818964005,-0.9553246125,-55.841571810000005,0.0
2018-07-21 00:33:27.480,16.377453803999998,0.1735,-0.0414999999999999,0.0215,0.14709975,0.3334261,9.586000375,26500.0,-112500.0,-464500.0,97252.145385,59.26,3.8424999115,-44.4256305675,-51.0512342475,162.25,4.51127862925,-0.56414407875,-55.55291176,0.0
2018-07-21 00:33:27.520,16.344804286949998,0.186,-0.059,0.032,0.24516625,0.392266,10.1008495,27000.0,-116000.0,-463000.0,97251.2146,59.26,3.779999971,-40.35720825,-50.61031342,163.0,4.540660858,-0.172963545,-55.26425171,0.0
2018-07-21 00:33:27.560,16.312154769899998,0.198,-0.0455,0.0345,0.2157463,0.387362675,9.8654899,23500.0,-120500.0,-461500.0,97251.55945,59.255,3.779999971,-40.35720825,-50.61031342,163.0,4.540660858,-0.172963545,-55.26425171,0.0
2018-07-21 00:33:27.600,16.27950525285,0.21,-0.032,0.037,0.18632635,0.38245935,9.6301303,20000.0,-125000.0,-460000.0,97251.9043,59.25,3.659999847,-24.06101227,-49.3674469,165.0,4.540660858,-0.172963545,-55.26425171,0.0
2018-07-21 00:33:27.640,16.2468557358,0.204,-0.0276666666666666,0.0306666666666666,0.1994018833333333,0.38245935,9.4339973,21000.0,-128000.0,-459666.6666666667,97251.12305,59.25,3.659999847,-24.06101227,-49.3674469,165.0,4.540660858,-0.172963545,-55.26425171,0.0
2018-07-21 00:33:27.680,16.21420621875,0.198,-0.0233333333333333,0.0243333333333333,0.2124774166666666,0.38245935,9.2378643,22000.0,-131000.0,-459333.3333333333,97250.3418,59.25,3.6049998995,-21.10834122,-48.91745186,165.5,4.540660858,-0.172963545,-55.26425171,0.0
2018-07-21 00:33:27.720,16.1815567017,0.192,-0.019,0.018,0.22555295,0.38245935,9.0417313,23000.0,-134000.0,-459000.0,97249.56055,59.25,3.549999952,-18.15567017,-48.46745682,166.0,4.540660858,-0.172963545,-55.26425171,0.0
2018-07-21 00:33:27.760,16.17540359500909,0.165,-0.0064999999999999,0.0069999999999999,0.20593965,0.4167826249999999,8.89463155,22500.0,-138500.0,-458000.0,97250.457765,59.25,3.519999921,-15.75455665875,-48.1576385525,166.5,4.768556117999999,1.5323923005,-55.453559875,0.0
2018-07-21 00:33:27.800,16.16925048831818,0.138,0.006,-0.004,0.18632635,0.4511059,8.7475318,22000.0,-143000.0,-457000.0,97251.35498,59.25,3.48999989,-13.3534431475,-47.847820285,167.0,4.996451378,3.237748146,-55.64286804,0.0
2018-07-21 00:33:27.840,16.163097381627274,0.1753333333333333,0.0026666666666666,-0.02,0.22555295,0.4707192,8.930589266666667,21000.0,-144666.66666666666,-455666.6666666667,97249.12923,59.25,3.459999859,-10.95232963625,-47.5380020175,167.5,4.996451378,3.237748146,-55.64286804,0.0
2018-07-21 00:33:27.880,16.156944274936365,0.2126666666666666,-0.0006666666666666,-0.036,0.26477955,0.4903325,9.113646733333336,20000.0,-146333.33333333334,-454333.3333333333,97246.90348,59.25,3.429999828,-8.551216125,-47.22818375,168.0,4.996451378,3.237748146,-55.64286804,0.0
2018-07-21 00:33:27.920,16.150791168245455,0.25,-0.004,-0.052,0.30400615,0.5099458,9.2967042,19000.0,-148000.0,-453000.0,97244.67773,59.25,3.3749998805,-13.5976791375,-46.802061085,169.0,4.996451378,3.237748146,-55.64286804,0.0
2018-07-21 00:33:27.960,16.144638061554545,0.1725,0.001,-0.0475,0.279489525,0.588399,9.232960975,22000.0,-152500.0,-451000.0,97245.462035,59.245000000000005,3.319999933,-18.64414215,-46.37593842,170.0,4.996451378,3.237748146,-55.64286804,0.0
2018-07-21 00:33:28.000,16.138484954863635,0.095,0.006,-0.043,0.2549729,0.6668522,9.16921775,25000.0,-157000.0,-449000.0,97246.24634,59.24,3.269999981,-9.4206809995,-45.75645447,170.5,4.996451378,3.237748146,-55.64286804,0.0
2018-07-21 00:33:28.040,16.132331848172726,0.0683333333333333,0.0013333333333333,-0.0446666666666666,0.3105439166666666,0.7093476833333333,9.587634816666666,23666.666666666668,-158000.0,-448333.3333333333,97245.89437,59.24,3.220000029,-0.197219849,-45.13697052,171.0,4.996451378,3.237748146,-55.64286804,0.0
2018-07-21 00:33:28.080,16.12617874148182,0.0416666666666666,-0.0033333333333333,-0.0463333333333333,0.3661149333333333,0.7518431666666667,10.006051883333331,22333.33333333333,-159000.0,-447666.6666666667,97245.5424,59.24,3.129999876,-11.38725281,-43.92408371,173.0,4.996451378,3.237748146,-55.64286804,0.0
2018-07-21 00:33:28.120,16.12002563479091,0.015,-0.008,-0.048,0.42168595,0.79433865,10.42446895,21000.0,-160000.0,-447000.0,97245.19043,59.24,3.129999876,-11.38725281,-43.92408371,173.0,4.996451378,3.237748146,-55.64286804,0.0
2018-07-21 00:33:28.160,16.1138725281,0.0235,0.006,-0.0645,0.4756225249999999,0.7354987500000001,10.395049,26500.0,-161000.0,-447500.0,97245.040895,59.24,3.129999876,-11.38725281,-43.92408371,173.0,4.996451378,3.237748146,-55.64286804,0.0
2018-07-21 00:33:28.200,16.093147489777778,0.032,0.02,-0.081,0.5295591,0.67665885,10.36562905,32000.0,-162000.0,-448000.0,97244.89136,59.24,3.129999876,-11.38725281,-43.92408371,173.0,4.53250885,5.955509186,-54.59947968,0.0
2018-07-21 00:33:28.240,16.072422451455555,0.0665,0.03,-0.0995,0.5099458,0.495235825,9.9439431,32500.0,-162000.0,-447500.0,97244.25049,59.235,3.029999971,-14.62402344,-44.11210251,174.0,4.53250885,5.955509186,-54.59947968,0.0
