time,field.angular_velocity.x,field.angular_velocity.y,field.angular_velocity.z,field.linear_acceleration.x,field.linear_acceleration.y,field.linear_acceleration.z,field.fluid_pressure,field.magnetic_field.x,field.magnetic_field.y,field.magnetic_field.z,field.temperature,field.alt_error,field.aspd_error,field.xtrack_error,field.wp_dist,field.measured.pitch,field.measured.roll,field.measured.yaw,label,field.airspeed
2018-09-11 19:16:59.520,0.421,-0.048,-0.084,0.0,0.65704555,9.80665,97429.82788,-611000.0,-136000.0,-921000.0,45.82,0.179999992,-265.1895447,-28.54822922,15.0,-1.68626523,9.61367321,-72.03912354,0.0,0.0
2018-09-11 19:16:59.560,0.421,-0.048,-0.084,0.0,0.65704555,9.80665,97429.82788,-611000.0,-136000.0,-921000.0,45.82,0.1899999923333333,-265.1895447,-27.94380379,15.666666666666666,-1.6254788636666666,14.367330549999998,-71.86768595666668,0.0,0.0
2018-09-11 19:16:59.600,0.4029999999999999,-0.0456666666666666,-0.0993333333333333,0.0,0.6864655,9.695507966666666,97428.28979333332,-619333.3333333334,-141666.66666666666,-904000.0,45.81666666666667,0.1999999926666666,-265.1895447,-27.33937836,16.333333333333332,-1.5646924973333334,19.12098789,-71.69624837333333,0.0,0.0
2018-09-11 19:16:59.640,0.385,-0.0433333333333333,-0.1146666666666666,0.0,0.71588545,9.584365933333334,97426.75170666666,-627666.6666666666,-147333.33333333334,-887000.0,45.81333333333333,0.209999993,-265.1895447,-26.73495293,17.0,-1.503906131,23.87464523,-71.52481079,0.0,0.0
2018-09-11 19:16:59.680,0.367,-0.041,-0.13,0.0,0.7453054,9.4732239,97425.21362,-636000.0,-153000.0,-870000.0,45.81,0.2299999965,-262.66841125,-25.84041691,18.0,-1.503906131,23.87464523,-71.52481079,0.0,0.0
2018-09-11 19:16:59.720,0.3389999999999999,-0.0375,-0.158,-0.034323275,0.858081875,9.409480675,97427.511595,-633500.0,-153500.0,-890500.0,45.81,0.25,-260.1472778,-24.94588089,19.0,-1.503906131,23.87464523,-71.52481079,0.0,0.0
2018-09-11 19:16:59.760,0.311,-0.034,-0.186,-0.06864655,0.97085835,9.34573745,97429.80957,-631000.0,-154000.0,-911000.0,45.81,0.299999982,-260.1472778,-191.9628754,20.0,-1.503906131,23.87464523,-71.52481079,0.0,0.0
2018-09-11 19:16:59.800,0.297,-0.0343333333333333,-0.2053333333333333,0.0163444166666666,0.91201845,9.437266183333334,97429.80753666666,-633333.3333333334,-159333.33333333334,-901333.3333333334,45.806666666666665,0.299999982,-260.1472778,-191.9628754,20.0,-1.503906131,23.87464523,-71.52481079,0.0,0.0
2018-09-11 19:16:59.840,0.283,-0.0346666666666666,-0.2246666666666666,0.1013353833333333,0.85317855,9.528794916666666,97429.80550333334,-635666.6666666666,-164666.66666666666,-891666.6666666666,45.803333333333335,0.299999982,-260.1472778,-191.9628754,20.0,-1.503906131,23.87464523,-71.52481079,0.0,0.0
2018-09-11 19:16:59.880,0.269,-0.035,-0.244,0.18632635,0.79433865,9.62032365,97429.80347,-638000.0,-170000.0,-882000.0,45.8,0.370000005,-164.2965393,-190.2807007,22.0,-1.503906131,23.87464523,-71.52481079,0.0,0.0
2018-09-11 19:16:59.920,0.218,-0.0445,-0.2515,0.20593965,0.77472535,9.556580425,97428.79944,-664000.0,-170500.0,-896500.0,45.8,0.38750000325,-164.2965393,-189.8643837,22.5,-1.81204453125,25.6078538875,-70.625455855,0.0,0.0
2018-09-11 19:16:59.960,0.167,-0.054,-0.259,0.22555295,0.75511205,9.4928372,97427.79541,-690000.0,-171000.0,-911000.0,45.8,0.4050000015,-164.2965393,-189.44806670000003,23.0,-2.1201829315,27.341062545,-69.72610092,0.0,0.0
2018-09-11 19:17:00.000,0.127,-0.0584999999999999,-0.2655,0.161809725,0.71588545,9.232960975,97429.41284,-690500.0,-170500.0,-922000.0,45.795,0.42249999975,-164.2965393,-189.03174970000003,23.5,-2.4283213317500003,29.0742712025,-68.826745985,0.0,0.0
2018-09-11 19:17:00.040,0.087,-0.063,-0.272,0.0980665,0.67665885,8.97308475,97431.03027,-691000.0,-170000.0,-933000.0,45.79,0.439999998,-164.2965393,-188.6154327,24.0,-2.736459732,30.80747986,-67.92739105,0.0,0.0
2018-09-11 19:17:00.080,0.0743333333333333,-0.0683333333333333,-0.2706666666666666,0.0228821833333333,0.6995410333333334,9.156142216666666,97431.06079,-653666.6666666666,-179333.33333333334,-894000.0,45.78666666666667,0.539999962,-165.1536865,-186.9586029,26.0,-2.736459732,30.80747986,-67.92739105,0.0,0.0
2018-09-11 19:17:00.120,0.0616666666666666,-0.0736666666666666,-0.2693333333333333,-0.0523021333333333,0.7224232166666666,9.339199683333334,97431.09131,-616333.3333333334,-188666.66666666663,-855000.0,45.78333333333333,0.539999962,-165.1536865,-186.9586029,26.0,-2.736459732,30.80747986,-67.92739105,0.0,0.0
2018-09-11 19:17:00.160,0.049,-0.079,-0.268,-0.12748645,0.7453054,9.52225715,97431.12183,-579000.0,-198000.0,-816000.0,45.78,0.539999962,-165.1536865,-186.9586029,26.0,-2.736459732,30.80747986,-67.92739105,0.0,0.0
2018-09-11 19:17:00.200,0.0416666666666666,-0.0846666666666666,-0.2626666666666666,-0.2026707666666666,0.7256921,9.71839015,97430.15340333332,-520000.0,-205333.3333333333,-783333.3333333334,45.77333333333333,0.5949999690000001,-165.1536865,-186.14707185,27.0,-2.736459732,30.80747986,-67.92739105,0.0,0.0
2018-09-11 19:17:00.240,0.0343333333333333,-0.0903333333333333,-0.2573333333333333,-0.2778550833333333,0.7060788,9.91452315,97429.18497666669,-461000.0,-212666.66666666663,-750666.6666666666,45.766666666666666,0.649999976,-165.1536865,-185.3355408,28.0,-2.736459732,30.80747986,-67.92739105,0.0,0.0
2018-09-11 19:17:00.280,0.027,-0.096,-0.252,-0.3530394,0.6864655,10.11065615,97428.21655,-402000.0,-220000.0,-718000.0,45.76,0.7149999735,-165.27223205,-184.51981355,28.5,-2.736459732,30.80747986,-67.92739105,0.0,0.0
2018-09-11 19:17:00.320,0.0029999999999999,-0.086,-0.2465,-0.328522775,0.612915625,9.899813175,97428.21655,-402000.0,-220000.0,-718000.0,45.76,0.779999971,-165.3907776,-183.7040863,29.0,-2.736459732,30.80747986,-67.92739105,0.0,0.0
2018-09-11 19:17:00.360,-0.021,-0.076,-0.241,-0.30400615,0.53936575,9.6889702,97428.21655,-402000.0,-220000.0,-718000.0,45.76,0.779999971,-165.3907776,-183.7040863,29.0,-2.736459732,30.80747986,-67.92739105,0.0,0.0
2018-09-11 19:17:00.400,-0.0416666666666666,-0.0776666666666666,-0.24,-0.3530394,0.5687857,9.842607716666668,97429.99267333333,-387000.0,-221333.3333333333,-708000.0,45.75666666666667,0.849999964,-165.3907776,-182.90525055,30.0,-3.756212473,31.72227478,-64.553697585,0.0,0.0
2018-09-11 19:17:00.440,-0.0623333333333333,-0.0793333333333333,-0.239,-0.40207265,0.59820565,9.996245233333331,97431.76879666669,-372000.0,-222666.66666666663,-698000.0,45.75333333333333,0.919999957,-165.3907776,-182.1064148,31.0,-4.775965214,32.6370697,-61.18000412,0.0,0.0
2018-09-11 19:17:00.480,-0.083,-0.081,-0.238,-0.4511059,0.6276256,10.14988275,97433.54492,-357000.0,-224000.0,-688000.0,45.75,0.919999957,-165.3907776,-182.1064148,31.0,-4.775965214,32.6370697,-61.18000412,0.0,0.0
2018-09-11 19:17:00.520,-0.104,-0.0615,-0.2299999999999999,-0.593302325,0.69627215,9.83606995,97433.31909,-306000.0,-228000.0,-655000.0,45.745000000000005,1.069999933,-163.8670044,-180.5256653,33.0,-4.775965214,32.6370697,-61.18000412,0.0,0.0
2018-09-11 19:17:00.560,-0.125,-0.042,-0.222,-0.73549875,0.7649187,9.52225715,97433.09326,-255000.0,-232000.0,-622000.0,45.74,1.069999933,-163.8670044,-180.5256653,33.0,-4.775965214,32.6370697,-61.18000412,0.0,0.0
2018-09-11 19:17:00.600,-0.138,-0.0173333333333333,-0.222,-0.7060788,0.7060788,9.388232933333333,97433.09326,-255000.0,-232000.0,-622000.0,45.74,1.1549999715,-163.8670044,-179.75219725,34.0,-4.775965214,32.6370697,-61.18000412,0.0,0.0
2018-09-11 19:17:00.640,-0.151,0.0073333333333333,-0.222,-0.6766588499999999,0.6472389,9.254208716666668,97433.09326,-255000.0,-232000.0,-622000.0,45.74,1.24000001,-163.8670044,-178.9787292,35.0,-4.775965214,32.6370697,-61.18000412,0.0,0.0
2018-09-11 19:17:00.680,-0.164,0.032,-0.222,-0.6472389,0.588399,9.1201845,97433.09326,-255000.0,-232000.0,-622000.0,45.74,1.409999967,-157.6423645,-177.4316864,36.0,-4.775965214,32.6370697,-61.18000412,0.0,0.0
2018-09-11 19:17:00.720,-0.181,0.033,-0.221,-0.7649187,0.65704555,8.85540495,97434.67102,-225500.0,-234500.0,-604000.0,45.74,1.409999967,-157.6423645,-177.4316864,36.0,-4.775965214,32.6370697,-61.18000412,0.0,0.0
2018-09-11 19:17:00.760,-0.198,0.034,-0.22,-0.8825985,0.7256921,8.5906254,97436.24878,-196000.0,-237000.0,-586000.0,45.74,1.409999967,-157.6423645,-177.4316864,36.0,-4.775965214,32.6370697,-61.18000412,0.0,0.0
2018-09-11 19:17:00.800,-0.1983333333333333,0.0326666666666666,-0.224,-0.9087495666666666,0.6701210833333333,8.40429905,97435.31697666668,-163666.66666666666,-235000.0,-572000.0,45.73333333333333,1.5099999905,-157.6423645,-176.6835861,37.0,-5.931928158,31.400715825,-58.99294853,0.0,0.0
2018-09-11 19:17:00.840,-0.1986666666666666,0.0313333333333333,-0.228,-0.9349006333333332,0.6145500666666667,8.2179727,97434.38517333331,-131333.33333333334,-233000.0,-558000.0,45.72666666666667,1.610000014,-157.6423645,-175.9354858,38.0,-7.087891102,30.16436195,-56.80589294,0.0,0.0
2018-09-11 19:17:00.880,-0.199,0.03,-0.232,-0.9610517,0.55897905,8.03164635,97433.45337,-99000.0,-231000.0,-544000.0,45.72,1.610000014,-157.6423645,-175.9354858,38.0,-7.087891102,30.16436195,-56.80589294,0.0,0.0
2018-09-11 19:17:00.920,-0.178,0.03,-0.239,-1.014988275,0.554075725,8.021839700000001,97434.814455,-83000.0,-228500.0,-534500.0,45.72,1.819999933,-154.7058105,-174.4646454,40.0,-7.087891102,30.16436195,-56.80589294,0.0,0.0
2018-09-11 19:17:00.960,-0.157,0.03,-0.246,-1.06892485,0.5491724,8.01203305,97436.17554,-67000.0,-226000.0,-525000.0,45.72,2.049999952,-154.7058105,-172.9853363,42.0,-7.087891102,30.16436195,-56.80589294,0.0,0.0
2018-09-11 19:17:01.000,-0.1733333333333333,0.0349999999999999,-0.2463333333333333,-1.0950759166666666,0.4936013833333333,7.969537566666666,97436.17554,-67000.0,-226000.0,-525000.0,45.72,2.049999952,-154.7058105,-172.9853363,42.0,-7.087891102,30.16436195,-56.80589294,0.0,0.0
2018-09-11 19:17:01.040,-0.1896666666666666,0.04,-0.2466666666666666,-1.1212269833333333,0.4380303666666666,7.927042083333333,97436.17554,-67000.0,-226000.0,-525000.0,45.72,2.049999952,-154.7058105,-172.9853363,42.0,-7.087891102,30.16436195,-56.80589294,0.0,0.0
2018-09-11 19:17:01.080,-0.206,0.045,-0.247,-1.14737805,0.38245935,7.8845466,97436.17554,-67000.0,-226000.0,-525000.0,45.72,2.049999952,-154.7058105,-172.9853363,42.0,-7.087891102,30.16436195,-56.80589294,0.0,0.0
2018-09-11 19:17:01.120,-0.244,0.0605,-0.2415,-1.211121275,0.4560092249999999,7.820803375000001,97435.42786,-44500.0,-227000.0,-512500.0,45.715,2.299999952,-152.9136658,-171.539856,43.0,-7.087891102,30.16436195,-56.80589294,0.0,0.0
2018-09-11 19:17:01.160,-0.282,0.076,-0.236,-1.2748645,0.5295591,7.75706015,97434.68018,-22000.0,-228000.0,-500000.0,45.71,2.299999952,-152.9136658,-171.539856,43.0,-7.087891102,30.16436195,-56.80589294,0.0,0.0
2018-09-11 19:17:01.200,-0.291,0.0876666666666666,-0.2309999999999999,-1.3010155666666667,0.5197524499999999,7.675338066666667,97436.11247,-12000.0,-224666.66666666663,-496333.3333333333,45.70666666666667,2.579999924,-152.9136658,-170.1196594,45.0,-10.84178448,25.10926437,-52.2258606,0.0,0.0
2018-09-11 19:17:01.240,-0.3,0.0993333333333333,-0.226,-1.3271666333333334,0.5099458,7.593615983333333,97437.54476,-2000.0,-221333.3333333333,-492666.6666666667,45.70333333333333,2.579999924,-152.9136658,-170.1196594,45.0,-10.84178448,25.10926437,-52.2258606,0.0,0.0
2018-09-11 19:17:01.280,-0.309,0.111,-0.221,-1.3533177,0.50013915,7.5118939,97438.97705,8000.0,-218000.0,-489000.0,45.7,2.579999924,-152.9136658,-170.1196594,45.0,-10.84178448,25.10926437,-52.2258606,0.0,0.0
2018-09-11 19:17:01.320,-0.305,0.1075,-0.215,-1.44157755,0.6423355749999999,7.448150675,97439.404295,25000.0,-214500.0,-482000.0,45.7,2.879999876,-143.9779358,-168.7164307,47.0,-10.84178448,25.10926437,-52.2258606,0.0,0.0
2018-09-11 19:17:01.360,-0.301,0.104,-0.209,-1.5298374,0.784532,7.38440745,97439.83154,42000.0,-211000.0,-475000.0,45.7,2.879999876,-143.9779358,-168.7164307,47.0,-10.84178448,25.10926437,-52.2258606,0.0,0.0
2018-09-11 19:17:01.400,-0.2799999999999999,0.114,-0.2016666666666666,-1.5625262333333332,0.6243567166666667,7.1784678,97442.94433333332,52000.0,-207333.3333333333,-473000.0,45.693333333333335,2.9866665203333334,-143.9779358,-168.2571309666667,47.333333333333336,-10.84178448,25.10926437,-52.2258606,0.0,0.0
2018-09-11 19:17:01.440,-0.259,0.124,-0.1943333333333333,-1.595215066666667,0.4641814333333333,6.9725281500000005,97446.05712666668,62000.0,-203666.66666666663,-471000.0,45.68666666666667,3.0933331646666664,-143.9779358,-167.7978312333333,47.66666666666666,-10.84178448,25.10926437,-52.2258606,0.0,0.0
2018-09-11 19:17:01.480,-0.238,0.134,-0.187,-1.6279039,0.30400615,6.7665885,97449.16992,72000.0,-200000.0,-469000.0,45.68,3.199999809,-143.9779358,-167.3385315,48.0,-10.84178448,25.10926437,-52.2258606,0.0,0.0
2018-09-11 19:17:01.520,-0.2314999999999999,0.125,-0.1865,-1.6279039,0.514849125,6.614585425,97449.16992,85000.0,-195500.0,-464000.0,45.68,3.549999952,-137.8496094,-165.9522095,50.0,-10.84178448,25.10926437,-52.2258606,0.0,0.0
2018-09-11 19:17:01.560,-0.225,0.116,-0.186,-1.6279039,0.7256921,6.46258235,97449.16992,98000.0,-191000.0,-459000.0,45.68,3.549999952,-137.8496094,-165.9522095,50.0,-10.84178448,25.10926437,-52.2258606,0.0,0.0
2018-09-11 19:17:01.600,-0.237,0.1113333333333333,-0.18,-1.6344416666666666,0.4478370166666666,6.668522,97449.67041,105666.66666666669,-188000.0,-455666.6666666667,45.67666666666667,3.919999838,-137.8496094,-164.6166077,52.0,-14.83536911,19.01870537,-48.96853256,0.0,0.0
2018-09-11 19:17:01.640,-0.249,0.1066666666666666,-0.174,-1.6409794333333334,0.1699819333333333,6.87446165,97450.1709,113333.33333333331,-185000.0,-452333.3333333333,45.67333333333333,4.0224998595,-138.046878825,-164.28480532499998,52.5,-14.83536911,19.01870537,-48.96853256,0.0,0.0
2018-09-11 19:17:01.680,-0.261,0.102,-0.168,-1.6475172,-0.10787315,7.0804013,97450.67139,121000.0,-182000.0,-449000.0,45.67,4.124999881,-138.24414825,-163.95300294999998,53.0,-14.83536911,19.01870537,-48.96853256,0.0,0.0
2018-09-11 19:17:01.720,-0.2673333333333333,0.105,-0.157,-1.690012683333333,-0.0228821833333333,6.979065916666666,97454.20939333334,130666.66666666669,-175333.33333333334,-446666.6666666667,45.66666666666666,4.4424998165,-138.441417675,-162.974540725,54.0,-14.83536911,19.01870537,-48.96853256,0.0,0.0
2018-09-11 19:17:01.760,-0.2736666666666666,0.108,-0.146,-1.7325081666666666,0.0621087833333333,6.877730533333334,97457.74739666666,140333.33333333334,-168666.66666666666,-444333.3333333333,45.66333333333333,4.759999752,-138.6386871,-161.9960785,55.0,-14.83536911,19.01870537,-48.96853256,0.0,0.0
2018-09-11 19:17:01.800,-0.28,0.111,-0.135,-1.77500365,0.14709975,6.77639515,97461.2854,150000.0,-162000.0,-442000.0,45.66,4.759999752,-138.6386871,-161.9960785,55.0,-14.83536911,19.01870537,-48.96853256,0.0,0.0
2018-09-11 19:17:01.840,-0.2835,0.1075,-0.13,-1.79461695,0.259876225,6.761685175,97461.2854,150000.0,-162000.0,-442000.0,45.66,4.759999752,-138.6386871,-161.9960785,55.0,-14.83536911,19.01870537,-48.96853256,0.0,0.0
2018-09-11 19:17:01.880,-0.287,0.104,-0.125,-1.81423025,0.3726527,6.7469752,97461.2854,150000.0,-162000.0,-442000.0,45.66,4.759999752,-138.6386871,-161.9960785,55.0,-14.83536911,19.01870537,-48.96853256,0.0,0.0
2018-09-11 19:17:01.920,-0.2274999999999999,0.0985,-0.1139999999999999,-1.828940225,0.3775560249999999,6.9627215,97464.956665,156000.0,-157000.0,-441500.0,45.65,5.230000019,-139.5669861,-160.6688538,57.0,-17.40351486,14.35518456,-46.94172668,0.0,0.0
2018-09-11 19:17:01.960,-0.168,0.093,-0.103,-1.8436502,0.38245935,7.1784678,97468.62793,162000.0,-152000.0,-441000.0,45.64,5.230000019,-139.5669861,-160.6688538,57.0,-17.40351486,14.35518456,-46.94172668,0.0,0.0
2018-09-11 19:17:02.000,-0.1513333333333333,0.0926666666666666,-0.0973333333333333,-1.8828768,0.2288218333333333,7.2765343,97468.62793,166000.0,-149000.0,-440333.3333333333,45.64,5.730000019,-139.5669861,-159.3586273,59.0,-17.40351486,14.35518456,-46.94172668,0.0,0.0
2018-09-11 19:17:02.040,-0.1346666666666666,0.0923333333333333,-0.0916666666666666,-1.9221034,0.0751843166666666,7.3746008,97468.62793,170000.0,-146000.0,-439666.6666666667,45.64,5.730000019,-139.5669861,-159.3586273,59.0,-17.40351486,14.35518456,-46.94172668,0.0,0.0
2018-09-11 19:17:02.080,-0.118,0.092,-0.086,-1.96133,-0.0784532,7.4726673,97468.62793,174000.0,-143000.0,-439000.0,45.64,6.25,-136.3700867,-158.056839,60.0,-17.40351486,14.35518456,-46.94172668,0.0,0.0
2018-09-11 19:17:02.120,-0.14,0.102,-0.0799999999999999,-1.93191005,-0.2745862,7.526603875,97472.93701,177500.0,-138500.0,-438500.0,45.64,6.25,-136.3700867,-158.056839,60.0,-17.40351486,14.35518456,-46.94172668,0.0,0.0
2018-09-11 19:17:02.160,-0.162,0.112,-0.074,-1.9024901,-0.4707192,7.58054045,97477.24609,181000.0,-134000.0,-438000.0,45.64,6.25,-136.3700867,-158.056839,60.0,-17.40351486,14.35518456,-46.94172668,0.0,0.0
2018-09-11 19:17:02.200,-0.1676666666666666,0.0956666666666666,-0.0743333333333333,-1.89268345,-0.22555295,7.564196033333333,97481.61214,185000.0,-130666.66666666669,-434666.6666666667,45.63666666666667,6.519999981,-136.3700867,-157.41856385,61.0,-17.40351486,14.35518456,-46.94172668,0.0,0.0
2018-09-11 19:17:02.240,-0.1733333333333333,0.0793333333333333,-0.0746666666666666,-1.8828768,0.0196133,7.547851616666667,97485.97819,189000.0,-127333.33333333331,-431333.3333333333,45.63333333333333,6.789999962,-136.3700867,-156.7802887,62.0,-17.40351486,14.35518456,-46.94172668,0.0,0.0
2018-09-11 19:17:02.280,-0.179,0.063,-0.075,-1.87307015,0.26477955,7.5315072,97490.34424,193000.0,-124000.0,-428000.0,45.63,7.0699999335,-139.26086425,-156.13362884999998,63.0,-18.1075835225,13.255530599499998,-46.4720296825,0.0,0.0
2018-09-11 19:17:02.320,-0.1684999999999999,0.0365,-0.065,-1.91229675,0.6570455500000001,7.752156825,97490.34424,193000.0,-124000.0,-428000.0,45.63,7.349999905,-142.1516418,-155.486969,64.0,-18.811652185,12.155876639,-46.002332685,0.0,0.0
2018-09-11 19:17:02.360,-0.158,0.01,-0.055,-1.95152335,1.04931155,7.97280645,97490.34424,193000.0,-124000.0,-428000.0,45.63,7.644999981,-142.1516418,-154.8402939,64.5,-19.5157208475,11.0562226785,-45.5326356875,0.0,0.0
2018-09-11 19:17:02.400,-0.1576666666666666,0.01,-0.0536666666666666,-1.9972877166666667,0.6799277333333333,8.20816605,97494.50480333334,193000.0,-119666.66666666669,-430333.3333333333,45.623333333333335,7.940000057,-142.1516418,-154.1936188,65.0,-20.21978951,9.956568718,-45.06293869,0.0,0.0
2018-09-11 19:17:02.440,-0.1573333333333333,0.01,-0.0523333333333333,-2.043052083333333,0.3105439166666667,8.44352565,97498.66536666668,193000.0,-115333.33333333331,-432666.6666666667,45.61666666666667,7.940000057,-142.1516418,-154.1936188,65.0,-20.21978951,9.956568718,-45.06293869,0.0,0.0
2018-09-11 19:17:02.480,-0.157,0.01,-0.051,-2.08881645,-0.0588399,8.67888525,97502.82593,193000.0,-111000.0,-435000.0,45.61,8.2400000095,-145.40691375,-153.54695895,66.0,-20.21978951,9.956568718,-45.06293869,0.0,0.0
2018-09-11 19:17:02.520,-0.1575,0.0139999999999999,-0.052,-2.0397832,-0.06864655,8.73772515,97502.82593,193000.0,-111000.0,-435000.0,45.61,8.539999962,-148.6621857,-152.9002991,67.0,-20.21978951,9.956568718,-45.06293869,0.0,0.0
2018-09-11 19:17:02.560,-0.158,0.018,-0.053,-1.99074995,-0.0784532,8.79656505,97502.82593,193000.0,-111000.0,-435000.0,45.61,8.539999962,-148.6621857,-152.9002991,67.0,-20.21978951,9.956568718,-45.06293869,0.0,0.0
2018-09-11 19:17:02.600,-0.1425,0.0069999999999999,-0.04875,-2.0030082625,0.171616375,8.8872765625,97506.385805,192750.0,-108000.0,-434750.0,45.6075,9.159999847,-148.6621857,-151.6154175,69.0,-20.21978951,9.956568718,-45.06293869,0.0,0.0
2018-09-11 19:17:02.640,-0.127,-0.004,-0.0445,-2.015266575,0.42168595,8.977988074999999,97509.94568,192500.0,-105000.0,-434500.0,45.605,9.366666475666667,-149.09108483333333,-151.18147786666668,69.33333333333333,-20.21978951,9.956568718,-45.06293869,0.0,0.0
2018-09-11 19:17:02.680,-0.1115,-0.015,-0.0402499999999999,-2.0275248875000003,0.671755525,9.0686995875,97513.505555,192250.0,-102000.0,-434250.0,45.6025,9.573333104333331,-149.51998396666667,-150.74753823333333,69.66666666666667,-20.21978951,9.956568718,-45.06293869,0.0,0.0
2018-09-11 19:17:02.720,-0.096,-0.026,-0.036,-2.0397832,0.9218251,9.1594111,97517.06543,192000.0,-99000.0,-434000.0,45.6,9.779999733,-149.9488831,-150.3135986,70.0,-20.21978951,9.956568718,-45.06293869,0.0,0.0
2018-09-11 19:17:02.760,-0.1155,-0.0124999999999999,-0.035,-2.0937197750000003,0.4609125500000005,9.3359308,97521.30127,192500.0,-97000.0,-437500.0,45.595,10.0999999065,-149.9488831,-149.66693114999998,71.0,-20.39620972,8.387215376,-44.495630265,0.0,0.0
2018-09-11 19:17:02.800,-0.135,0.001,-0.034,-2.14765635,1.16e-15,9.5124505,97525.53711,193000.0,-95000.0,-441000.0,45.59,10.42000008,-149.9488831,-149.0202637,72.0,-20.57262993,6.817862034,-43.92832184,0.0,0.0
2018-09-11 19:17:02.840,-0.154,-0.002,-0.036,-2.14765635,-0.16671305,9.42419065,97525.53711,193000.0,-95000.0,-441000.0,45.59,10.42000008,-149.9488831,-149.0202637,72.0,-20.57262993,6.817862034,-43.92832184,0.0,0.0
2018-09-11 19:17:02.880,-0.1553333333333333,-0.0016666666666666,-0.036,-2.1182364,0.0130755333333333,9.535332683333332,97528.41797,192333.3333333333,-93666.66666666669,-441333.3333333333,45.59,10.739999775,-159.53655245,-148.36933134999998,73.0,-20.57262993,6.817862034,-43.92832184,0.0,0.0
2018-09-11 19:17:02.920,-0.1566666666666666,-0.0013333333333333,-0.036,-2.08881645,0.1928641166666666,9.646474716666669,97531.29883,191666.66666666663,-92333.33333333331,-441666.6666666667,45.59,11.05999947,-169.1242218,-147.718399,74.0,-20.57262993,6.817862034,-43.92832184,0.0,0.0
2018-09-11 19:17:02.960,-0.158,-0.001,-0.036,-2.0593965,0.3726527,9.75761675,97534.17969,191000.0,-91000.0,-442000.0,45.59,11.05999947,-169.1242218,-147.718399,74.0,-20.57262993,6.817862034,-43.92832184,0.0,0.0
2018-09-11 19:17:03.000,-0.145,-0.0055,-0.032,-2.08881645,0.7256921000000001,9.654646925,97538.204955,187500.0,-88000.0,-446500.0,45.59,11.37999964,-169.1242218,-147.0590515,75.0,-20.57262993,6.817862034,-43.92832184,0.0,0.0
2018-09-11 19:17:03.040,-0.132,-0.01,-0.028,-2.1182364,1.0787315,9.5516771,97542.23022,184000.0,-85000.0,-451000.0,45.59,11.69999981,-169.1242218,-146.399704,76.0,-20.57262993,6.817862034,-43.92832184,0.0,0.0
2018-09-11 19:17:03.080,-0.1276666666666666,-0.012,-0.0223333333333333,-2.124774166666666,0.980665,9.62032365,97543.80289333333,184000.0,-83000.0,-451333.3333333333,45.586666666666666,12.34000015,-187.3697205,-145.0978851,77.0,-20.57262993,6.817862034,-43.92832184,0.0,0.0
2018-09-11 19:17:03.120,-0.1233333333333333,-0.014,-0.0166666666666666,-2.131311933333333,0.8825985,9.6889702,97545.37556666668,184000.0,-81000.0,-451666.6666666667,45.583333333333336,12.34000015,-187.3697205,-145.0978851,77.0,-20.60979843,5.3436198235,-43.552030565,0.0,0.0
2018-09-11 19:17:03.160,-0.119,-0.016,-0.011,-2.1378497,0.784532,9.75761675,97546.94824,184000.0,-79000.0,-452000.0,45.58,12.34000015,-187.3697205,-145.0978851,77.0,-20.64696693,3.869377613,-43.17573929,0.0,0.0
2018-09-11 19:17:03.200,-0.123,-0.017,-0.0093333333333333,-2.1803451833333334,0.3988037666666666,9.793574466666668,97552.04467666669,182000.0,-75666.66666666667,-454000.0,45.57333333333333,12.659999845,-187.3697205,-144.4343109,78.0,-20.64696693,3.869377613,-43.17573929,0.0,0.0
2018-09-11 19:17:03.240,-0.127,-0.018,-0.0076666666666666,-2.2228406666666665,0.0130755333333333,9.829532183333331,97557.14111333332,180000.0,-72333.33333333333,-456000.0,45.56666666666667,12.97999954,-187.3697205,-143.7707367,79.0,-20.64696693,3.869377613,-43.17573929,0.0,0.0
2018-09-11 19:17:03.280,-0.131,-0.019,-0.006,-2.26533615,-0.3726527,9.8654899,97562.23755,178000.0,-69000.0,-458000.0,45.56,13.63000011,-211.8135376,-142.4436035,81.0,-20.64696693,3.869377613,-43.17573929,0.0,0.0
2018-09-11 19:17:03.320,-0.131,-0.0165,-0.005,-2.2163029,-0.4511058999999999,9.948846425,97566.26587,178000.0,-69000.0,-458000.0,45.56,13.63000011,-211.8135376,-142.4436035,81.0,-20.64696693,3.869377613,-43.17573929,0.0,0.0
2018-09-11 19:17:03.360,-0.131,-0.014,-0.004,-2.16726965,-0.5295591,10.03220295,97570.29419,178000.0,-69000.0,-458000.0,45.56,13.63000011,-211.8135376,-142.4436035,81.0,-20.64696693,3.869377613,-43.17573929,0.0,0.0
2018-09-11 19:17:03.400,-0.1256666666666666,-0.0126666666666666,-0.0016666666666666,-2.157463,-0.5360968666666667,9.937405333333334,97570.29419,179000.0,-67333.33333333333,-457666.6666666667,45.56,14.2699995,-211.8135376,-141.1079559,83.0,-20.64696693,3.869377613,-43.17573929,0.0,0.0
2018-09-11 19:17:03.440,-0.1203333333333333,-0.0113333333333333,0.0006666666666666,-2.14765635,-0.5426346333333333,9.842607716666668,97570.29419,180000.0,-65666.66666666667,-457333.3333333333,45.56,14.2699995,-211.8135376,-141.1079559,83.0,-20.64696693,3.869377613,-43.17573929,0.0,0.0
2018-09-11 19:17:03.480,-0.115,-0.01,0.003,-2.1378497,-0.5491724,9.7478101,97570.29419,181000.0,-64000.0,-457000.0,45.56,14.59499979,-221.95767975,-140.42748260000002,83.5,-20.562450405,2.821383834,-43.141582490000005,0.0,0.0
2018-09-11 19:17:03.520,-0.122,-0.0095,0.0025,-2.1378497,-0.4903325,9.5516771,97574.41101,174500.0,-63000.0,-462000.0,45.555,14.92000008,-232.1018219,-139.7470093,84.0,-20.47793388,1.773390055,-43.10742569,0.0,0.0
2018-09-11 19:17:03.560,-0.129,-0.009,0.002,-2.1378497,-0.4314926,9.3555441,97578.52783,168000.0,-62000.0,-467000.0,45.55,14.92000008,-232.1018219,-139.7470093,84.0,-20.47793388,1.773390055,-43.10742569,0.0,0.0
2018-09-11 19:17:03.600,-0.129,-0.0116666666666666,0.0033333333333333,-2.150925233333333,-0.4282237166666666,9.5516771,97582.93457,165666.66666666666,-59000.0,-468333.3333333333,45.54666666666667,15.55999947,-232.1018219,-138.4028625,86.0,-20.47793388,1.773390055,-43.10742569,0.0,0.0
2018-09-11 19:17:03.640,-0.129,-0.0143333333333333,0.0046666666666666,-2.1640007666666667,-0.4249548333333333,9.7478101,97587.34131,163333.33333333334,-56000.0,-469666.6666666667,45.54333333333333,15.717499735,-237.846042625,-138.066848725,86.5,-20.47793388,1.773390055,-43.10742569,0.0,0.0
2018-09-11 19:17:03.680,-0.129,-0.017,0.006,-2.1770763,-0.42168595,9.9439431,97591.74805,161000.0,-53000.0,-471000.0,45.54,15.875,-243.59026335,-137.73083495,87.0,-20.47793388,1.773390055,-43.10742569,0.0,0.0
2018-09-11 19:17:03.720,-0.088,-0.0105,0.008,-2.1819796250000003,-0.26477955,9.60071035,97594.99512,159000.0,-51500.0,-471500.0,45.535,16.19000053,-255.0787048,-137.0588074,88.0,-20.47793388,1.773390055,-43.10742569,0.0,0.0
2018-09-11 19:17:03.760,-0.047,-0.004,0.01,-2.18688295,-0.10787315,9.2574776,97598.24219,157000.0,-50000.0,-472000.0,45.53,16.40666707,-255.0787048,-136.59952293333333,88.66666666666667,-20.427426016666665,1.3401218456666666,-43.17969767333333,0.0,0.0
2018-09-11 19:17:03.800,-0.0406666666666666,-0.0023333333333333,0.0116666666666666,-2.2097651333333337,0.1536375166666666,9.185562166666667,97598.24219,157000.0,-50000.0,-472000.0,45.53,16.62333361,-255.0787048,-136.1402384666667,89.33333333333333,-20.37691815333333,0.9068536363333332,-43.25196965666667,0.0,0.0
2018-09-11 19:17:03.840,-0.0343333333333333,-0.0006666666666666,0.0133333333333333,-2.2326473166666667,0.4151481833333333,9.113646733333333,97598.24219,157000.0,-50000.0,-472000.0,45.53,16.84000015,-255.0787048,-135.680954,90.0,-20.32641029,0.473585427,-43.32424164,0.0,0.0
2018-09-11 19:17:03.880,-0.028,0.001,0.015,-2.2555295,0.67665885,9.0417313,97598.24219,157000.0,-50000.0,-472000.0,45.53,17.170000075,-263.47541805,-134.98355865000002,91.0,-20.32641029,0.473585427,-43.32424164,0.0,0.0
2018-09-11 19:17:03.920,-0.0225,-0.0135,0.0069999999999999,-2.250626175,0.740402075,9.3359308,97603.530885,154500.0,-49000.0,-473000.0,45.53,17.5,-271.8721313,-134.2861633,92.0,-20.32641029,0.473585427,-43.32424164,0.0,0.0
2018-09-11 19:17:03.960,-0.017,-0.028,-0.001,-2.24572285,0.8041453,9.6301303,97608.81958,152000.0,-48000.0,-474000.0,45.53,17.5,-271.8721313,-134.2861633,92.0,-20.32641029,0.473585427,-43.32424164,0.0,0.0
2018-09-11 19:17:04.000,-0.0083333333333333,-0.027,-0.0026666666666666,-2.2293784333333333,0.4641814333333333,9.760885633333332,97614.76237,147000.0,-47666.66666666666,-478000.0,45.52333333333333,18.15999985,-271.8721313,-132.8829498,94.0,-20.32641029,0.473585427,-43.32424164,0.0,0.0
2018-09-11 19:17:04.040,0.0003333333333333,-0.026,-0.0043333333333333,-2.2130340166666667,0.1242175666666666,9.891640966666667,97620.70516,142000.0,-47333.333333333336,-482000.0,45.516666666666666,18.48499966,-282.74897765000003,-132.18552395,95.0,-20.32641029,0.473585427,-43.32424164,0.0,0.0
2018-09-11 19:17:04.080,0.009,-0.025,-0.006,-2.1966896,-0.2157463,10.0223963,97626.64795,137000.0,-47000.0,-486000.0,45.51,18.80999947,-293.625824,-131.4880981,96.0,-20.32641029,0.473585427,-43.32424164,0.0,0.0
2018-09-11 19:17:04.120,0.0213333333333333,-0.033,-0.0033333333333333,-2.2130340166666667,0.0947976166666666,10.002783,97629.17277,135333.33333333334,-46666.66666666666,-488000.0,45.50666666666667,18.80999947,-293.625824,-131.4880981,96.0,-20.32641029,0.473585427,-43.32424164,0.0,0.0
2018-09-11 19:17:04.160,0.0336666666666666,-0.041,-0.0006666666666666,-2.2293784333333333,0.4053415333333333,9.9831697,97631.69759,133666.66666666666,-46333.333333333336,-490000.0,45.50333333333333,19.47999954,-293.625824,-130.0595245,98.0,-20.32641029,0.473585427,-43.32424164,0.0,0.0
2018-09-11 19:17:04.200,0.046,-0.049,0.002,-2.24572285,0.71588545,9.9635564,97634.22241,132000.0,-46000.0,-492000.0,45.5,19.47999954,-293.625824,-130.0595245,98.0,-20.32641029,0.473585427,-43.32424164,0.0,0.0
2018-09-11 19:17:04.240,0.0315,-0.055,-0.0005,-2.20649625,0.5687857000000001,10.1596894,97634.22241,132000.0,-46000.0,-492000.0,45.5,19.47999954,-293.625824,-130.0595245,98.0,-20.32641029,0.473585427,-43.32424164,0.0,0.0
2018-09-11 19:17:04.280,0.017,-0.061,-0.003,-2.16726965,0.42168595,10.3558224,97634.22241,132000.0,-46000.0,-492000.0,45.5,19.809999465,-304.4736786,-129.3494644,98.5,-20.32641029,0.473585427,-43.32424164,0.0,0.0
2018-09-11 19:17:04.320,0.0136666666666666,-0.0633333333333333,-0.0036666666666666,-2.203227366666667,0.5262902166666666,10.401586766666666,97638.38907666667,127333.33333333331,-46666.66666666666,-495666.6666666667,45.5,20.13999939,-315.3215332,-128.6394043,99.0,-20.32641029,0.473585427,-43.32424164,0.0,0.0
2018-09-11 19:17:04.360,0.0103333333333333,-0.0656666666666666,-0.0043333333333333,-2.239185083333333,0.6308944833333333,10.447351133333331,97642.55574333332,122666.66666666669,-47333.333333333336,-499333.3333333333,45.5,20.47499943,-315.3215332,-127.91664885,100.0,-19.942295075,0.7905072870000001,-43.409606935,0.0,0.0
2018-09-11 19:17:04.400,0.007,-0.068,-0.005,-2.2751428,0.73549875,10.4931155,97646.72241,118000.0,-48000.0,-503000.0,45.5,20.80999947,-315.3215332,-127.1938934,101.0,-19.55817986,1.107429147,-43.49497223,0.0,0.0
2018-09-11 19:17:04.440,-0.008,-0.088,-0.01,-2.157463,-0.02941995,11.11093445,97646.72241,118000.0,-48000.0,-503000.0,45.5,20.80999947,-315.3215332,-127.1938934,101.0,-19.55817986,1.107429147,-43.49497223,0.0,0.0
2018-09-11 19:17:04.480,-0.0006666666666666,-0.0979999999999999,-0.0113333333333333,-2.1411185833333333,0.0228821833333333,11.244958666666667,97649.36930333334,114000.0,-47666.66666666666,-506333.3333333333,45.49666666666667,21.134999275,-323.8845825,-126.4627037,102.0,-19.55817986,1.107429147,-43.49497223,0.0,0.0
2018-09-11 19:17:04.520,0.0066666666666666,-0.108,-0.0126666666666666,-2.124774166666666,0.0751843166666666,11.378982883333332,97652.01619666666,110000.0,-47333.333333333336,-509666.6666666667,45.49333333333333,21.45999908,-332.4476318,-125.731514,103.0,-19.55817986,1.107429147,-43.49497223,0.0,0.0
2018-09-11 19:17:04.560,0.014,-0.118,-0.014,-2.10842975,0.12748645,11.5130071,97654.66309,106000.0,-47000.0,-513000.0,45.49,21.78499889,-332.4476318,-124.99608995,104.0,-19.55817986,1.107429147,-43.49497223,0.0,0.0
2018-09-11 19:17:04.600,0.0123333333333333,-0.1263333333333333,-0.013,-2.0790098,0.2059396499999999,11.597998066666666,97658.68327,89000.0,-44666.66666666666,-524666.6666666666,45.49,22.1099987,-332.4476318,-124.2606659,105.0,-19.55817986,1.107429147,-43.49497223,0.0,0.0
2018-09-11 19:17:04.640,0.0106666666666666,-0.1346666666666666,-0.012,-2.04958985,0.28439285,11.682989033333332,97662.70345,72000.0,-42333.333333333336,-536333.3333333334,45.49,22.1099987,-332.4476318,-124.2606659,105.0,-19.55817986,1.107429147,-43.49497223,0.0,0.0
2018-09-11 19:17:04.680,0.009,-0.143,-0.011,-2.0201699,0.36284605,11.76798,97666.72363,55000.0,-40000.0,-548000.0,45.49,22.41999912,-342.49287415000003,-123.52098845,106.0,-19.55817986,1.107429147,-43.49497223,0.0,0.0
2018-09-11 19:17:04.720,0.0095,-0.1565,-0.0069999999999999,-1.927006725,0.269682875,11.9837263,97669.717405,24500.0,-35500.0,-569000.0,45.485,22.72999954,-352.5381165,-122.781311,107.0,-19.55817986,1.107429147,-43.49497223,0.0,0.0
2018-09-11 19:17:04.760,0.01,-0.17,-0.003,-1.83384355,0.1765197,12.1994726,97672.71118,-6000.0,-31000.0,-590000.0,45.48,22.72999954,-352.5381165,-122.781311,107.0,-19.55817986,1.107429147,-43.49497223,0.0,0.0
2018-09-11 19:17:04.800,0.012,-0.1816666666666666,-0.003,-1.7913480666666668,0.1732508166666666,12.585200833333332,97674.95320666669,-27000.0,-28000.0,-606333.3333333334,45.47666666666667,23.02999973,-352.5381165,-122.0374374,108.0,-18.06894875,1.4904767275,-43.426275255,0.0,0.0
2018-09-11 19:17:04.840,0.014,-0.1933333333333333,-0.003,-1.7488525833333333,0.1699819333333333,12.970929066666669,97677.19523333332,-48000.0,-25000.0,-622666.6666666666,45.47333333333333,23.32999992,-352.5381165,-121.2935638,109.0,-16.57971764,1.873524308,-43.35757828,0.0,0.0
2018-09-11 19:17:04.880,0.016,-0.205,-0.003,-1.7063571,0.16671305,13.3566573,97679.43726,-69000.0,-22000.0,-639000.0,45.47,23.90999985,-383.3730774,-119.7888489,111.0,-16.57971764,1.873524308,-43.35757828,0.0,0.0
2018-09-11 19:17:04.920,0.0195,-0.2125,0.0039999999999999,-1.5788706499999998,0.20593965,13.616533525,97684.765625,-109500.0,-17500.0,-664000.0,45.47,23.90999985,-383.3730774,-119.7888489,111.0,-16.57971764,1.873524308,-43.35757828,0.0,0.0
2018-09-11 19:17:04.960,0.023,-0.22,0.011,-1.4513842,0.24516625,13.87640975,97690.09399,-150000.0,-13000.0,-689000.0,45.47,23.90999985,-383.3730774,-119.7888489,111.0,-16.57971764,1.873524308,-43.35757828,0.0,0.0
2018-09-11 19:17:05.000,0.023,-0.2243333333333333,0.0156666666666666,-1.4513842,0.2974683833333333,13.9646696,97693.16813,-178333.33333333334,-8666.666666666697,-711666.6666666666,45.46666666666667,24.44999886,-383.3730774,-118.2757339,113.0,-16.57971764,1.873524308,-43.35757828,0.0,0.0
2018-09-11 19:17:05.040,0.023,-0.2286666666666666,0.0203333333333333,-1.4513842,0.3497705166666666,14.05292945,97696.24227,-206666.66666666663,-4333.333333333396,-734333.3333333334,45.46333333333333,24.44999886,-383.3730774,-118.2757339,113.0,-16.57971764,1.873524308,-43.35757828,0.0,0.0
2018-09-11 19:17:05.080,0.023,-0.233,0.025,-1.4513842,0.40207265,14.1411893,97699.31641,-235000.0,-9.27e-11,-757000.0,45.46,24.61999893333333,-393.70574953333335,-117.76290636666668,113.66666666666669,-16.57971764,1.873524308,-43.35757828,0.0,0.0
2018-09-11 19:17:05.120,0.0115,-0.215,0.0285,-1.2160246,0.465815875,14.3961622,97703.93982,-274500.0,4499.999999999954,-784500.0,45.455,24.789999006666665,-404.0384216666666,-117.25007883333332,114.33333333333331,-16.57971764,1.873524308,-43.35757828,0.0,0.0
2018-09-11 19:17:05.160,0.0,-0.197,0.032,-0.980665,0.5295591,14.6511351,97708.56323,-314000.0,9000.0,-812000.0,45.45,24.95999908,-414.3710938,-116.7372513,115.0,-16.57971764,1.873524308,-43.35757828,0.0,0.0
2018-09-11 19:17:05.200,-0.0066666666666666,-0.2153333333333333,0.033,-0.9545139333333332,0.50013915,14.77862155,97710.66894333334,-359666.6666666667,16000.0,-845666.6666666666,45.45,25.40999985,-414.3710938,-115.2156982,117.0,-12.20683384,2.698781729,-43.67184448,0.0,0.0
2018-09-11 19:17:05.240,-0.0133333333333333,-0.2336666666666666,0.034,-0.9283628666666668,0.4707191999999999,14.906108,97712.77465666666,-405333.3333333333,23000.0,-879333.3333333334,45.45,25.40999985,-414.3710938,-115.2156982,117.0,-12.20683384,2.698781729,-43.67184448,0.0,0.0
2018-09-11 19:17:05.280,-0.02,-0.252,0.035,-0.9022118,0.44129925,15.03359445,97714.88037,-451000.0,30000.0,-913000.0,45.45,25.40999985,-414.3710938,-115.2156982,117.0,-12.20683384,2.698781729,-43.67184448,0.0,0.0
2018-09-11 19:17:05.320,-0.02,-0.249,0.0325,-0.79433865,0.436395925,15.4356671,97716.89758,-496000.0,32000.0,-936000.0,45.445,25.82999992,-444.8852539,-113.6772385,119.0,-12.20683384,2.698781729,-43.67184448,0.0,0.0
2018-09-11 19:17:05.360,-0.02,-0.246,0.03,-0.6864655,0.4314926,15.83773975,97718.91479,-541000.0,34000.0,-959000.0,45.44,26.19999886,-444.8852539,-112.1386948,122.0,-12.20683384,2.698781729,-43.67184448,0.0,0.0
2018-09-11 19:17:05.400,-0.0529999999999999,-0.254,0.0255,-0.603108975,0.3726527,15.705349975,97724.72839,-597000.0,47000.0,-993500.0,45.44,26.19999886,-444.8852539,-112.1386948,122.0,-12.20683384,2.698781729,-43.67184448,0.0,0.0
2018-09-11 19:17:05.440,-0.086,-0.262,0.021,-0.51975245,0.3138128,15.5729602,97730.54199,-653000.0,60000.0,-1028000.0,45.44,26.19999886,-444.8852539,-112.1386948,122.0,-12.20683384,2.698781729,-43.67184448,0.0,0.0
2018-09-11 19:17:05.480,-0.07075,-0.27125,0.0195,-0.50013915,0.4486542375,15.5925735,97733.761595,-673750.0,64000.0,-1055500.0,45.435,26.19999886,-444.8852539,-112.1386948,122.0,-12.20683384,2.698781729,-43.67184448,0.0,0.0
2018-09-11 19:17:05.520,-0.0554999999999999,-0.2804999999999999,0.018,-0.48052585,0.583495675,15.6121868,97736.9812,-694500.0,68000.0,-1083000.0,45.43,26.51999855,-472.9866028,-110.5833282,124.0,-12.20683384,2.698781729,-43.67184448,0.0,0.0
2018-09-11 19:17:05.560,-0.04025,-0.28975,0.0165,-0.46091255,0.7183371125,15.6318001,97740.200805,-715250.0,72000.0,-1110500.0,45.425,26.51999855,-472.9866028,-110.5833282,124.0,-12.20683384,2.698781729,-43.67184448,0.0,0.0
2018-09-11 19:17:05.600,-0.025,-0.299,0.015,-0.44129925,0.85317855,15.6514134,97743.42041,-736000.0,76000.0,-1138000.0,45.42,26.64499855,-472.9866028,-109.801403,125.0,-9.332605839,2.5862993005,-43.947824475,0.0,0.0
2018-09-11 19:17:05.640,-0.0385,-0.3125,0.0055,-0.34323275,0.61781895,16.078002675,97741.99829,-736000.0,76000.0,-1138000.0,45.42,26.76999855,-472.9866028,-109.0194778,126.0,-6.458377838,2.473816872,-44.22380447,0.0,0.0
2018-09-11 19:17:05.680,-0.052,-0.326,-0.004,-0.24516625,0.38245935,16.50459195,97740.57617,-736000.0,76000.0,-1138000.0,45.42,26.98999977,-502.2378845,-107.4472046,128.0,-6.458377838,2.473816872,-44.22380447,0.0,0.0
2018-09-11 19:17:05.720,-0.0419999999999999,-0.3163333333333333,-0.003,-0.1994018833333333,0.4314925999999999,16.60265845,97742.15698,-570000.0,80000.0,-1221333.3333333333,45.41666666666666,27.03666623333333,-502.2378845,-106.9259084,128.66666666666666,-6.458377838,2.473816872,-44.22380447,0.0,0.0
2018-09-11 19:17:05.760,-0.032,-0.3066666666666666,-0.002,-0.1536375166666666,0.48052585,16.700724949999998,97743.73779,-404000.0,84000.0,-1304666.6666666667,45.41333333333333,27.083332696666663,-502.2378845,-106.4046122,129.33333333333334,-6.458377838,2.473816872,-44.22380447,0.0,0.0
2018-09-11 19:17:05.800,-0.022,-0.297,-0.001,-0.10787315,0.5295591,16.79879145,97745.3186,-238000.0,88000.0,-1388000.0,45.41,27.12999916,-502.2378845,-105.883316,130.0,-6.458377838,2.473816872,-44.22380447,0.0,0.0
2018-09-11 19:17:05.840,-0.0135,-0.2764999999999999,-0.0025,-0.024516625,0.50013915,16.661498350000002,97745.3186,-238000.0,88000.0,-1388000.0,45.41,27.1524991975,-507.020851125,-105.48813435,130.5,-6.458377838,2.473816872,-44.22380447,0.0,0.0
2018-09-11 19:17:05.880,-0.005,-0.256,-0.004,0.0588399,0.4707192,16.52420525,97745.3186,-238000.0,88000.0,-1388000.0,45.41,27.174999235,-511.80381775,-105.0929527,131.0,-6.458377838,2.473816872,-44.22380447,0.0,0.0
2018-09-11 19:17:05.920,-0.006,-0.245,-0.0019999999999999,0.083356525,0.485429175,16.176069175000002,97746.780395,-614500.0,99500.0,-1320000.0,45.41,27.1974992725,-516.586784375,-104.69777105,131.5,-6.458377838,2.473816872,-44.22380447,0.0,0.0
2018-09-11 19:17:05.960,-0.007,-0.234,2.87e-17,0.10787315,0.50013915,15.8279331,97748.24219,-991000.0,111000.0,-1252000.0,45.41,27.21999931,-521.369751,-104.3025894,132.0,-6.458377838,2.473816872,-44.22380447,0.0,0.0
2018-09-11 19:17:06.000,-0.006,-0.2285,0.0015,0.112776475,0.603108975,15.607283475,97751.51062,-730000.0,116000.0,-1344500.0,45.405,27.22999954,-521.369751,-102.7472229,134.0,-6.458377838,2.473816872,-44.22380447,0.0,0.0
2018-09-11 19:17:06.040,-0.005,-0.223,0.003,0.1176798,0.7060788,15.38663385,97754.77905,-469000.0,121000.0,-1437000.0,45.4,27.22999954,-521.369751,-102.7472229,134.0,-6.458377838,2.473816872,-44.22380447,0.0,0.0
2018-09-11 19:17:06.080,-0.0123333333333333,-0.2236666666666666,0.0006666666666666,0.1503686333333333,0.63743225,15.272222933333332,97751.66422333333,-664000.0,118666.66666666669,-1494666.6666666667,45.39666666666667,27.18999863,-520.2716675,-101.1664581,136.0,1.422563314,2.41514492,-44.20026398,0.0,0.0
2018-09-11 19:17:06.120,-0.0196666666666666,-0.2243333333333333,-0.0016666666666666,0.1830574666666666,0.5687857,15.157812016666668,97748.54939666668,-859000.0,116333.33333333331,-1552333.3333333333,45.39333333333333,27.18999863,-520.2716675,-101.1664581,136.0,1.422563314,2.41514492,-44.20026398,0.0,0.0
2018-09-11 19:17:06.160,-0.027,-0.225,-0.004,0.2157463,0.50013915,15.0434011,97745.43457,-1054000.0,114000.0,-1610000.0,45.39,27.18999863,-520.2716675,-101.1664581,136.0,1.422563314,2.41514492,-44.20026398,0.0,0.0
2018-09-11 19:17:06.200,-0.017,-0.204,-0.006,0.1569064,0.603108975,14.50403535,97746.38672,-338500.0,105500.0,-1494500.0,45.39,27.09999847,-520.2716675,-99.58573151,138.0,1.422563314,2.41514492,-44.20026398,0.0,0.0
2018-09-11 19:17:06.240,-0.007,-0.183,-0.008,0.0980665,0.7060788,13.9646696,97747.33887,377000.0,97000.0,-1379000.0,45.39,27.09999847,-520.2716675,-99.58573151,138.0,1.422563314,2.41514492,-44.20026398,0.0,0.0
2018-09-11 19:17:06.280,0.001,-0.1766666666666666,-0.01,0.1765197,0.6243567166666667,14.124844883333331,97747.74780333332,-99333.33333333331,110333.33333333331,-1366333.3333333333,45.38666666666667,27.03499889,-516.35720825,-98.799564365,139.5,1.422563314,2.41514492,-44.20026398,0.0,0.0
2018-09-11 19:17:06.320,0.009,-0.1703333333333333,-0.012,0.2549729,0.5426346333333333,14.285020166666667,97748.15673666669,-575666.6666666666,123666.66666666669,-1353666.6666666667,45.38333333333333,26.96999931,-512.442749,-98.01339722,141.0,1.422563314,2.41514492,-44.20026398,0.0,0.0
2018-09-11 19:17:06.360,0.017,-0.164,-0.014,0.3334261,0.46091255,14.44519545,97748.56567,-1052000.0,137000.0,-1341000.0,45.38,26.96999931,-512.442749,-98.01339722,141.0,1.422563314,2.41514492,-44.20026398,0.0,0.0
2018-09-11 19:17:06.400,0.0246666666666666,-0.143,-0.0123333333333333,0.2549729,0.5164835666666666,14.049660566666669,97744.41324666666,-992333.3333333334,124666.66666666669,-1325000.0,45.376666666666665,26.87999916,-512.442749,-97.244163515,142.0,1.422563314,2.41514492,-44.20026398,0.0,0.0
2018-09-11 19:17:06.440,0.0323333333333333,-0.122,-0.0106666666666666,0.1765197,0.5720545833333334,13.654125683333334,97740.26082333332,-932666.6666666666,112333.33333333331,-1309000.0,45.373333333333335,26.78999901,-512.442749,-96.47492981,143.0,1.422563314,2.41514492,-44.20026398,0.0,0.0
2018-09-11 19:17:06.480,0.04,-0.101,-0.009,0.0980665,0.6276256,13.2585908,97736.1084,-873000.0,100000.0,-1293000.0,45.37,26.684999465,-507.3539581,-95.69302368,144.0,3.3439189195,2.733068585,-44.10772133,0.0,0.0
2018-09-11 19:17:06.520,0.0285,-0.102,-0.012,0.18632635,0.5099458,12.920261375,97736.1084,-244500.0,96500.0,-1335000.0,45.37,26.57999992,-502.2651672,-94.91111755,145.0,5.265274525,3.05099225,-44.01517868,0.0,0.0
2018-09-11 19:17:06.560,0.017,-0.103,-0.015,0.2745862,0.392266,12.58193195,97736.1084,384000.0,93000.0,-1377000.0,45.37,26.57999992,-502.2651672,-94.91111755,145.0,5.265274525,3.05099225,-44.01517868,0.0,0.0
2018-09-11 19:17:06.600,0.0166666666666666,-0.0863333333333333,-0.0146666666666666,0.2288218333333333,0.4641814333333333,12.356379,97737.42269,-256000.0,108000.0,-1366000.0,45.37,26.32999992,-502.2651672,-93.39134979,147.0,5.265274525,3.05099225,-44.01517868,0.0,0.0
2018-09-11 19:17:06.640,0.0163333333333333,-0.0696666666666666,-0.0143333333333333,0.1830574666666666,0.5360968666666667,12.13082605,97738.73698,-896000.0,123000.0,-1355000.0,45.37,26.32999992,-502.2651672,-93.39134979,147.0,5.265274525,3.05099225,-44.01517868,0.0,0.0
2018-09-11 19:17:06.680,0.016,-0.053,-0.014,0.1372931,0.6080123,11.9052731,97740.05127,-1536000.0,138000.0,-1344000.0,45.37,26.199999805,-486.77682495,-92.61784744,148.0,5.265274525,3.05099225,-44.01517868,0.0,0.0
2018-09-11 19:17:06.720,0.026,-0.0595,-0.0155,0.122583125,0.5540757249999999,11.645396875,97734.417725,-1030000.0,113000.0,-1290000.0,45.365,26.06999969,-471.2884827,-91.84434509,149.0,5.265274525,3.05099225,-44.01517868,0.0,0.0
2018-09-11 19:17:06.760,0.036,-0.066,-0.017,0.10787315,0.50013915,11.38552065,97728.78418,-524000.0,88000.0,-1236000.0,45.36,25.97333272,-471.2884827,-91.34686787666666,149.66666666666666,5.265274525,3.05099225,-44.01517868,0.0,0.0
2018-09-11 19:17:06.800,0.019,-0.075,-0.023,0.1144109166666666,0.4347614833333333,11.382251766666666,97728.00293,-568666.6666666666,88333.33333333333,-1218666.6666666667,45.35666666666667,25.87666575,-471.2884827,-90.84939066333334,150.33333333333334,5.265274525,3.05099225,-44.01517868,0.0,0.0
2018-09-11 19:17:06.840,0.002,-0.084,-0.029,0.1209486833333333,0.3693838166666666,11.378982883333334,97727.22168,-613333.3333333334,88666.66666666667,-1201333.3333333333,45.35333333333333,25.77999878,-471.2884827,-90.35191345,151.0,5.265274525,3.05099225,-44.01517868,0.0,0.0
2018-09-11 19:17:06.880,-0.015,-0.093,-0.035,0.12748645,0.30400615,11.375714,97726.44043,-658000.0,89000.0,-1184000.0,45.35,25.62999916,-459.1247559,-89.59500885,152.0,5.972534895,3.4452309605,-43.87033272,0.0,0.0
2018-09-11 19:17:06.920,-0.0173333333333333,-0.0866666666666666,-0.036,0.1438308666666666,0.28439285,11.339756283333331,97725.67138666668,-643000.0,89000.0,-1207000.0,45.34666666666667,25.47999954,-446.9610291,-88.83810425,153.0,6.679795265,3.839469671,-43.72548676,0.0,0.0
2018-09-11 19:17:06.960,-0.0196666666666666,-0.0803333333333333,-0.037,0.1601752833333333,0.26477955,11.303798566666668,97724.90234333334,-628000.0,89000.0,-1230000.0,45.34333333333333,25.32499981,-446.9610291,-88.08119583,154.0,6.679795265,3.839469671,-43.72548676,0.0,0.0
2018-09-11 19:17:07.000,-0.022,-0.074,-0.038,0.1765197,0.24516625,11.26784085,97724.1333,-613000.0,89000.0,-1253000.0,45.34,25.17000008,-446.9610291,-87.32428741,155.0,6.679795265,3.839469671,-43.72548676,0.0,0.0
2018-09-11 19:17:07.040,-0.023,-0.0635,-0.034,0.1569064,0.2157463,10.998157975000002,97723.45276,-528000.0,79000.0,-1222000.0,45.34,25.17000008,-446.9610291,-87.32428741,155.0,6.679795265,3.839469671,-43.72548676,0.0,0.0
2018-09-11 19:17:07.080,-0.024,-0.053,-0.03,0.1372931,0.18632635,10.7284751,97722.77222,-443000.0,69000.0,-1191000.0,45.34,25.010000230000003,-432.10115055,-86.663436885,156.0,6.679795265,3.839469671,-43.72548676,0.0,0.0
2018-09-11 19:17:07.120,0.0125,-0.05,-0.0209999999999999,0.12748645,0.161809725,10.802024975,97722.77222,-443000.0,69000.0,-1191000.0,45.34,24.85000038,-417.241272,-86.00258636,157.0,6.679795265,3.839469671,-43.72548676,0.0,0.0
2018-09-11 19:17:07.160,0.049,-0.047,-0.012,0.1176798,0.1372931,10.87557485,97722.77222,-443000.0,69000.0,-1191000.0,45.34,24.85000038,-417.241272,-86.00258636,157.0,6.679795265,3.839469671,-43.72548676,0.0,0.0
2018-09-11 19:17:07.200,0.0463333333333333,-0.047,-0.0096666666666666,0.08825985,0.1569064,10.839617133333332,97718.99414333332,-481333.3333333333,68333.33333333333,-1169333.3333333333,45.336666666666666,24.51999855,-417.241272,-84.48827362,159.0,6.679795265,3.839469671,-43.72548676,0.0,0.0
2018-09-11 19:17:07.240,0.0436666666666666,-0.047,-0.0073333333333333,0.0588399,0.1765197,10.803659416666669,97715.21606666668,-519666.6666666667,67666.66666666667,-1147666.6666666667,45.333333333333336,24.51999855,-417.241272,-84.48827362,159.0,6.679795265,3.839469671,-43.72548676,0.0,0.0
2018-09-11 19:17:07.280,0.041,-0.047,-0.005,0.02941995,0.196133,10.7677017,97711.43799,-558000.0,67000.0,-1126000.0,45.33,24.51999855,-417.241272,-84.48827362,159.0,6.679795265,3.839469671,-43.72548676,0.0,0.0
2018-09-11 19:17:07.320,0.043,-0.038,0.009,0.0196133,0.348136075,10.44408225,97708.929445,-705000.0,63500.0,-1126500.0,45.325,24.19999886,-391.7932434,-83.14802551,161.0,7.875547886,4.640636921,-43.28314209,0.0,0.0
2018-09-11 19:17:07.360,0.045,-0.029,0.023,0.00980665,0.50013915,10.1204628,97706.4209,-852000.0,60000.0,-1127000.0,45.32,24.19999886,-391.7932434,-83.14802551,161.0,7.875547886,4.640636921,-43.28314209,0.0,0.0
2018-09-11 19:17:07.400,0.0366666666666666,-0.0206666666666666,0.0216666666666666,0.0065377666666666,0.4086104166666666,10.09104285,97700.40283333333,-852000.0,60000.0,-1127000.0,45.31666666666667,24.034998895,-391.7932434,-82.41301727,162.0,7.875547886,4.640636921,-43.28314209,0.0,0.0
2018-09-11 19:17:07.440,0.0283333333333333,-0.0123333333333333,0.0203333333333333,0.0032688833333333,0.3170816833333333,10.0616229,97694.38476666668,-852000.0,60000.0,-1127000.0,45.31333333333333,23.86999893,-391.7932434,-81.67800903,163.0,7.875547886,4.640636921,-43.28314209,0.0,0.0
2018-09-11 19:17:07.480,0.02,-0.004,0.019,0.0,0.22555295,10.03220295,97688.3667,-852000.0,60000.0,-1127000.0,45.31,23.70499897,-374.93218995,-80.94730376999999,164.0,7.875547886,4.640636921,-43.28314209,0.0,0.0
2018-09-11 19:17:07.520,0.0505,0.008,0.013,-0.00980665,0.3726527,9.7281968,97688.3667,-840000.0,54500.0,-1116000.0,45.31,23.53999901,-358.0711365,-80.21659851,165.0,7.875547886,4.640636921,-43.28314209,0.0,0.0
2018-09-11 19:17:07.560,0.081,0.02,0.007,-0.0196133,0.51975245,9.42419065,97688.3667,-828000.0,49000.0,-1105000.0,45.31,23.374999045,-358.0711365,-79.82226944,166.0,7.875547886,4.640636921,-43.28314209,0.0,0.0
2018-09-11 19:17:07.600,0.074,0.026,0.0004999999999999,-0.044129925,0.34323275,9.017214675,97690.737915,-807000.0,44500.0,-1097500.0,45.31,23.20999908,-358.0711365,-79.42794037,167.0,7.875547886,4.640636921,-43.28314209,0.0,0.0
2018-09-11 19:17:07.640,0.067,0.032,-0.006,-0.06864655,0.16671305,8.6102387,97693.10913,-786000.0,40000.0,-1090000.0,45.31,23.20999908,-358.0711365,-79.42794037,167.0,7.875547886,4.640636921,-43.28314209,0.0,0.0
2018-09-11 19:17:07.680,0.039,0.0376666666666666,-0.0026666666666666,-0.0523021333333333,0.1699819333333333,8.4925589,97689.16626,-772000.0,39333.333333333336,-1082000.0,45.306666666666665,23.04499912,-341.38850405000005,-78.68826294,168.0,7.875547886,4.640636921,-43.28314209,0.0,0.0
2018-09-11 19:17:07.720,0.011,0.0433333333333333,0.0006666666666666,-0.0359577166666666,0.1732508166666666,8.3748791,97685.22339,-758000.0,38666.66666666666,-1074000.0,45.303333333333335,22.87999916,-324.7058716,-77.94858551,169.0,7.875547886,4.640636921,-43.28314209,0.0,0.0
2018-09-11 19:17:07.760,-0.017,0.049,0.004,-0.0196133,0.1765197,8.2571993,97681.28052,-744000.0,38000.0,-1066000.0,45.3,22.724999425,-324.7058716,-77.56170654499999,169.5,7.6976578235,5.592789173,-43.53216934,0.0,0.0
2018-09-11 19:17:07.800,-0.0005,0.057,0.0015,-0.00980665,0.318716125,8.085582925,97680.786135,-754000.0,35500.0,-1058500.0,45.3,22.56999969,-324.7058716,-77.17482758,170.0,7.519767761,6.544941425,-43.78119659,0.0,0.0
2018-09-11 19:17:07.840,0.016,0.065,-0.001,0.0,0.46091255,7.91396655,97680.29175,-764000.0,33000.0,-1051000.0,45.3,22.46999931,-315.30099490000003,-76.68379211666667,170.66666666666666,7.519767761,6.544941425,-43.78119659,0.0,0.0
2018-09-11 19:17:07.880,0.0253333333333333,0.066,-0.0076666666666666,-0.00980665,0.4837947333333333,7.910697666666667,97679.17480666666,-743000.0,27333.33333333333,-1043666.6666666666,45.29666666666667,22.36999893,-305.8961182,-76.19275665333333,171.33333333333334,7.519767761,6.544941425,-43.78119659,0.0,0.0
2018-09-11 19:17:07.920,0.0346666666666666,0.067,-0.0143333333333333,-0.0196133,0.5066769166666666,7.907428783333333,97678.05786333334,-722000.0,21666.666666666664,-1036333.3333333334,45.29333333333333,22.26999855,-296.4912415,-75.70172119,172.0,7.519767761,6.544941425,-43.78119659,0.0,0.0
2018-09-11 19:17:07.960,0.044,0.068,-0.021,-0.02941995,0.5295591,7.9041599,97676.94092,-701000.0,16000.0,-1029000.0,45.29,22.12999916,-296.4912415,-74.969768525,173.0,7.519767761,6.544941425,-43.78119659,0.0,0.0
2018-09-11 19:17:08.000,0.0365,0.0715,-0.026,-0.0588399,0.5638823749999999,7.889449925,97675.390625,-700000.0,20000.0,-1022500.0,45.285,21.98999977,-296.4912415,-74.23781586,174.0,7.519767761,6.544941425,-43.78119659,0.0,0.0
2018-09-11 19:17:08.040,0.029,0.075,-0.031,-0.08825985,0.59820565,7.87473995,97673.84033,-699000.0,24000.0,-1016000.0,45.28,21.86499977,-285.85166935,-73.703136445,175.0,7.519767761,6.544941425,-43.78119659,0.0,0.0
2018-09-11 19:17:08.080,0.0303333333333333,0.0773333333333333,-0.0356666666666666,-0.0947976166666666,0.6014745333333333,7.832244466666667,97672.5118,-693333.3333333334,18666.666666666668,-1008000.0,45.28,21.73999977,-275.2120972,-73.16845703,176.0,7.519767761,6.544941425,-43.78119659,0.0,0.0
2018-09-11 19:17:08.120,0.0316666666666666,0.0796666666666666,-0.0403333333333333,-0.1013353833333333,0.6047434166666666,7.789748983333333,97671.18327,-687666.6666666666,13333.333333333334,-1000000.0,45.28,21.73999977,-275.2120972,-73.16845703,176.0,7.519767761,6.544941425,-43.78119659,0.0,0.0
2018-09-11 19:17:08.160,0.033,0.082,-0.045,-0.10787315,0.6080123,7.7472535,97669.85474,-682000.0,8000.0,-992000.0,45.28,21.73999977,-275.2120972,-73.16845703,176.0,7.519767761,6.544941425,-43.78119659,0.0,0.0
2018-09-11 19:17:08.200,0.0433333333333333,0.081,-0.0496666666666666,-0.0751843166666666,0.53936575,7.819168933333334,97667.40723,-662666.6666666666,7333.333333333333,-984000.0,45.27666666666667,21.5,-275.2120972,-71.68953705,178.0,7.519767761,6.544941425,-43.78119659,0.0,0.0
2018-09-11 19:17:08.240,0.0536666666666666,0.08,-0.0543333333333333,-0.0424954833333333,0.4707192,7.891084366666667,97664.95972,-643333.3333333334,6666.666666666667,-976000.0,45.27333333333333,21.5,-275.2120972,-71.68953705,178.0,5.303075314,7.861654282,-43.45656586,0.0,0.0
2018-09-11 19:17:08.280,0.064,0.079,-0.059,-0.00980665,0.40207265,7.9629998,97662.51221,-624000.0,6000.0,-968000.0,45.27,21.5,-275.2120972,-71.68953705,178.0,5.303075314,7.861654282,-43.45656586,0.0,0.0
2018-09-11 19:17:08.320,0.076,0.081,-0.0625,-0.10787315,0.3726526999999999,7.8845466,97661.10535,-611500.0,2999.9999999999395,-976000.0,45.265,21.28999901,-248.7520142,-71.47316742,180.0,5.303075314,7.861654282,-43.45656586,0.0,0.0
2018-09-11 19:17:08.360,0.088,0.083,-0.066,-0.20593965,0.34323275,7.8060934,97659.69849,-599000.0,-1.21e-10,-984000.0,45.26,21.28999901,-248.7520142,-71.47316742,180.0,5.303075314,7.861654282,-43.45656586,0.0,0.0
2018-09-11 19:17:08.400,0.128,0.0823333333333333,-0.064,-0.1536375166666666,0.30400615,7.819168933333334,97657.97729666666,-600333.3333333334,-5000.00000000008,-973333.3333333334,45.25666666666667,21.10000038,-248.7520142,-69.96805573,182.0,5.303075314,7.861654282,-43.45656586,0.0,0.0
2018-09-11 19:17:08.440,0.1679999999999999,0.0816666666666666,-0.062,-0.1013353833333333,0.26477955,7.832244466666666,97656.25610333332,-601666.6666666666,-10000.00000000004,-962666.6666666666,45.25333333333333,21.010000230000003,-240.9984589,-69.421356205,182.5,5.303075314,7.861654282,-43.45656586,0.0,0.0
2018-09-11 19:17:08.480,0.208,0.081,-0.06,-0.04903325,0.22555295,7.84532,97654.53491,-603000.0,-15000.0,-952000.0,45.25,20.92000008,-233.2449036,-68.87465668,183.0,5.303075314,7.861654282,-43.45656586,0.0,0.0
2018-09-11 19:17:08.520,0.213,0.082,-0.059,-0.083356525,0.2353596,7.869836625,97654.53491,-603000.0,-15000.0,-952000.0,45.25,20.92000008,-233.2449036,-68.87465668,183.0,5.303075314,7.861654282,-43.45656586,0.0,0.0
2018-09-11 19:17:08.560,0.218,0.083,-0.058,-0.1176798,0.24516625,7.89435325,97654.53491,-603000.0,-15000.0,-952000.0,45.25,20.92000008,-233.2449036,-68.87465668,183.0,5.303075314,7.861654282,-43.45656586,0.0,0.0
2018-09-11 19:17:08.600,0.2055,0.081,-0.06,-0.161809725,0.338329425,7.977709775,97652.48108,-593000.0,-24500.0,-953500.0,45.245000000000005,20.77000046,-233.2449036,-67.34609985,185.0,3.378395557,11.06027508,-42.64347458,0.0,0.0
2018-09-11 19:17:08.640,0.193,0.079,-0.062,-0.20593965,0.4314926,8.0610663,97650.42725,-583000.0,-34000.0,-955000.0,45.24,20.77000046,-233.2449036,-67.34609985,185.0,3.378395557,11.06027508,-42.64347458,0.0,0.0
2018-09-11 19:17:08.680,0.21875,0.0847499999999999,-0.06975,-0.2157463,0.426589275,7.7889317625,97648.46039,-569750.0,-36250.0,-946000.0,45.2375,20.69999981,-222.25628665,-66.58596801499999,186.0,3.378395557,11.06027508,-42.64347458,0.0,0.0
2018-09-11 19:17:08.720,0.2445,0.0905,-0.0775,-0.22555295,0.42168595,7.516797224999999,97646.49353,-556500.0,-38500.0,-937000.0,45.235,20.62999916,-211.2676697,-65.82583618,187.0,3.378395557,11.06027508,-42.64347458,0.0,0.0
2018-09-11 19:17:08.760,0.27025,0.09625,-0.0852499999999999,-0.2353596,0.416782625,7.2446626875,97644.52667,-543250.0,-40750.0,-928000.0,45.2325,20.62999916,-211.2676697,-65.82583618,187.0,3.378395557,11.06027508,-42.64347458,0.0,0.0
2018-09-11 19:17:08.800,0.296,0.102,-0.093,-0.24516625,0.4118793,6.97252815,97642.55981,-530000.0,-43000.0,-919000.0,45.23,20.52000046,-211.2676697,-65.31141663,189.0,3.378395557,11.06027508,-42.64347458,0.0,0.0
2018-09-11 19:17:08.840,0.2714999999999999,0.09,-0.093,-0.2157463,0.397169325,7.1392412,97642.55981,-530000.0,-43000.0,-919000.0,45.23,20.52000046,-211.2676697,-65.31141663,189.0,3.378395557,11.06027508,-42.64347458,0.0,0.0
2018-09-11 19:17:08.880,0.247,0.078,-0.093,-0.18632635,0.38245935,7.30595425,97642.55981,-530000.0,-43000.0,-919000.0,45.23,20.479999545,-204.35066225,-64.530197145,189.5,3.378395557,11.06027508,-42.64347458,0.0,0.0
2018-09-11 19:17:08.920,0.2563333333333333,0.072,-0.0953333333333333,-0.1765197,0.42168595,7.583809333333334,97641.63207666668,-532666.6666666666,-47333.333333333336,-915666.6666666666,45.22666666666667,20.43999863,-197.4336548,-63.74897766,190.0,3.378395557,11.06027508,-42.64347458,0.0,0.0
2018-09-11 19:17:08.960,0.2656666666666666,0.066,-0.0976666666666666,-0.16671305,0.46091255,7.861664416666667,97640.70434333332,-535333.3333333334,-51666.66666666666,-912333.3333333334,45.22333333333333,20.409998895,-197.4336548,-63.214179990000005,191.0,2.0877264440000003,14.293928625,-42.043777465000005,0.0,0.0
2018-09-11 19:17:09.000,0.275,0.06,-0.1,-0.1569064,0.50013915,8.1395195,97639.77661,-538000.0,-56000.0,-909000.0,45.22,20.37999916,-197.4336548,-62.67938232,192.0,0.797057331,17.52758217,-41.44408035,0.0,0.0
2018-09-11 19:17:09.040,0.237,0.062,-0.114,-0.2157463,0.61781895,8.09048625,97639.77661,-540000.0,-63000.0,-893000.0,45.22,20.359999655000003,-193.16148375,-61.868406295,193.0,0.797057331,17.52758217,-41.44408035,0.0,0.0
2018-09-11 19:17:09.080,0.2259999999999999,0.057,-0.1226666666666666,-0.1405619833333333,0.6276256,8.172208333333334,97641.15600333334,-537666.6666666666,-66000.0,-894666.6666666666,45.21666666666667,20.34000015,-188.8893127,-61.05743027,194.0,0.797057331,17.52758217,-41.44408035,0.0,0.0
2018-09-11 19:17:09.120,0.215,0.052,-0.1313333333333333,-0.0653776666666666,0.6374322499999999,8.253930416666666,97642.53539666666,-535333.3333333334,-69000.0,-896333.3333333334,45.21333333333333,20.34000015,-188.8893127,-61.05743027,194.0,0.797057331,17.52758217,-41.44408035,0.0,0.0
2018-09-11 19:17:09.160,0.204,0.047,-0.14,0.00980665,0.6472389,8.3356525,97643.91479,-533000.0,-72000.0,-898000.0,45.21,20.34000015,-188.8893127,-61.05743027,194.0,0.797057331,17.52758217,-41.44408035,0.0,0.0
