time,field.angular_velocity.x,field.angular_velocity.y,field.angular_velocity.z,field.linear_acceleration.x,field.linear_acceleration.y,field.linear_acceleration.z,field.magnetic_field.x,field.magnetic_field.y,field.magnetic_field.z,field.fluid_pressure,field.temperature,field.airspeed,field.measured.pitch,field.measured.roll,field.measured.yaw,field.alt_error,field.aspd_error,field.xtrack_error,field.wp_dist
2018-09-11 19:12:57.160,0.518,0.019,-0.143,-1.0591182,0.63743225,8.42391235,-178000.0,-441000.0,-366000.0,97611.33423,41.72,0.0,0.094279341,26.38185501,-81.2312851,-0.669999957,-631.2738647,-28.551651,15.0
2018-09-11 19:12:57.200,0.5126666666666667,-0.0003333333333333,-0.1483333333333333,-1.0329671333333332,0.6635833166666667,8.616776466666666,-176000.0,-450000.0,-359000.0,97610.97819,41.72,0.0,0.094279341,26.38185501,-81.2312851,-0.75,-603.5283813,-26.60277367,17.0
2018-09-11 19:12:57.240,0.5073333333333333,-0.0196666666666666,-0.1536666666666666,-1.0068160666666666,0.6897343833333334,8.809640583333334,-174000.0,-459000.0,-352000.0,97610.62215,41.72,0.0,0.094279341,26.38185501,-81.2312851,-0.75,-603.5283813,-26.60277367,17.0
2018-09-11 19:12:57.280,0.502,-0.039,-0.159,-0.980665,0.71588545,9.0025047,-172000.0,-468000.0,-345000.0,97610.26611,41.72,0.0,0.094279341,26.38185501,-81.2312851,-0.7899999915,-603.5283813,-25.6271143,18.0
2018-09-11 19:12:57.320,0.475,-0.049,-0.1709999999999999,-1.0002783,0.75511205,9.1201845,-170500.0,-482000.0,-336500.0,97608.810425,41.715,0.0,0.094279341,26.38185501,-81.2312851,-0.829999983,-603.5283813,-24.65145493,19.0
2018-09-11 19:12:57.360,0.448,-0.059,-0.183,-1.0198916,0.79433865,9.2378643,-169000.0,-496000.0,-328000.0,97607.35474,41.71,0.0,0.094279341,26.38185501,-81.2312851,-0.854999989,-590.0487670499999,-60.322778705,20.0
2018-09-11 19:12:57.400,0.407,-0.0535,-0.1935,-1.014988275,0.779628675,9.1790244,-170000.0,-504000.0,-316000.0,97605.31311,41.71,0.0,0.094279341,26.38185501,-81.2312851,-0.879999995,-576.5691528,-95.99410248,21.0
2018-09-11 19:12:57.440,0.366,-0.048,-0.204,-1.01008495,0.7649187,9.1201845,-171000.0,-512000.0,-304000.0,97603.27148,41.71,0.0,-0.871723056,34.80453873,-78.5243988,-0.879999995,-576.5691528,-95.99410248,21.0
2018-09-11 19:12:57.480,0.3116666666666666,-0.0633333333333333,-0.209,-0.9610517,0.7878008833333333,9.313048616666666,-173333.33333333334,-517666.6666666667,-299333.3333333333,97604.40063333332,41.71,0.0,-0.871723056,34.80453873,-78.5243988,-0.899999976,-526.5691681,-95.04312134,22.0
2018-09-11 19:12:57.520,0.2573333333333333,-0.0786666666666666,-0.214,-0.91201845,0.8106830666666667,9.505912733333334,-175666.66666666666,-523333.3333333333,-294666.6666666667,97605.52978666668,41.71,0.0,-0.871723056,34.80453873,-78.5243988,-0.919999957,-476.5691834,-94.0921402,23.0
2018-09-11 19:12:57.560,0.203,-0.094,-0.219,-0.8629852,0.83356525,9.69877685,-178000.0,-529000.0,-290000.0,97606.65894,41.71,0.0,-0.871723056,34.80453873,-78.5243988,-0.9349999725,-462.0810547,-93.153842925,24.0
2018-09-11 19:12:57.600,0.168,-0.0915,-0.2279999999999999,-0.838468575,0.8139519500000001,9.3163175,-171500.0,-533000.0,-281500.0,97607.592775,41.705,0.0,-0.871723056,34.80453873,-78.5243988,-0.949999988,-447.592926,-92.21554565,25.0
2018-09-11 19:12:57.640,0.133,-0.089,-0.237,-0.81395195,0.79433865,8.93385815,-165000.0,-537000.0,-273000.0,97608.52661,41.7,0.0,-0.871723056,34.80453873,-78.5243988,-0.949999988,-447.592926,-92.21554565,25.0
2018-09-11 19:12:57.680,0.1135,-0.14,-0.244,-0.740402075,0.8433719,9.40457735,-183500.0,-558500.0,-263000.0,97608.605955,41.7,0.0,-0.871723056,34.80453873,-78.5243988,-0.9549999835,-447.592926,-91.285697935,26.0
2018-09-11 19:12:57.720,0.094,-0.191,-0.251,-0.6668522,0.89240515,9.87529655,-202000.0,-580000.0,-253000.0,97608.6853,41.7,0.0,-0.871723056,34.80453873,-78.5243988,-0.959999979,-447.592926,-90.35585022,27.0
2018-09-11 19:12:57.760,0.077,-0.2056666666666666,-0.2533333333333333,-0.6080123,0.87279185,10.381973466666668,-218666.66666666663,-604000.0,-241666.66666666663,97610.29459333332,41.7,0.0,-1.441681683,36.782600405,-75.9487915,-0.9499999885,-435.7758484,-89.44290542499999,28.0
2018-09-11 19:12:57.800,0.06,-0.2203333333333333,-0.2556666666666666,-0.5491724,0.85317855,10.888650383333331,-235333.3333333333,-628000.0,-230333.3333333333,97611.90388666668,41.7,0.0,-2.01164031,38.76066208,-73.3731842,-0.939999998,-423.9587708,-88.52996063,29.0
2018-09-11 19:12:57.840,0.043,-0.235,-0.258,-0.4903325,0.83356525,11.3953273,-252000.0,-652000.0,-219000.0,97613.51318,41.7,0.0,-2.01164031,38.76066208,-73.3731842,-0.939999998,-423.9587708,-88.52996063,29.0
2018-09-11 19:12:57.880,0.0343333333333333,-0.2299999999999999,-0.2563333333333333,-0.3889971166666667,0.8793296166666666,11.77778665,-262666.6666666667,-660666.6666666666,-217666.66666666663,97613.04524666666,41.7,0.0,-2.01164031,38.76066208,-73.3731842,-0.939999998,-423.9587708,-88.52996063,29.0
2018-09-11 19:12:57.920,0.0256666666666666,-0.225,-0.2546666666666666,-0.2876617333333333,0.9250939833333334,12.160246,-273333.3333333333,-669333.3333333334,-216333.3333333333,97612.57731333331,41.7,0.0,-2.01164031,38.76066208,-73.3731842,-0.919999957,-423.9587708,-86.72097015,30.0
2018-09-11 19:12:57.960,0.017,-0.22,-0.253,-0.18632635,0.97085835,12.54270535,-284000.0,-678000.0,-215000.0,97612.10938,41.7,0.0,-2.01164031,38.76066208,-73.3731842,-0.9049999715,-410.62956240000005,-85.829162595,31.0
2018-09-11 19:12:58.000,-0.0094999999999999,-0.226,-0.2435,-0.142196425,0.9414384,12.822194875,-308000.0,-692000.0,-210500.0,97615.50293,41.695,0.0,-2.01164031,38.76066208,-73.3731842,-0.889999986,-397.300354,-84.93735504,32.0
2018-09-11 19:12:58.040,-0.036,-0.232,-0.234,-0.0980665,0.91201845,13.1016844,-332000.0,-706000.0,-206000.0,97618.89648,41.69,0.0,-2.01164031,38.76066208,-73.3731842,-0.889999986,-397.300354,-84.93735504,32.0
2018-09-11 19:12:58.080,-0.0316666666666666,-0.2216666666666666,-0.2253333333333333,-0.0849909666666666,0.9250939833333334,13.019962316666666,-324000.0,-704000.0,-203000.0,97619.53938666669,41.69,0.0,-2.01164031,38.76066208,-73.3731842,-0.8799999955,-397.300354,-84.06243515,33.0
2018-09-11 19:12:58.120,-0.0273333333333333,-0.2113333333333333,-0.2166666666666666,-0.0719154333333333,0.9381695166666668,12.938240233333334,-316000.0,-702000.0,-200000.0,97620.18229333332,41.69,0.0,-2.01164031,38.76066208,-73.3731842,-0.870000005,-397.300354,-83.18751526,34.0
2018-09-11 19:12:58.160,-0.023,-0.201,-0.208,-0.0588399,0.95124505,12.85651815,-308000.0,-700000.0,-197000.0,97620.8252,41.69,0.0,-1.722096145,38.798639300000005,-69.7288475,-0.8599999844999999,-375.59033205,-82.33374786499999,35.0
2018-09-11 19:12:58.200,-0.0403333333333333,-0.212,-0.2036666666666666,-0.0163444166666666,0.97085835,13.0820711,-310333.3333333333,-694333.3333333334,-203000.0,97619.66349666668,41.69,0.0,-1.43255198,38.83661652,-66.0845108,-0.849999964,-353.8803101,-81.47998047,36.0
2018-09-11 19:12:58.240,-0.0576666666666666,-0.223,-0.1993333333333333,0.0261510666666666,0.99047165,13.30762405,-312666.6666666667,-688666.6666666666,-209000.0,97618.50179333331,41.69,0.0,-1.43255198,38.83661652,-66.0845108,-0.849999964,-353.8803101,-81.47998047,36.0
2018-09-11 19:12:58.280,-0.075,-0.234,-0.195,0.06864655,1.01008495,13.533177,-315000.0,-683000.0,-215000.0,97617.34009,41.69,0.0,-1.43255198,38.83661652,-66.0845108,-0.849999964,-353.8803101,-81.47998047,36.0
2018-09-11 19:12:58.320,-0.0883333333333333,-0.191,-0.197,0.0261510666666666,1.0525804333333333,13.078802216666666,-303000.0,-685333.3333333334,-218000.0,97617.34009,41.69,0.0,-1.43255198,38.83661652,-66.0845108,-0.839999974,-353.8803101,-79.78935242,38.0
2018-09-11 19:12:58.360,-0.1016666666666666,-0.148,-0.199,-0.0163444166666666,1.0950759166666666,12.624427433333334,-291000.0,-687666.6666666666,-221000.0,97617.34009,41.69,0.0,-1.43255198,38.83661652,-66.0845108,-0.839999974,-353.50112915,-78.97362137,38.5
2018-09-11 19:12:58.400,-0.115,-0.105,-0.201,-0.0588399,1.1375714,12.17005265,-279000.0,-690000.0,-224000.0,97617.34009,41.69,0.0,-1.43255198,38.83661652,-66.0845108,-0.839999974,-353.1219482,-78.15789032,39.0
2018-09-11 19:12:58.440,-0.142,-0.07,-0.21,-0.04903325,1.176798,11.83662655,-276000.0,-638000.0,-226000.0,97619.25049,41.69,0.0,-1.43255198,38.83661652,-66.0845108,-0.839999974,-353.1219482,-78.15789032,39.0
2018-09-11 19:12:58.480,-0.1873333333333333,-0.0983333333333333,-0.2183333333333333,-0.0588399,1.1800668833333334,11.705871216666669,-272000.0,-638333.3333333334,-231333.3333333333,97619.13045333332,41.68666666666667,0.0,-1.43255198,38.83661652,-66.0845108,-0.839999974,-353.1219482,-78.15789032,39.0
2018-09-11 19:12:58.520,-0.2326666666666667,-0.1266666666666666,-0.2266666666666666,-0.06864655,1.1833357666666666,11.575115883333334,-268000.0,-638666.6666666666,-236666.66666666663,97619.01041666669,41.68333333333333,0.0,-1.43255198,38.83661652,-66.0845108,-0.839999974,-353.1219482,-76.55179596,41.0
2018-09-11 19:12:58.560,-0.278,-0.155,-0.235,-0.0784532,1.18660465,11.44436055,-264000.0,-639000.0,-242000.0,97618.89038,41.68,0.0,-1.407125473,37.798742295,-63.32870483000001,-0.8449999690000001,-351.48535155,-75.76564026,42.0
2018-09-11 19:12:58.600,-0.27,-0.161,-0.2495,-0.102969825,1.0983448,11.179581,-245500.0,-630000.0,-247000.0,97619.610595,41.68,0.0,-1.381698966,36.76086807,-60.57289886,-0.849999964,-349.8487549,-74.97948456,43.0
2018-09-11 19:12:58.640,-0.262,-0.167,-0.264,-0.12748645,1.01008495,10.91480145,-227000.0,-621000.0,-252000.0,97620.33081,41.68,0.0,-1.381698966,36.76086807,-60.57289886,-0.849999964,-349.8487549,-74.97948456,43.0
2018-09-11 19:12:58.680,-0.205,-0.1653333333333333,-0.2696666666666666,-0.1307553333333333,1.0002783,11.07170785,-233000.0,-619000.0,-257333.3333333333,97620.00325333331,41.68,0.0,-1.381698966,36.76086807,-60.57289886,-0.849999964,-349.8487549,-74.97948456,43.0
2018-09-11 19:12:58.720,-0.148,-0.1636666666666666,-0.2753333333333334,-0.1340242166666666,0.99047165,11.22861425,-239000.0,-617000.0,-262666.6666666667,97619.67569666669,41.68,0.0,-1.381698966,36.76086807,-60.57289886,-0.859999955,-349.8487549,-73.44100952,45.0
2018-09-11 19:12:58.760,-0.091,-0.162,-0.281,-0.1372931,0.980665,11.38552065,-245000.0,-615000.0,-268000.0,97619.34814,41.68,0.0,-1.381698966,36.76086807,-60.57289886,-0.859999955,-349.8487549,-73.44100952,45.0
2018-09-11 19:12:58.800,-0.1365,-0.132,-0.28,-0.181423025,0.95124505,11.213904275,-233000.0,-607500.0,-274000.0,97618.106075,41.68,0.0,-1.381698966,36.76086807,-60.57289886,-0.870000005,-340.2349548,-71.93634033,46.0
2018-09-11 19:12:58.840,-0.182,-0.102,-0.279,-0.22555295,0.9218251,11.0422879,-221000.0,-600000.0,-280000.0,97616.86401,41.68,0.0,-1.381698966,36.76086807,-60.57289886,-0.870000005,-340.2349548,-71.93634033,46.0
2018-09-11 19:12:58.880,-0.2435,-0.0895,-0.2685,-0.22555295,0.9022118,10.7284751,-213000.0,-591500.0,-283000.0,97620.4895,41.675,0.0,-1.381698966,36.76086807,-60.57289886,-0.870000005,-340.2349548,-71.93634033,46.0
2018-09-11 19:12:58.920,-0.305,-0.077,-0.258,-0.22555295,0.8825985,10.4146623,-205000.0,-583000.0,-286000.0,97624.11499,41.67,0.0,-1.381698966,36.76086807,-60.57289886,-0.870000005,-340.2349548,-70.44858551,48.0
2018-09-11 19:12:58.960,-0.3133333333333333,-0.0913333333333333,-0.2546666666666666,-0.2222840666666666,0.8270274833333333,10.623870833333331,-201333.3333333333,-576666.6666666666,-289333.3333333333,97622.59318,41.67,0.0,-1.381698966,36.76086807,-60.57289886,-0.870000005,-340.2349548,-70.44858551,48.0
2018-09-11 19:12:59.000,-0.3216666666666666,-0.1056666666666666,-0.2513333333333333,-0.2190151833333333,0.7714564666666667,10.833079366666666,-197666.66666666663,-570333.3333333334,-292666.6666666667,97621.07137,41.67,0.0,-1.381698966,36.76086807,-60.57289886,-0.870000005,-331.1437683,-69.02000427,50.0
2018-09-11 19:12:59.040,-0.33,-0.12,-0.248,-0.2157463,0.71588545,11.0422879,-194000.0,-564000.0,-296000.0,97619.54956,41.67,0.0,-2.297489882,29.93770599,-51.44771957,-0.870000005,-331.1437683,-69.02000427,50.0
2018-09-11 19:12:59.080,-0.3206666666666666,-0.124,-0.237,-0.2418973666666666,0.7028099166666667,10.813466066666669,-191000.0,-555333.3333333334,-303333.3333333333,97619.30542,41.67,0.0,-2.297489882,29.93770599,-51.44771957,-0.870000005,-331.1437683,-68.301460265,50.5
2018-09-11 19:12:59.120,-0.3113333333333333,-0.128,-0.226,-0.2680484333333333,0.6897343833333334,10.584644233333332,-188000.0,-546666.6666666666,-310666.6666666667,97619.06128,41.67,0.0,-2.297489882,29.93770599,-51.44771957,-0.870000005,-331.1437683,-67.58291626,51.0
2018-09-11 19:12:59.160,-0.302,-0.132,-0.215,-0.2941995,0.67665885,10.3558224,-185000.0,-538000.0,-318000.0,97618.81714,41.67,0.0,-2.297489882,29.93770599,-51.44771957,-0.870000005,-333.289436325,-67.2384490975,51.5
2018-09-11 19:12:59.200,-0.263,-0.1575,-0.2005,-0.279489525,0.6570455500000001,11.066804524999998,-184500.0,-527000.0,-324000.0,97618.267825,41.67,0.0,-2.297489882,29.93770599,-51.44771957,-0.870000005,-335.43510435,-66.893981935,52.0
2018-09-11 19:12:59.240,-0.224,-0.183,-0.186,-0.26477955,0.63743225,11.77778665,-184000.0,-516000.0,-330000.0,97617.71851,41.67,0.0,-2.297489882,29.93770599,-51.44771957,-0.870000005,-337.580772375,-66.5495147725,52.5
2018-09-11 19:12:59.280,-0.255,-0.187,-0.1696666666666666,-0.2320907166666666,0.6897343833333334,12.1798593,-180666.66666666663,-511666.6666666667,-330666.6666666667,97616.61987666666,41.66666666666666,0.0,-2.297489882,29.93770599,-51.44771957,-0.870000005,-339.7264404,-66.20504761,53.0
2018-09-11 19:12:59.320,-0.286,-0.191,-0.1533333333333333,-0.1994018833333333,0.7420365166666667,12.58193195,-177333.33333333334,-507333.3333333333,-331333.3333333333,97615.52124333334,41.66333333333333,0.0,-2.297489882,29.93770599,-51.44771957,-0.86499998,-339.7264404,-65.516117095,53.5
2018-09-11 19:12:59.360,-0.317,-0.195,-0.137,-0.16671305,0.79433865,12.9840046,-174000.0,-503000.0,-332000.0,97614.42261,41.66,0.0,-2.297489882,29.93770599,-51.44771957,-0.859999955,-339.7264404,-64.82718658,54.0
2018-09-11 19:12:59.400,-0.3409999999999999,-0.184,-0.129,-0.171616375,0.77472535,12.871228125,-171000.0,-494500.0,-341500.0,97617.83142,41.66,0.0,-1.366851687,24.79441071,-46.73719788,-0.879999995,-329.1532593,-63.50004196,56.0
2018-09-11 19:12:59.440,-0.365,-0.173,-0.121,-0.1765197,0.75511205,12.75845165,-168000.0,-486000.0,-351000.0,97621.24023,41.66,0.0,-1.366851687,24.79441071,-46.73719788,-0.879999995,-329.1532593,-63.50004196,56.0
2018-09-11 19:12:59.480,-0.363,-0.1659999999999999,-0.1169999999999999,-0.20593965,0.7878008833333333,12.5917386,-172666.66666666666,-484333.3333333333,-357000.0,97618.94124,41.66,0.0,-1.366851687,24.79441071,-46.73719788,-0.879999995,-329.1532593,-63.50004196,56.0
2018-09-11 19:12:59.520,-0.361,-0.159,-0.113,-0.2353595999999999,0.8204897166666667,12.42502555,-177333.33333333334,-482666.6666666667,-363000.0,97616.64225,41.66,0.0,-1.366851687,24.79441071,-46.73719788,-0.919999957,-329.1532593,-62.21516418,58.0
2018-09-11 19:12:59.560,-0.359,-0.152,-0.109,-0.26477955,0.85317855,12.2583125,-182000.0,-481000.0,-369000.0,97614.34326,41.66,0.0,-1.366851687,24.79441071,-46.73719788,-0.919999957,-329.1532593,-62.21516418,58.0
2018-09-11 19:12:59.600,-0.3735,-0.1535,-0.106,-0.2451662499999999,0.848275225,12.312249075,-179500.0,-458000.0,-374500.0,97615.811155,41.66,0.0,-1.366851687,24.79441071,-46.73719788,-0.98999995,-316.2256165,-60.94716644,59.0
2018-09-11 19:12:59.640,-0.388,-0.155,-0.103,-0.22555295,0.8433719,12.36618565,-177000.0,-435000.0,-380000.0,97617.27905,41.66,0.0,-1.366851687,24.79441071,-46.73719788,-0.98999995,-316.2256165,-60.94716644,59.0
2018-09-11 19:12:59.680,-0.3856666666666666,-0.139,-0.103,-0.2484351333333333,0.7910697666666666,12.235430316666667,-180333.3333333333,-434666.6666666667,-385333.3333333333,97617.41536333332,41.656666666666666,0.0,-1.366851687,24.79441071,-46.73719788,-0.98999995,-316.2256165,-60.94716644,59.0
2018-09-11 19:12:59.720,-0.3833333333333333,-0.123,-0.103,-0.2713173166666667,0.7387676333333333,12.104674983333332,-183666.66666666663,-434333.3333333333,-390666.6666666667,97617.55167666668,41.65333333333333,0.0,-0.2502307589999999,21.335100175,-45.027038575,-1.034999937,-316.2256165,-60.321632385,60.0
2018-09-11 19:12:59.760,-0.381,-0.107,-0.103,-0.2941995,0.6864655,11.97391965,-187000.0,-434000.0,-396000.0,97617.68799,41.65,0.0,0.866390169,17.87578964,-43.31687927,-1.079999924,-316.2256165,-59.69609833,61.0
2018-09-11 19:12:59.800,-0.3665,-0.0805,-0.0995,-0.2549729,0.681562175,11.870949825,-179500.0,-418000.0,-397000.0,97617.44385,41.65,0.0,0.866390169,17.87578964,-43.31687927,-1.189999938,-296.9951782,-58.47881317,62.0
2018-09-11 19:12:59.840,-0.352,-0.054,-0.096,-0.2157463,0.67665885,11.76798,-172000.0,-402000.0,-398000.0,97617.19971,41.65,0.0,0.866390169,17.87578964,-43.31687927,-1.189999938,-296.9951782,-58.47881317,62.0
2018-09-11 19:12:59.880,-0.3446666666666667,-0.0356666666666666,-0.092,-0.2353596,0.6603144333333334,11.496662683333334,-178000.0,-392000.0,-404333.3333333333,97615.53141333332,41.65,0.0,0.866390169,17.87578964,-43.31687927,-1.319999933,-296.9951782,-57.27846527,64.0
2018-09-11 19:12:59.920,-0.3373333333333333,-0.0173333333333333,-0.088,-0.2549729,0.6439700166666666,11.225345366666666,-184000.0,-382000.0,-410666.6666666667,97613.86311666667,41.65,0.0,0.866390169,17.87578964,-43.31687927,-1.319999933,-296.9951782,-57.27846527,64.0
2018-09-11 19:12:59.960,-0.33,0.001,-0.084,-0.2745862,0.6276256,10.95402805,-190000.0,-372000.0,-417000.0,97612.19482,41.65,0.0,0.866390169,17.87578964,-43.31687927,-1.357499927,-294.91807555,-56.9826059325,64.25
2018-09-11 19:13:00.000,-0.345,0.032,-0.056,-0.36284605,0.6864655,9.5712904,-171000.0,-366000.0,-422000.0,97607.48901,41.65,0.0,0.866390169,17.87578964,-43.31687927,-1.394999921,-292.8409729,-56.686746595,64.5
2018-09-11 19:13:00.040,-0.3384999999999999,0.0245,-0.05575,-0.3603943874999999,0.6545938874999999,9.7110351625,-169000.0,-360500.0,-424000.0,97608.6379975,41.6475,0.0,0.866390169,17.87578964,-43.31687927,-1.469999909,-288.6867676,-56.09502792,65.0
2018-09-11 19:13:00.080,-0.3319999999999999,0.017,-0.0555,-0.357942725,0.622722275,9.850779925,-167000.0,-355000.0,-426000.0,97609.786985,41.645,0.0,1.007780403,13.9213252055,-42.183990475,-1.5399999615,-288.6867676,-55.507528305,66.0
2018-09-11 19:13:00.120,-0.3255,0.0095,-0.05525,-0.3554910625,0.5908506625000001,9.9905246875,-165000.0,-349500.0,-428000.0,97610.9359725,41.6425,0.0,1.149170637,9.966860771,-41.05110168,-1.610000014,-288.6867676,-54.92002869,67.0
2018-09-11 19:13:00.160,-0.319,0.002,-0.055,-0.3530394,0.55897905,10.13026945,-163000.0,-344000.0,-430000.0,97612.08496,41.64,0.0,1.149170637,9.966860771,-41.05110168,-1.610000014,-288.6867676,-54.92002869,67.0
2018-09-11 19:13:00.200,-0.319,0.0,-0.056,-0.3775560249999999,0.5295591,9.948846425,-160000.0,-332000.0,-434000.0,97609.72595,41.645,0.0,1.149170637,9.966860771,-41.05110168,-1.75,-264.0586853,-53.76194763,69.0
2018-09-11 19:13:00.240,-0.319,-0.002,-0.057,-0.40207265,0.50013915,9.7674234,-157000.0,-320000.0,-438000.0,97607.36694,41.65,0.0,1.149170637,9.966860771,-41.05110168,-1.75,-264.0586853,-53.76194763,69.0
2018-09-11 19:13:00.280,-0.271,-0.0053333333333333,-0.049,-0.392266,0.4936013833333333,10.07142955,-158000.0,-316333.3333333333,-438000.0,97607.04142,41.64666666666667,0.0,1.149170637,9.966860771,-41.05110168,-1.819999993,-264.0586853,-53.18290329,69.5
2018-09-11 19:13:00.320,-0.2229999999999999,-0.0086666666666666,-0.041,-0.38245935,0.4870636166666666,10.3754357,-159000.0,-312666.6666666667,-438000.0,97606.7159,41.64333333333333,0.0,1.149170637,9.966860771,-41.05110168,-1.889999986,-264.0586853,-52.60385895,70.0
2018-09-11 19:13:00.360,-0.175,-0.012,-0.033,-0.3726527,0.48052585,10.67944185,-160000.0,-309000.0,-438000.0,97606.39038,41.64,0.0,1.18263495,5.914360046,-40.20429611,-1.889999986,-264.0586853,-52.60385895,70.0
2018-09-11 19:13:00.400,-0.1664999999999999,-0.0115,-0.0235,-0.367749375,0.4903324999999999,10.3165958,-158500.0,-301000.0,-442500.0,97607.284545,41.64,0.0,1.18263495,5.914360046,-40.20429611,-2.029999971,-239.7548676,-51.45423126,72.0
2018-09-11 19:13:00.440,-0.158,-0.011,-0.014,-0.36284605,0.50013915,9.95374975,-157000.0,-293000.0,-447000.0,97608.17871,41.64,0.0,1.18263495,5.914360046,-40.20429611,-2.029999971,-239.7548676,-51.45423126,72.0
2018-09-11 19:13:00.480,-0.1763333333333333,-0.0026666666666666,-0.0063333333333333,-0.34323275,0.5132146833333333,9.8851032,-154000.0,-285666.6666666667,-449666.6666666667,97607.34659666666,41.64,0.0,1.18263495,5.914360046,-40.20429611,-2.0999999045,-239.7548676,-50.883626935,72.5
2018-09-11 19:13:00.520,-0.1946666666666666,0.0056666666666666,0.0013333333333333,-0.32361945,0.5262902166666666,9.81645665,-151000.0,-278333.3333333333,-452333.3333333333,97606.51448333332,41.64,0.0,1.18263495,5.914360046,-40.20429611,-2.169999838,-239.7548676,-50.31302261,73.0
2018-09-11 19:13:00.560,-0.213,0.014,0.009,-0.30400615,0.53936575,9.7478101,-148000.0,-271000.0,-455000.0,97605.68237,41.64,0.0,1.18263495,5.914360046,-40.20429611,-2.169999838,-239.7548676,-50.31302261,73.0
2018-09-11 19:13:00.600,-0.2225,0.0275,0.0139999999999999,-0.367749375,0.5491724,9.4928372,-147000.0,-268500.0,-456500.0,97604.507445,41.64,0.0,1.18263495,5.914360046,-40.20429611,-2.309999943,-219.7538452,-49.15494919,75.0
2018-09-11 19:13:00.640,-0.232,0.041,0.019,-0.4314926,0.55897905,9.2378643,-146000.0,-266000.0,-458000.0,97603.33252,41.64,0.0,1.18263495,5.914360046,-40.20429611,-2.309999943,-219.7538452,-49.15494919,75.0
2018-09-11 19:13:00.680,-0.1856666666666666,0.045,0.0176666666666666,-0.44129925,0.5524412833333333,9.074420133333334,-144666.66666666666,-260333.3333333333,-460000.0,97602.31526666666,41.63666666666667,0.0,1.18263495,5.914360046,-40.20429611,-2.309999943,-219.7538452,-49.15494919,75.0
2018-09-11 19:13:00.720,-0.1393333333333333,0.049,0.0163333333333333,-0.4511059,0.5459035166666667,8.910975966666667,-143333.33333333334,-254666.66666666663,-462000.0,97601.29801333332,41.63333333333333,0.0,1.18263495,5.914360046,-40.20429611,-2.375,-219.7538452,-48.58858681,75.5
2018-09-11 19:13:00.760,-0.093,0.053,0.015,-0.46091255,0.53936575,8.7475318,-142000.0,-249000.0,-464000.0,97600.28076,41.63,0.0,1.18263495,5.914360046,-40.20429611,-2.440000057,-219.7538452,-48.02222443,76.0
2018-09-11 19:13:00.800,-0.101,0.0475,0.0185,-0.426589275,0.53936575,8.870114925,-138500.0,-238500.0,-463000.0,97600.43335,41.63,0.0,1.18263495,5.914360046,-40.20429611,-2.549999952,-204.4509888,-46.8810463,78.0
2018-09-11 19:13:00.840,-0.109,0.042,0.022,-0.392266,0.53936575,8.99269805,-135000.0,-228000.0,-462000.0,97600.58594,41.63,0.0,0.692079246,0.491608948,-40.13357162,-2.549999952,-204.4509888,-46.8810463,78.0
2018-09-11 19:13:00.880,-0.114,0.036,0.0183333333333333,-0.3791904666666666,0.53936575,9.254208716666666,-133000.0,-227666.66666666663,-462666.6666666667,97600.48828333334,41.63,0.0,0.692079246,0.491608948,-40.13357162,-2.5999999045,-204.4509888,-46.306234360000005,78.5
2018-09-11 19:13:00.920,-0.119,0.03,0.0146666666666666,-0.3661149333333333,0.53936575,9.515719383333334,-131000.0,-227333.3333333333,-463333.3333333333,97600.39062666666,41.63,0.0,0.692079246,0.491608948,-40.13357162,-2.649999857,-204.4509888,-45.73142242,79.0
2018-09-11 19:13:00.960,-0.124,0.024,0.011,-0.3530394,0.53936575,9.77723005,-129000.0,-227000.0,-464000.0,97600.29297,41.63,0.0,0.692079246,0.491608948,-40.13357162,-2.649999857,-204.4509888,-45.73142242,79.0
2018-09-11 19:13:01.000,-0.1225,0.043,0.016,-0.367749375,0.5295591,9.713486825,-127500.0,-223000.0,-466000.0,97600.219725,41.63,0.0,0.692079246,0.491608948,-40.13357162,-2.649999857,-204.4509888,-45.73142242,79.0
2018-09-11 19:13:01.040,-0.121,0.062,0.021,-0.38245935,0.51975245,9.6497436,-126000.0,-219000.0,-468000.0,97600.14648,41.63,0.0,0.692079246,0.491608948,-40.13357162,-2.74000001,-188.7664795,-44.58177567,81.0
2018-09-11 19:13:01.080,-0.0843333333333333,0.077,0.0196666666666666,-0.3530394,0.4903325,9.577828166666666,-124333.33333333331,-216000.0,-468000.0,97599.94506666668,41.63,0.0,0.692079246,0.491608948,-40.13357162,-2.74000001,-188.7664795,-44.58177567,81.0
2018-09-11 19:13:01.120,-0.0476666666666666,0.092,0.0183333333333333,-0.32361945,0.46091255,9.505912733333334,-122666.66666666669,-213000.0,-468000.0,97599.74365333332,41.63,0.0,0.692079246,0.491608948,-40.13357162,-2.829999924,-188.7664795,-43.43214798,82.0
2018-09-11 19:13:01.160,-0.011,0.107,0.017,-0.2941995,0.4314926,9.4339973,-121000.0,-210000.0,-468000.0,97599.54224,41.63,0.0,-0.200255483,-1.457563281,-40.30682755,-2.909999847,-169.5823669,-42.27405548,84.0
2018-09-11 19:13:01.200,0.007,0.111,0.016,-0.357942725,0.338329425,9.07115125,-118500.0,-207500.0,-469500.0,97596.948245,41.625,0.0,-0.200255483,-1.457563281,-40.30682755,-2.909999847,-169.5823669,-42.27405548,84.0
2018-09-11 19:13:01.240,0.025,0.115,0.015,-0.42168595,0.24516625,8.7083052,-116000.0,-205000.0,-471000.0,97594.35425,41.62,0.0,-0.200255483,-1.457563281,-40.30682755,-2.909999847,-169.5823669,-42.27405548,84.0
2018-09-11 19:13:01.280,-0.0013333333333333,0.1103333333333333,0.0283333333333333,-0.3955348833333333,0.3007372666666666,8.67888525,-114333.33333333331,-203000.0,-469333.3333333333,97594.15690333334,41.62,0.0,-0.200255483,-1.457563281,-40.30682755,-2.970000029,-169.5823669,-41.11597824,85.0
2018-09-11 19:13:01.320,-0.0276666666666666,0.1056666666666666,0.0416666666666666,-0.3693838166666666,0.3563082833333333,8.6494653,-112666.66666666669,-201000.0,-467666.6666666667,97593.95955666668,41.62,0.0,-0.200255483,-1.457563281,-40.30682755,-2.970000029,-169.5823669,-41.11597824,85.0
2018-09-11 19:13:01.360,-0.054,0.101,0.055,-0.34323275,0.4118793,8.62004535,-111000.0,-199000.0,-466000.0,97593.76221,41.62,0.0,-0.200255483,-1.457563281,-40.30682755,-2.970000029,-169.5823669,-41.11597824,85.0
2018-09-11 19:13:01.400,-0.0523333333333333,0.1066666666666666,0.053,-0.3726527,0.42168595,8.616776466666666,-109000.0,-202333.3333333333,-465000.0,97593.55876,41.62,0.0,-0.200255483,-1.457563281,-40.30682755,-3.019999981,-162.4391479,-39.957901,87.0
2018-09-11 19:13:01.440,-0.0506666666666666,0.1123333333333333,0.051,-0.40207265,0.4314926,8.613507583333334,-107000.0,-205666.66666666663,-464000.0,97593.35531,41.62,0.0,-0.200255483,-1.457563281,-40.30682755,-3.0366666316666664,-162.4391479,-39.56341807,87.33333333333333
2018-09-11 19:13:01.480,-0.049,0.118,0.049,-0.4314926,0.44129925,8.6102387,-105000.0,-209000.0,-463000.0,97593.15186,41.62,0.0,-0.200255483,-1.457563281,-40.30682755,-3.053333282333333,-162.4391479,-39.16893514,87.66666666666667
2018-09-11 19:13:01.520,-0.004,0.0824999999999999,0.0445,-0.406975975,0.4560092249999999,8.762241775,-98500.0,-203000.0,-464000.0,97594.76929,41.62,0.0,-0.200255483,-1.457563281,-40.30682755,-3.069999933,-162.4391479,-38.77445221,88.0
2018-09-11 19:13:01.560,0.041,0.047,0.04,-0.38245935,0.4707192,8.91424485,-92000.0,-197000.0,-465000.0,97596.38672,41.62,0.0,-2.399970531,-1.869881868,-40.85659409,-3.069999933,-162.4391479,-38.77445221,88.0
2018-09-11 19:13:01.600,0.1015,0.051,0.037,-0.3726526999999999,0.446202575,9.0613446,-90500.0,-199500.0,-465500.0,97596.520995,41.62,0.0,-2.399970531,-1.869881868,-40.85659409,-3.089999914,-144.8739929,-37.59946823,90.0
2018-09-11 19:13:01.640,0.162,0.055,0.034,-0.36284605,0.42168595,9.20844435,-89000.0,-202000.0,-466000.0,97596.65527,41.62,0.0,-2.399970531,-1.869881868,-40.85659409,-3.089999914,-144.8739929,-37.59946823,90.0
2018-09-11 19:13:01.680,0.1563333333333333,0.056,0.036,-0.3726527,0.4347614833333333,9.175755516666667,-88000.0,-202000.0,-465666.6666666667,97596.30126666666,41.61666666666667,0.0,-2.399970531,-1.869881868,-40.85659409,-3.089999914,-144.8739929,-37.59946823,90.0
2018-09-11 19:13:01.720,0.1506666666666666,0.057,0.038,-0.38245935,0.4478370166666666,9.143066683333334,-87000.0,-202000.0,-465333.3333333333,97595.94726333334,41.61333333333333,0.0,-2.399970531,-1.869881868,-40.85659409,-3.0999999045,-144.8739929,-37.01620102,90.5
2018-09-11 19:13:01.760,0.145,0.058,0.04,-0.392266,0.46091255,9.11037785,-86000.0,-202000.0,-465000.0,97595.59326,41.61,0.0,-2.399970531,-1.869881868,-40.85659409,-3.109999895,-144.8739929,-36.43293381,91.0
2018-09-11 19:13:01.800,0.1296666666666666,0.062,0.0386666666666666,-0.392266,0.4445681333333333,9.123453383333334,-84666.66666666667,-206000.0,-463333.3333333333,97595.29825666666,41.61,0.0,-3.17756629,-0.072115004,-41.34958267,-3.109999895,-143.957901,-35.24949646,93.0
2018-09-11 19:13:01.840,0.1143333333333333,0.066,0.0373333333333333,-0.392266,0.4282237166666666,9.136528916666666,-83333.33333333333,-210000.0,-461666.6666666667,97595.00325333331,41.61,0.0,-3.17756629,-0.072115004,-41.34958267,-3.109999895,-143.957901,-35.24949646,93.0
2018-09-11 19:13:01.880,0.099,0.07,0.036,-0.392266,0.4118793,9.14960445,-82000.0,-214000.0,-460000.0,97594.70825,41.61,0.0,-3.17756629,-0.072115004,-41.34958267,-3.089999914,-143.957901,-34.04915237,94.0
2018-09-11 19:13:01.920,0.119,0.05975,0.0365,-0.4118793,0.4045243125,9.16921775,-81000.0,-216750.0,-458750.0,97595.20111,41.61,0.0,-3.17756629,-0.072115004,-41.34958267,-3.0833332536666664,-144.99638876666666,-33.65466562666667,94.66666666666669
2018-09-11 19:13:01.960,0.139,0.0495,0.037,-0.4314926,0.397169325,9.18883105,-80000.0,-219500.0,-457500.0,97595.69397,41.61,0.0,-3.17756629,-0.072115004,-41.34958267,-3.076666593333333,-146.03487653333335,-33.26017888333333,95.33333333333331
2018-09-11 19:13:02.000,0.159,0.03925,0.0375,-0.4511059,0.3898143375,9.20844435,-79000.0,-222250.0,-456250.0,97596.18683,41.61,0.0,-3.17756629,-0.072115004,-41.34958267,-3.069999933,-147.0733643,-32.86569214,96.0
2018-09-11 19:13:02.040,0.179,0.029,0.038,-0.4707192,0.38245935,9.22805765,-78000.0,-225000.0,-455000.0,97596.67969,41.61,0.0,-3.17756629,-0.072115004,-41.34958267,-3.069999933,-147.0733643,-32.86569214,96.0
2018-09-11 19:13:02.080,0.232,0.013,0.035,-0.4511059,0.5099458,9.36535075,-78000.0,-225000.0,-455000.0,97596.67969,41.61,0.0,-3.17756629,-0.072115004,-41.34958267,-3.069999933,-147.0733643,-32.86569214,96.0
2018-09-11 19:13:02.120,0.241,0.0014999999999999,0.034,-0.397169325,0.465815875,9.586000375,-75000.0,-230500.0,-456000.0,97597.036745,41.605,0.0,-3.17756629,-0.072115004,-41.34958267,-3.049999952,-147.0733643,-31.6822567,97.0
2018-09-11 19:13:02.160,0.25,-0.01,0.033,-0.34323275,0.42168595,9.80665,-72000.0,-236000.0,-457000.0,97597.3938,41.6,0.0,-3.17756629,-0.072115004,-41.34958267,-3.049999952,-147.0733643,-31.6822567,97.0
2018-09-11 19:13:02.200,0.2309999999999999,-0.0104999999999999,0.0385,-0.3775560249999999,0.465815875,9.8458766,-68500.0,-239000.0,-454500.0,97599.664305,41.6,0.0,-3.17756629,-0.072115004,-41.34958267,-3.00999999,-143.975647,-30.4903698,99.0
2018-09-11 19:13:02.240,0.212,-0.011,0.044,-0.4118793,0.5099458,9.8851032,-65000.0,-242000.0,-452000.0,97601.93481,41.6,0.0,-4.059857368,3.923105717,-42.15727997,-3.00999999,-143.975647,-30.4903698,99.0
2018-09-11 19:13:02.280,0.1983333333333333,0.0106666666666666,0.0403333333333333,-0.3661149333333333,0.5426346333333333,9.940674216666666,-68000.0,-244333.3333333333,-450666.6666666667,97601.12508,41.6,0.0,-4.059857368,3.923105717,-42.15727997,-3.00999999,-143.975647,-30.4903698,99.0
2018-09-11 19:13:02.320,0.1846666666666666,0.0323333333333333,0.0366666666666666,-0.3203505666666666,0.5753234666666667,9.996245233333331,-71000.0,-246666.66666666663,-449333.3333333333,97600.31535,41.6,0.0,-4.059857368,3.923105717,-42.15727997,-2.9900000095,-143.975647,-29.89019585,100.0
2018-09-11 19:13:02.360,0.171,0.054,0.033,-0.2745862,0.6080123,10.05181625,-74000.0,-249000.0,-448000.0,97599.50562,41.6,0.0,-4.059857368,3.923105717,-42.15727997,-2.970000029,-143.975647,-29.2900219,101.0
2018-09-11 19:13:02.400,0.1995,0.0365,0.0155,-0.318716125,0.544269075,9.80665,-71000.0,-257500.0,-448000.0,97600.20142,41.6,0.0,-4.059857368,3.923105717,-42.15727997,-2.970000029,-143.975647,-29.2900219,101.0
2018-09-11 19:13:02.440,0.228,0.019,-0.002,-0.36284605,0.48052585,9.56148375,-68000.0,-266000.0,-448000.0,97600.89722,41.6,0.0,-4.059857368,3.923105717,-42.15727997,-2.929999828,-136.603363,-28.09813309,102.0
2018-09-11 19:13:02.480,0.238,0.0203333333333333,-0.0043333333333333,-0.36284605,0.5328279833333334,9.617054766666667,-66666.66666666667,-267000.0,-446000.0,97601.70898666666,41.6,0.0,-4.059857368,3.923105717,-42.15727997,-2.909999847,-136.603363,-27.50641346,103.0
2018-09-11 19:13:02.520,0.248,0.0216666666666666,-0.0066666666666666,-0.36284605,0.5851301166666667,9.672625783333332,-65333.333333333336,-268000.0,-444000.0,97602.52075333332,41.6,0.0,-4.059857368,3.923105717,-42.15727997,-2.889999866,-136.603363,-26.91469383,104.0
2018-09-11 19:13:02.560,0.258,0.023,-0.009,-0.36284605,0.63743225,9.7281968,-64000.0,-269000.0,-442000.0,97603.33252,41.6,0.0,-4.059857368,3.923105717,-42.15727997,-2.889999866,-136.603363,-26.91469383,104.0
2018-09-11 19:13:02.600,0.2655,0.035,-0.0185,-0.38245935,0.55897905,9.409480675,-63000.0,-272500.0,-440000.0,97601.46179,41.595,0.0,-4.504969597,8.851288795,-42.52128983,-2.839999914,-141.7686462,-25.72280502,105.0
2018-09-11 19:13:02.640,0.273,0.047,-0.028,-0.40207265,0.48052585,9.09076455,-62000.0,-276000.0,-438000.0,97599.59106,41.59,0.0,-4.504969597,8.851288795,-42.52128983,-2.839999914,-141.7686462,-25.72280502,105.0
2018-09-11 19:13:02.680,0.2713333333333333,0.029,-0.03,-0.3955348833333333,0.4511059,9.136528916666666,-62000.0,-281333.3333333333,-437666.6666666667,97601.40584,41.59,0.0,-4.504969597,8.851288795,-42.52128983,-2.839999914,-141.7686462,-25.72280502,105.0
2018-09-11 19:13:02.720,0.2696666666666666,0.011,-0.032,-0.3889971166666666,0.42168595,9.182293283333332,-62000.0,-286666.6666666667,-437333.3333333333,97603.22062,41.59,0.0,-4.504969597,8.851288795,-42.52128983,-2.779999971,-141.7686462,-24.54782295,107.0
2018-09-11 19:13:02.760,0.268,-0.007,-0.034,-0.38245935,0.392266,9.22805765,-62000.0,-292000.0,-437000.0,97605.0354,41.59,0.0,-4.504969597,8.851288795,-42.52128983,-2.779999971,-141.7686462,-24.54782295,107.0
2018-09-11 19:13:02.800,0.2855,-0.0125,-0.025,-0.3775560249999999,0.4707192,9.36535075,-60500.0,-300500.0,-432000.0,97603.40271,41.59,0.0,-4.504969597,8.851288795,-42.52128983,-2.75,-144.53544614999998,-23.96032524,107.5
2018-09-11 19:13:02.840,0.303,-0.018,-0.016,-0.3726527,0.5491724,9.50264385,-59000.0,-309000.0,-427000.0,97601.77002,41.59,0.0,-4.504969597,8.851288795,-42.52128983,-2.720000029,-147.3022461,-23.37282753,108.0
2018-09-11 19:13:02.880,0.3153333333333333,-0.0066666666666666,-0.0176666666666666,-0.3759215833333333,0.5720545833333334,9.6301303,-61333.333333333336,-313000.0,-427000.0,97603.04158666666,41.59,0.0,-4.504969597,8.851288795,-42.52128983,-2.639999866,-147.3022461,-22.2147522,110.0
2018-09-11 19:13:02.920,0.3276666666666666,0.0046666666666666,-0.0193333333333333,-0.3791904666666666,0.5949367666666666,9.75761675,-63666.66666666666,-317000.0,-427000.0,97604.31315333334,41.59,0.0,-4.504969597,8.851288795,-42.52128983,-2.639999866,-147.3022461,-22.2147522,110.0
2018-09-11 19:13:02.960,0.34,0.016,-0.021,-0.38245935,0.61781895,9.8851032,-66000.0,-321000.0,-427000.0,97605.58472,41.59,0.0,-4.504969597,8.851288795,-42.52128983,-2.639999866,-147.3022461,-22.2147522,110.0
2018-09-11 19:13:03.000,0.3545,0.033,-0.0225,-0.38245935,0.6864655,9.56148375,-62500.0,-326000.0,-419500.0,97607.02515,41.59,0.0,-4.672597885,15.23776913,-41.89480209,-2.559999943,-143.6710358,-21.07357979,111.0
2018-09-11 19:13:03.040,0.369,0.05,-0.024,-0.38245935,0.75511205,9.2378643,-59000.0,-331000.0,-412000.0,97608.46558,41.59,0.0,-4.672597885,15.23776913,-41.89480209,-2.559999943,-143.6710358,-21.07357979,111.0
2018-09-11 19:13:03.080,0.3429999999999999,0.0465,-0.0425,-0.40207265,0.779628675,9.2378643,-62000.0,-336000.0,-410500.0,97608.60596,41.587500000000006,0.0,-4.672597885,15.23776913,-41.89480209,-2.559999943,-143.6710358,-21.07357979,111.0
2018-09-11 19:13:03.120,0.317,0.043,-0.061,-0.42168595,0.8041453000000001,9.2378643,-65000.0,-341000.0,-409000.0,97608.74634,41.585,0.0,-4.672597885,15.23776913,-41.89480209,-2.480000019,-143.6710358,-19.94931793,113.0
2018-09-11 19:13:03.160,0.291,0.0395,-0.0795,-0.44129925,0.828661925,9.2378643,-68000.0,-346000.0,-407500.0,97608.88672,41.5825,0.0,-4.672597885,15.23776913,-41.89480209,-2.4299999475,-142.86699679999998,-19.391410825,113.5
2018-09-11 19:13:03.200,0.265,0.036,-0.098,-0.46091255,0.85317855,9.2378643,-71000.0,-351000.0,-406000.0,97609.0271,41.58,0.0,-4.672597885,15.23776913,-41.89480209,-2.379999876,-142.0629578,-18.83350372,114.0
2018-09-11 19:13:03.240,0.245,0.055,-0.116,-0.38245935,0.9610517,8.97308475,-57000.0,-367000.0,-394000.0,97609.0271,41.58,0.0,-4.672597885,15.23776913,-41.89480209,-2.379999876,-142.0629578,-18.83350372,114.0
2018-09-11 19:13:03.280,0.237,0.03,-0.1333333333333333,-0.3889971166666666,0.97085835,8.99269805,-60333.333333333336,-372333.3333333333,-391666.6666666667,97609.27327666667,41.58,0.0,-4.672597885,15.23776913,-41.89480209,-2.379999876,-142.0629578,-18.83350372,114.0
2018-09-11 19:13:03.320,0.229,0.005,-0.1506666666666666,-0.3955348833333333,0.980665,9.01231135,-63666.66666666666,-377666.6666666667,-389333.3333333333,97609.51945333333,41.58,0.0,-4.672597885,15.23776913,-41.89480209,-2.279999971,-142.0629578,-17.73460197,116.0
2018-09-11 19:13:03.360,0.221,-0.02,-0.168,-0.40207265,0.99047165,9.03192465,-67000.0,-383000.0,-387000.0,97609.76563,41.58,0.0,-4.672597885,15.23776913,-41.89480209,-2.149999857,-136.8240356,-16.66105843,117.0
2018-09-11 19:13:03.400,0.1916666666666666,-0.0276666666666666,-0.178,-0.4118793,0.9545139333333332,9.309779733333334,-66333.33333333333,-386000.0,-384666.6666666667,97611.20199,41.58,0.0,-4.672597885,15.23776913,-41.89480209,-2.149999857,-136.8240356,-16.66105843,117.0
2018-09-11 19:13:03.440,0.1623333333333333,-0.0353333333333333,-0.188,-0.42168595,0.9185562166666666,9.587634816666666,-65666.66666666667,-389000.0,-382333.3333333333,97612.63835,41.58,0.0,-4.672597885,15.23776913,-41.89480209,-2.149999857,-136.8240356,-16.66105843,117.0
2018-09-11 19:13:03.480,0.133,-0.043,-0.198,-0.4314926,0.8825985,9.8654899,-65000.0,-392000.0,-380000.0,97614.07471,41.58,0.0,-6.043120861,22.54785347,-38.87594604,-2.019999981,-136.8240356,-15.5959568,119.0
2018-09-11 19:13:03.520,0.041,-0.053,-0.215,-0.36284605,0.89240515,9.6497436,-63000.0,-398000.0,-377000.0,97618.98193,41.58,0.0,-6.043120861,22.54785347,-38.87594604,-2.019999981,-136.8240356,-15.5959568,119.0
2018-09-11 19:13:03.560,0.0586666666666666,-0.0419999999999999,-0.218,-0.3301572166666666,0.8760607333333333,9.9635564,-66333.33333333333,-399000.0,-374666.6666666667,97618.14168,41.57666666666667,0.0,-6.043120861,22.54785347,-38.87594604,-2.019999981,-136.8240356,-15.5959568,119.0
2018-09-11 19:13:03.600,0.0763333333333333,-0.0309999999999999,-0.221,-0.2974683833333333,0.8597163166666666,10.2773692,-69666.66666666667,-400000.0,-372333.3333333333,97617.30143,41.57333333333333,0.0,-6.043120861,22.54785347,-38.87594604,-2.019999981,-136.8240356,-15.5959568,119.0
2018-09-11 19:13:03.640,0.094,-0.02,-0.224,-0.26477955,0.8433719,10.591182,-73000.0,-401000.0,-370000.0,97616.46118,41.57,0.0,-6.043120861,22.54785347,-38.87594604,-1.879999995,-150.2958374,-14.53931999,121.0
2018-09-11 19:13:03.680,0.109,-0.0355,-0.225,-0.2770378624999999,0.7943386499999999,10.4955671625,-72000.0,-404000.0,-368750.0,97617.292785,41.57,0.0,-6.043120861,22.54785347,-38.87594604,-1.879999995,-150.2958374,-14.53931999,121.0
2018-09-11 19:13:03.720,0.124,-0.051,-0.226,-0.289296175,0.7453053999999999,10.399952325,-71000.0,-407000.0,-367500.0,97618.12439,41.57,0.0,-6.238782564666667,22.79253451,-37.93406041,-1.8333333333333333,-150.2958374,-14.20683066,121.33333333333331
2018-09-11 19:13:03.760,0.139,-0.0665,-0.227,-0.3015544875,0.69627215,10.3043374875,-70000.0,-410000.0,-366250.0,97618.955995,41.57,0.0,-6.434444268333333,23.03721555,-36.99217478,-1.7866666716666666,-150.2958374,-13.87434133,121.66666666666669
2018-09-11 19:13:03.800,0.154,-0.082,-0.228,-0.3138128,0.6472389,10.20872265,-69000.0,-413000.0,-365000.0,97619.7876,41.57,0.0,-6.630105972,23.28189659,-36.05028915,-1.74000001,-150.2958374,-13.541852,122.0
2018-09-11 19:13:03.840,0.176,-0.139,-0.221,-0.36284605,0.53936575,10.2185293,-70000.0,-407000.0,-367000.0,97621.71631,41.57,0.0,-6.630105972,23.28189659,-36.05028915,-1.589999914,-141.6860657,-12.56129456,124.0
2018-09-11 19:13:03.880,0.187,-0.1513333333333333,-0.2106666666666666,-0.3170816833333333,0.5622479333333333,10.4931155,-73666.66666666667,-410333.3333333333,-366666.6666666667,97623.33577666667,41.57,0.0,-6.630105972,23.28189659,-36.05028915,-1.514999926,-141.6860657,-12.07524157,124.5
2018-09-11 19:13:03.920,0.1979999999999999,-0.1636666666666666,-0.2003333333333333,-0.2713173166666666,0.5851301166666666,10.7677017,-77333.33333333333,-413666.6666666667,-366333.3333333333,97624.95524333332,41.57,0.0,-6.630105972,23.28189659,-36.05028915,-1.439999938,-141.6860657,-11.58918858,125.0
2018-09-11 19:13:03.960,0.209,-0.176,-0.19,-0.22555295,0.6080123,11.0422879,-81000.0,-417000.0,-366000.0,97626.57471,41.57,0.0,-6.630105972,23.28189659,-36.05028915,-1.439999938,-141.6860657,-11.58918858,125.0
2018-09-11 19:13:04.000,0.1735,-0.1664999999999999,-0.1765,-0.16671305,0.57859235,11.38552065,-80500.0,-424000.0,-361500.0,97627.120975,41.57,0.0,-6.630105972,23.28189659,-36.05028915,-1.439999938,-141.6860657,-11.58918858,125.0
2018-09-11 19:13:04.040,0.138,-0.157,-0.163,-0.10787315,0.5491724,11.7287534,-80000.0,-431000.0,-357000.0,97627.66724,41.57,0.0,-6.630105972,23.28189659,-36.05028915,-1.289999962,-159.4667358,-10.65089035,127.0
2018-09-11 19:13:04.080,0.1415,-0.161,-0.1495,-0.0980665,0.61781895,11.89546645,-84500.0,-430500.0,-358500.0,97626.61438,41.57,0.0,-6.2579257485,24.922079085,-33.35734367,-1.214999974,-159.4667358,-10.2028770445,127.5
2018-09-11 19:13:04.120,0.145,-0.165,-0.136,-0.08825985,0.6864655,12.0621795,-89000.0,-430000.0,-360000.0,97625.56152,41.57,0.0,-5.885745525,26.56226158,-30.66439819,-1.139999986,-159.4667358,-9.754863739,128.0
2018-09-11 19:13:04.160,0.1343333333333333,-0.1576666666666666,-0.1316666666666666,-0.0817220833333333,0.7256921,12.166783766666668,-90666.66666666669,-432000.0,-357333.3333333333,97626.21052666666,41.56666666666667,0.0,-5.885745525,26.56226158,-30.66439819,-1.139999986,-159.4667358,-9.754863739,128.0
2018-09-11 19:13:04.200,0.1236666666666666,-0.1503333333333333,-0.1273333333333333,-0.0751843166666666,0.7649187,12.271388033333333,-92333.33333333331,-434000.0,-354666.6666666667,97626.85953333334,41.56333333333333,0.0,-5.885745525,26.56226158,-30.66439819,-1.069999993,-157.86294555,-9.3279824255,128.5
2018-09-11 19:13:04.240,0.113,-0.143,-0.123,-0.06864655,0.8041453,12.3759923,-94000.0,-436000.0,-352000.0,97627.50854,41.56,0.0,-5.885745525,26.56226158,-30.66439819,-1.0,-156.2591553,-8.901101112,129.0
2018-09-11 19:13:04.280,0.0886666666666666,-0.1359999999999999,-0.12,-0.0817220833333333,0.8368341333333333,12.222354783333332,-96666.66666666669,-443333.3333333333,-351333.3333333333,97630.80444,41.56333333333333,0.0,-5.885745525,26.56226158,-30.66439819,-1.0,-156.2591553,-8.901101112,129.0
2018-09-11 19:13:04.320,0.0643333333333333,-0.129,-0.117,-0.0947976166666666,0.8695229666666666,12.068717266666669,-99333.33333333331,-450666.6666666667,-350666.6666666667,97634.10034,41.56666666666667,0.0,-5.885745525,26.56226158,-30.66439819,-0.9399999975,-156.2591553,-8.491124153,130.0
2018-09-11 19:13:04.360,0.04,-0.122,-0.114,-0.10787315,0.9022118,11.91507975,-102000.0,-458000.0,-350000.0,97637.39624,41.57,0.0,-5.885745525,26.56226158,-30.66439819,-0.879999995,-156.2591553,-8.081147194,131.0
2018-09-11 19:13:04.400,0.037,-0.1543333333333333,-0.127,-0.1176798,0.9250939833333334,11.9052731,-105666.66666666669,-460333.3333333333,-348333.3333333333,97636.01074333332,41.56666666666667,0.0,-5.885745525,26.56226158,-30.66439819,-0.769999981,-159.2830658,-7.311916828,132.0
2018-09-11 19:13:04.440,0.034,-0.1866666666666666,-0.14,-0.12748645,0.9479761666666666,11.89546645,-109333.33333333331,-462666.6666666667,-346666.6666666667,97634.62524666666,41.56333333333333,0.0,-5.885745525,26.56226158,-30.66439819,-0.769999981,-159.2830658,-7.311916828,132.0
2018-09-11 19:13:04.480,0.031,-0.219,-0.153,-0.1372931,0.97085835,11.8856598,-113000.0,-465000.0,-345000.0,97633.23975,41.56,0.0,-5.885745525,26.56226158,-30.66439819,-0.769999981,-159.2830658,-7.311916828,132.0
2018-09-11 19:13:04.520,0.073,-0.182,-0.183,-0.0784532,0.95124505,11.9052731,-116000.0,-450000.0,-347000.0,97637.02393,41.56,0.0,-3.862004042,28.42007828,-25.72536278,-0.669999957,-159.2830658,-6.584949017,134.0
2018-09-11 19:13:04.560,0.0476666666666666,-0.172,-0.1863333333333333,-0.0751843166666666,0.9970094166666666,11.794131066666669,-124333.33333333331,-457000.0,-347000.0,97637.42676,41.56,0.0,-3.862004042,28.42007828,-25.72536278,-0.669999957,-159.2830658,-6.584949017,134.0
2018-09-11 19:13:04.600,0.0223333333333333,-0.162,-0.1896666666666666,-0.0719154333333333,1.0427737833333333,11.682989033333332,-132666.66666666666,-464000.0,-347000.0,97637.82959,41.56,0.0,-3.862004042,28.42007828,-25.72536278,-0.669999957,-159.2830658,-6.584949017,134.0
2018-09-11 19:13:04.640,-0.003,-0.152,-0.193,-0.06864655,1.08853815,11.571847,-141000.0,-471000.0,-347000.0,97638.23242,41.56,0.0,-3.862004042,28.42007828,-25.72536278,-0.569999993,-171.0893555,-5.891797066,135.0
2018-09-11 19:13:04.680,-0.018,-0.162,-0.2013333333333333,-0.0784532,1.06892485,11.565309233333334,-137666.66666666666,-468000.0,-349000.0,97639.05232666669,41.56,0.0,-3.862004042,28.42007828,-25.72536278,-0.569999993,-171.0893555,-5.891797066,135.0
2018-09-11 19:13:04.720,-0.033,-0.172,-0.2096666666666666,-0.08825985,1.04931155,11.558771466666666,-134333.33333333334,-465000.0,-351000.0,97639.87223333331,41.56,0.0,-3.862004042,28.42007828,-25.72536278,-0.48999998,-171.0893555,-5.240906715,136.0
2018-09-11 19:13:04.760,-0.048,-0.182,-0.218,-0.0980665,1.02969825,11.5522337,-131000.0,-462000.0,-353000.0,97640.69214,41.56,0.0,-3.862004042,28.42007828,-25.72536278,-0.444999978,-164.14384460000002,-4.9365959165,137.0
2018-09-11 19:13:04.800,-0.0735,-0.202,-0.2215,-0.063743225,1.093441475,11.75817335,-129500.0,-457500.0,-353000.0,97639.99634,41.56,0.0,-3.862004042,28.42007828,-25.72536278,-0.399999976,-157.1983337,-4.632285118,138.0
2018-09-11 19:13:04.840,-0.099,-0.222,-0.225,-0.02941995,1.1571847,11.964113,-128000.0,-453000.0,-353000.0,97639.30054,41.56,0.0,-2.814604044,28.223629,-21.10226631,-0.399999976,-157.1983337,-4.632285118,138.0
2018-09-11 19:13:04.880,-0.117,-0.21125,-0.22925,-0.0122583125,1.1939596375,12.2852807875,-137000.0,-455000.0,-353500.0,97640.0451675,41.557500000000005,0.0,-2.814604044,28.223629,-21.10226631,-0.399999976,-157.1983337,-4.632285118,138.0
2018-09-11 19:13:04.920,-0.135,-0.2005,-0.2334999999999999,0.004903325,1.230734575,12.606448575,-146000.0,-457000.0,-354000.0,97640.789795,41.555,0.0,-2.814604044,28.223629,-21.10226631,-0.3649999794999999,-157.1983337,-4.349107265500001,138.5
2018-09-11 19:13:04.960,-0.153,-0.18975,-0.23775,0.0220649625,1.2675095125,12.9276163625,-155000.0,-459000.0,-354500.0,97641.5344225,41.5525,0.0,-2.814604044,28.223629,-21.10226631,-0.329999983,-157.1983337,-4.065929413,139.0
2018-09-11 19:13:05.000,-0.171,-0.179,-0.242,0.0392266,1.30428445,13.24878415,-164000.0,-461000.0,-355000.0,97642.27905,41.55,0.0,-2.814604044,28.223629,-21.10226631,-0.269999981,-153.0965881,-3.541836739,141.0
2018-09-11 19:13:05.040,-0.18,-0.089,-0.267,0.0588399,1.1375714,13.07226445,-151000.0,-459000.0,-365000.0,97643.71948,41.55,0.0,-2.814604044,28.223629,-21.10226631,-0.269999981,-153.0965881,-3.541836739,141.0
2018-09-11 19:13:05.080,-0.159,-0.079,-0.2735,-0.024516625,1.0591182,12.1994726,-154500.0,-442000.0,-368500.0,97644.543455,41.55,0.0,-2.814604044,28.223629,-21.10226631,-0.269999981,-153.0965881,-3.541836739,141.0
2018-09-11 19:13:05.120,-0.138,-0.069,-0.28,-0.10787315,0.980665,11.32668075,-158000.0,-425000.0,-372000.0,97645.36743,41.55,0.0,-2.814604044,28.223629,-21.10226631,-0.229999989,-153.0965881,-3.060011864,142.0
2018-09-11 19:13:05.160,-0.1186666666666666,-0.0886666666666666,-0.2756666666666666,-0.1013353833333333,0.91201845,11.40513395,-152666.66666666666,-425333.3333333333,-374666.6666666667,97644.63297333333,41.55,0.0,-2.814604044,28.223629,-21.10226631,-0.219999991,-159.23271175,-2.840232015,142.5
2018-09-11 19:13:05.200,-0.0993333333333333,-0.1083333333333333,-0.2713333333333333,-0.0947976166666666,0.8433719,11.48358715,-147333.33333333334,-425666.6666666667,-377333.3333333333,97643.89851666668,41.55,0.0,-2.814604044,28.223629,-21.10226631,-0.209999993,-165.3688354,-2.620452166,143.0
2018-09-11 19:13:05.240,-0.08,-0.128,-0.267,-0.08825985,0.77472535,11.56204035,-142000.0,-426000.0,-380000.0,97643.16406,41.55,0.0,-2.814604044,28.223629,-21.10226631,-0.209999993,-165.3688354,-2.620452166,143.0
2018-09-11 19:13:05.280,-0.1255,-0.1265,-0.245,-0.1176798,0.779628675,11.135451075,-144000.0,-414500.0,-380500.0,97642.807005,41.55,0.0,-2.490709066,24.58763886,-13.53311443,-0.209999993,-165.3688354,-2.620452166,143.0
2018-09-11 19:13:05.320,-0.171,-0.125,-0.223,-0.14709975,0.784532,10.7088618,-146000.0,-403000.0,-381000.0,97642.44995,41.55,0.0,-2.490709066,24.58763886,-13.53311443,-0.199999988,-165.3688354,-2.27667737,144.0
2018-09-11 19:13:05.360,-0.18225,-0.1335,-0.21575,-0.142196425,0.760015375,10.860864875,-144000.0,-399000.0,-384250.0,97644.0261825,41.55,0.0,-2.490709066,24.58763886,-13.53311443,-0.199999988,-165.3688354,-2.27667737,144.0
2018-09-11 19:13:05.400,-0.1935,-0.142,-0.2085,-0.1372931,0.73549875,11.01286795,-142000.0,-395000.0,-387500.0,97645.602415,41.55,0.0,-2.490709066,24.58763886,-13.53311443,-0.179999992,-145.0838013,-1.900520086,146.0
2018-09-11 19:13:05.440,-0.20475,-0.1505,-0.20125,-0.132389775,0.7109821249999999,11.164871025,-140000.0,-391000.0,-390750.0,97647.1786475,41.55,0.0,-2.490709066,24.58763886,-13.53311443,-0.179999992,-145.0838013,-1.900520086,146.0
2018-09-11 19:13:05.480,-0.216,-0.159,-0.194,-0.12748645,0.6864655,11.3168741,-138000.0,-387000.0,-394000.0,97648.75488,41.55,0.0,-2.490709066,24.58763886,-13.53311443,-0.179999992,-145.0838013,-1.900520086,146.0
2018-09-11 19:13:05.520,-0.21,-0.1375,-0.1825,-0.08825985,0.7256921,11.62088025,-139000.0,-384000.0,-396500.0,97649.243165,41.55,0.0,-2.490709066,24.58763886,-13.53311443,-0.179999992,-145.0838013,-1.7578308580000002,146.5
2018-09-11 19:13:05.560,-0.204,-0.116,-0.171,-0.04903325,0.7649187,11.9248864,-140000.0,-381000.0,-399000.0,97649.73145,41.55,0.0,-2.490709066,24.58763886,-13.53311443,-0.179999992,-145.0838013,-1.61514163,147.0
2018-09-11 19:13:05.600,-0.1965,-0.097,-0.1615,-0.08825985,0.701175475,11.8072066,-147000.0,-370500.0,-399000.0,97648.74878,41.55,0.0,-2.490709066,24.58763886,-13.53311443,-0.179999992,-143.9906158,-1.293731213,148.0
2018-09-11 19:13:05.640,-0.189,-0.078,-0.152,-0.12748645,0.63743225,11.6895268,-154000.0,-360000.0,-399000.0,97647.76611,41.55,0.0,-2.490709066,24.58763886,-13.53311443,-0.179999992,-143.9906158,-1.293731213,148.0
2018-09-11 19:13:05.680,-0.1686666666666666,-0.0913333333333333,-0.141,-0.1111420333333333,0.6603144333333334,11.5914603,-156666.66666666666,-358666.6666666667,-403000.0,97646.29109333332,41.54666666666667,0.0,-1.311493278,19.93992996,-7.818130016,-0.179999992,-143.9906158,-1.732188225,149.0
2018-09-11 19:13:05.720,-0.1483333333333333,-0.1046666666666666,-0.13,-0.0947976166666666,0.6831966166666666,11.4933938,-159333.33333333334,-357333.3333333333,-407000.0,97644.81607666668,41.54333333333333,0.0,-1.311493278,19.93992996,-7.818130016,-0.179999992,-143.9906158,-1.732188225,149.0
2018-09-11 19:13:05.760,-0.128,-0.118,-0.119,-0.0784532,0.7060788,11.3953273,-162000.0,-356000.0,-411000.0,97643.34106,41.54,0.0,-1.311493278,19.93992996,-7.818130016,-0.179999992,-143.9906158,-1.732188225,149.0
2018-09-11 19:13:05.800,-0.119,-0.104,-0.1129999999999999,-0.0980665,0.7551120499999999,11.106031125,-158500.0,-349000.0,-408500.0,97644.31152,41.54,0.0,-1.311493278,19.93992996,-7.818130016,-0.179999992,-143.9906158,-1.732188225,149.0
2018-09-11 19:13:05.840,-0.11,-0.09,-0.107,-0.1176798,0.8041453,10.81673495,-155000.0,-342000.0,-406000.0,97645.28198,41.54,0.0,-1.311493278,19.93992996,-7.818130016,-0.199999988,-127.7153015,-1.425202131,150.0
2018-09-11 19:13:05.880,-0.1293333333333333,-0.1046666666666666,-0.1026666666666666,-0.1111420333333333,0.8270274833333333,11.045556783333334,-160666.66666666666,-341000.0,-410000.0,97645.22298,41.54,0.0,-1.311493278,19.93992996,-7.818130016,-0.199999988,-127.7153015,-1.425202131,150.0
2018-09-11 19:13:05.920,-0.1486666666666666,-0.1193333333333333,-0.0983333333333333,-0.1046042666666666,0.8499096666666667,11.274378616666668,-166333.33333333334,-340000.0,-414000.0,97645.16398,41.54,0.0,-1.311493278,19.93992996,-7.818130016,-0.229999989,-127.7153015,-1.459090471,152.0
2018-09-11 19:13:05.960,-0.168,-0.134,-0.094,-0.0980665,0.87279185,11.50320045,-172000.0,-339000.0,-418000.0,97645.10498,41.54,0.0,-0.6627011589999999,18.727329255,-6.5246818065,-0.2449999895,-124.2066879,-1.3167933820000002,152.5
2018-09-11 19:13:06.000,-0.181,-0.114,-0.094,-0.093163175,0.809048625,11.67972015,-161500.0,-330500.0,-419500.0,97643.188475,41.535,0.0,-0.01390904,17.51472855,-5.231233597,-0.25999999,-120.6980743,-1.174496293,153.0
2018-09-11 19:13:06.040,-0.194,-0.094,-0.094,-0.08825985,0.7453054,11.85623985,-151000.0,-322000.0,-421000.0,97641.27197,41.53,0.0,-0.01390904,17.51472855,-5.231233597,-0.25999999,-120.6980743,-1.174496293,153.0
2018-09-11 19:13:06.080,-0.1786666666666666,-0.074,-0.0926666666666666,-0.0980665,0.7224232166666666,11.71894675,-154333.33333333334,-316666.6666666667,-423000.0,97641.98608333334,41.53,0.0,-0.01390904,17.51472855,-5.231233597,-0.284999996,-120.6980743,-1.0451289715,153.5
2018-09-11 19:13:06.120,-0.1633333333333333,-0.054,-0.0913333333333333,-0.10787315,0.6995410333333334,11.58165365,-157666.66666666666,-311333.3333333333,-425000.0,97642.70019666666,41.53,0.0,-0.01390904,17.51472855,-5.231233597,-0.310000002,-120.6980743,-0.91576165,154.0
2018-09-11 19:13:06.160,-0.148,-0.034,-0.09,-0.1176798,0.67665885,11.44436055,-161000.0,-306000.0,-427000.0,97643.41431,41.53,0.0,-0.01390904,17.51472855,-5.231233597,-0.310000002,-120.6980743,-0.91576165,154.0
2018-09-11 19:13:06.200,-0.1573333333333333,-0.0273333333333333,-0.0876666666666666,-0.1307553333333333,0.6701210833333333,11.016136833333334,-171000.0,-308333.3333333333,-425666.6666666667,97643.04403,41.53333333333333,0.0,-0.01390904,17.51472855,-5.231233597,-0.310000002,-120.6980743,-0.91576165,154.0
2018-09-11 19:13:06.240,-0.1666666666666666,-0.0206666666666666,-0.0853333333333333,-0.1438308666666666,0.6635833166666667,10.587913116666666,-181000.0,-310666.6666666667,-424333.3333333333,97642.67375,41.53666666666667,0.0,-0.01390904,17.51472855,-5.231233597,-0.3449999984999999,-108.320526105,-1.7719798985000002,154.5
2018-09-11 19:13:06.280,-0.176,-0.014,-0.083,-0.1569064,0.65704555,10.1596894,-191000.0,-313000.0,-423000.0,97642.30347,41.54,0.0,-0.01390904,17.51472855,-5.231233597,-0.379999995,-95.94297791,-2.628198147,155.0
2018-09-11 19:13:06.320,-0.194,-0.0095,-0.079,-0.152003075,0.652142225,9.95374975,-178000.0,-303000.0,-428500.0,97639.782715,41.535,0.0,-0.01390904,17.51472855,-5.231233597,-0.459999979,-95.94297791,-2.285584211,156.0
2018-09-11 19:13:06.360,-0.212,-0.005,-0.075,-0.14709975,0.6472389,9.7478101,-165000.0,-293000.0,-434000.0,97637.26196,41.53,0.0,-0.01390904,17.51472855,-5.231233597,-0.459999979,-95.94297791,-2.285584211,156.0
2018-09-11 19:13:06.400,-0.128,-0.0115,-0.0839999999999999,-0.14709975,0.6276256,9.7281968,-161000.0,-284000.0,-435000.0,97639.004515,41.53,0.0,-0.01390904,17.51472855,-5.231233597,-0.4999999705,-91.25289917,-2.46103394,156.5
2018-09-11 19:13:06.440,-0.044,-0.018,-0.093,-0.14709975,0.6080123,9.7085835,-157000.0,-275000.0,-436000.0,97640.74707,41.53,0.0,0.2860607515,15.32398224,-3.7390277385,-0.51999996625,-88.90785980000001,-2.5487588045000003,156.75
2018-09-11 19:13:06.480,-0.0293333333333333,-0.0169999999999999,-0.0923333333333333,-0.1405619833333333,0.5753234666666667,9.636668066666669,-158000.0,-274333.3333333333,-437000.0,97639.09708666666,41.53,0.0,0.586030543,13.13323593,-2.24682188,-0.539999962,-86.56282043,-2.636483669,157.0
2018-09-11 19:13:06.520,-0.0146666666666666,-0.016,-0.0916666666666666,-0.1340242166666666,0.5426346333333333,9.564752633333333,-159000.0,-273666.6666666667,-438000.0,97637.44710333334,41.53,0.0,0.586030543,13.13323593,-2.24682188,-0.59249998625,-82.89332199,-2.371364653,157.75
2018-09-11 19:13:06.560,0.0,-0.015,-0.091,-0.12748645,0.5099458,9.4928372,-160000.0,-273000.0,-439000.0,97635.79712,41.53,0.0,0.586030543,13.13323593,-2.24682188,-0.6450000105,-79.22382355,-2.106245637,158.5
2018-09-11 19:13:06.600,0.0083333333333333,-0.018,-0.0866666666666666,-0.1209486833333333,0.5164835666666666,9.538601566666667,-161000.0,-270666.6666666667,-438333.3333333333,97636.60888666668,41.53,0.0,0.586030543,13.13323593,-2.24682188,-0.6625000087499999,-76.05428696000001,-2.019546807,158.75
2018-09-11 19:13:06.640,0.0166666666666666,-0.021,-0.0823333333333333,-0.1144109166666666,0.5230213333333333,9.584365933333332,-162000.0,-268333.3333333333,-437666.6666666667,97637.42065333332,41.53,0.0,0.586030543,13.13323593,-2.24682188,-0.680000007,-72.88475037,-1.932847977,159.0
2018-09-11 19:13:06.680,0.025,-0.024,-0.078,-0.10787315,0.5295591,9.6301303,-163000.0,-266000.0,-437000.0,97638.23242,41.53,0.0,0.586030543,13.13323593,-2.24682188,-0.680000007,-72.88475037,-1.932847977,159.0
2018-09-11 19:13:06.720,0.033,-0.03,-0.07,-0.112776475,0.53936575,9.723293474999998,-158500.0,-260500.0,-439500.0,97636.15112,41.53,0.0,0.586030543,13.13323593,-2.24682188,-0.74000001,-72.88475037,-2.999541521,160.0
2018-09-11 19:13:06.760,0.041,-0.036,-0.062,-0.1176798,0.5491724,9.81645665,-154000.0,-255000.0,-442000.0,97634.06982,41.53,0.0,0.586030543,13.13323593,-2.24682188,-0.7599999906666667,-67.98117955666667,-2.864469846,160.66666666666666
2018-09-11 19:13:06.800,0.0265,0.0075,-0.0564999999999999,-0.102969825,0.5687857000000001,9.7085835,-155000.0,-256000.0,-440500.0,97632.27539,41.525000000000006,0.0,0.586030543,13.13323593,-2.24682188,-0.7799999713333333,-63.077608743333336,-2.729398171,161.33333333333334
2018-09-11 19:13:06.840,0.012,0.051,-0.051,-0.08825985,0.588399,9.60071035,-156000.0,-257000.0,-439000.0,97630.48096,41.52,0.0,0.586030543,13.13323593,-2.24682188,-0.799999952,-58.17403793,-2.594326496,162.0
2018-09-11 19:13:06.880,0.013,0.0249999999999999,-0.046,-0.1372931,0.622722275,9.438900625,-155000.0,-258000.0,-439000.0,97631.533815,41.52,0.0,0.6292454,13.64746284,-0.450622261,-0.799999952,-58.17403793,-2.594326496,162.0
2018-09-11 19:13:06.920,0.014,-0.001,-0.041,-0.18632635,0.65704555,9.2770909,-154000.0,-259000.0,-439000.0,97632.58667,41.52,0.0,0.6292454,13.64746284,-0.450622261,-0.849999964,-58.17403793,-2.203292608,163.0
2018-09-11 19:13:06.960,0.015,-0.009,-0.043,-0.1601752833333333,0.6733899666666666,9.352275216666666,-154333.33333333334,-259000.0,-438666.6666666667,97632.67618666666,41.52,0.0,0.6292454,13.64746284,-0.450622261,-0.87499997,-51.228523255,-3.190728545,163.5
2018-09-11 19:13:07.000,0.016,-0.017,-0.045,-0.1340242166666666,0.6897343833333334,9.427459533333334,-154666.66666666666,-259000.0,-438333.3333333333,97632.76570333334,41.52,0.0,0.6292454,13.64746284,-0.450622261,-0.899999976,-44.28300858,-4.178164482,164.0
2018-09-11 19:13:07.040,0.017,-0.025,-0.047,-0.10787315,0.7060788,9.50264385,-155000.0,-259000.0,-438000.0,97632.85522,41.52,0.0,0.6292454,13.64746284,-0.450622261,-0.899999976,-44.28300858,-4.178164482,164.0
