time,field.angular_velocity.x,field.angular_velocity.y,field.angular_velocity.z,field.linear_acceleration.x,field.linear_acceleration.y,field.linear_acceleration.z,field.fluid_pressure,field.magnetic_field.x,field.magnetic_field.y,field.magnetic_field.z,field.temperature,field.alt_error,field.aspd_error,field.xtrack_error,field.wp_dist,field.measured.pitch,field.measured.roll,field.measured.yaw,field.airspeed,label
46:35.3,0.492,0.02,-0.056,-0.22555295,0.2157463,8.97308475,97443.31665,-857000.0,-137000.0,-1053000.0,41.73,-0.179999992,-350.7492065,-31.18383789,13.0,-0.930810094,6.193175793,-58.97834015,0,0
46:35.3,0.492,0.02,-0.056,-0.22555295,0.2157463,8.97308475,97443.31665,-857000.0,-137000.0,-1053000.0,41.73,-0.179999992,-350.7492065,-31.18383789,13.0,-0.930810094,6.193175793,-58.97834015,0,0
46:35.4,0.491,0.0105,-0.059,-0.230456275,0.240262925,9.281994225,97442.48657,-235000.0,-155500.0,-1039500.0,41.73,-0.179999992,-350.7492065,-31.18383789,13.0,-0.930810094,6.193175793,-58.97834015,0,0
46:35.4,0.49,0.001,-0.062,-0.2353596,0.26477955,9.5909037,97441.65649,387000.0,-174000.0,-1026000.0,41.73,-0.169999994,-344.9312134,-30.31964397,13.5,-1.341503918,13.49366546,-58.14720345,0,0
46:35.4,0.486,-0.004333333,-0.063333333,-0.238628483,0.330157217,9.50264385,97440.16113,-229000.0,-169000.0,-1103000.0,41.72666667,-0.159999996,-339.1132202,-29.45545006,14.0,-1.752197742,20.79415512,-57.31606674,0,0
46:35.5,0.482,-0.009666667,-0.064666667,-0.241897367,0.395534883,9.414384,97438.66577,-845000.0,-164000.0,-1180000.0,41.72333333,-0.159999996,-339.1132202,-29.45545006,14.0,-1.752197742,20.79415512,-57.31606674,0,0
46:35.5,0.478,-0.015,-0.066,-0.24516625,0.46091255,9.32612415,97437.17041,-1461000.0,-159000.0,-1257000.0,41.72,-0.140000001,-339.1132202,-27.71725082,16.0,-1.752197742,20.79415512,-57.31606674,0,0
46:35.6,0.413,-0.028,-0.0765,-0.1765197,0.563882375,9.840973275,97440.09705,-1558500.0,-164500.0,-1078000.0,41.72,-0.140000001,-339.1132202,-27.71725082,16.0,-1.752197742,20.79415512,-57.31606674,0,0
46:35.6,0.348,-0.041,-0.087,-0.10787315,0.6668522,10.3558224,97443.02368,-1656000.0,-170000.0,-899000.0,41.72,-0.109999999,-339.4086914,-275.2011414,18.0,-1.752197742,20.79415512,-57.31606674,0,0
46:35.6,0.317666667,-0.039333333,-0.098,-0.124217567,0.712616567,10.24794925,97442.95858,-2007333.333,-169333.3333,-975666.6667,41.71666667,-0.109999999,-339.4086914,-275.2011414,18.0,-1.752197742,20.79415512,-57.31606674,0,0
46:35.7,0.287333333,-0.037666667,-0.109,-0.140561983,0.758380933,10.1400761,97442.89347,-2358666.667,-168666.6667,-1052333.333,41.71333333,-0.109999999,-339.4086914,-275.2011414,18.0,-1.752197742,20.79415512,-57.31606674,0,0
46:35.7,0.257,-0.036,-0.12,-0.1569064,0.8041453,10.03220295,97442.82837,-2710000.0,-168000.0,-1129000.0,41.71,-0.109999999,-339.4086914,-275.2011414,18.0,-1.752197742,20.79415512,-57.31606674,0,0
46:35.8,0.0885,-0.034,-0.1405,-0.0980665,0.81395195,9.83606995,97444.11927,-2245000.0,-177500.0,-440000.0,41.71,-0.07,-239.4086914,-273.7133789,20.0,-1.752197742,20.79415512,-57.31606674,0,0
46:35.8,-0.08,-0.032,-0.161,-0.0392266,0.8237586,9.63993695,97445.41016,-1780000.0,-187000.0,249000.0,41.71,-0.045,-236.7805481,-272.9779511,20.5,-1.967191696,24.60228253,-56.2445488,0,0
46:35.8,-0.122,-0.0285,-0.17,-0.063743225,0.8237586,9.6497436,97443.67371,-1069500.0,-200000.0,-378500.0,41.705,-0.02,-234.1524048,-272.2425232,21.0,-2.18218565,28.41040993,-55.17303085,0,0
46:35.9,-0.164,-0.025,-0.179,-0.08825985,0.8237586,9.65955025,97441.93726,-359000.0,-213000.0,-1006000.0,41.7,-0.02,-234.1524048,-272.2425232,21.0,-2.18218565,28.41040993,-55.17303085,0,0
46:35.9,-0.166,-0.01775,-0.19075,-0.129938113,0.789435325,9.529612138,97443.779,-422750.0,-211250.0,-983500.0,41.7,0.005,-234.1524048,-271.5197602,22.0,-2.18218565,28.41040993,-55.17303085,0,0
46:36.0,-0.168,-0.0105,-0.2025,-0.171616375,0.75511205,9.399674025,97445.62073,-486500.0,-209500.0,-961000.0,41.7,0.029999999,-234.1524048,-270.7969971,23.0,-2.18218565,28.41040993,-55.17303085,0,0
46:36.0,-0.17,-0.00325,-0.21425,-0.213294638,0.720788775,9.269735913,97447.46247,-550250.0,-207750.0,-938500.0,41.7,0.029999999,-234.1524048,-270.7969971,23.0,-2.18218565,28.41040993,-55.17303085,0,0
46:36.0,-0.172,0.004,-0.226,-0.2549729,0.6864655,9.1397978,97449.3042,-614000.0,-206000.0,-916000.0,41.7,0.099999994,-234.8590851,-269.3768616,25.0,-2.18218565,28.41040993,-55.17303085,0,0
46:36.1,-0.1685,0.01,-0.2355,-0.328522775,0.61781895,9.022118,97445.9961,-560500.0,-206000.0,-887000.0,41.7,0.099999994,-234.8590851,-269.3768616,25.0,-2.18218565,28.41040993,-55.17303085,0,0
46:36.1,-0.165,0.016,-0.245,-0.40207265,0.5491724,8.9044382,97442.68799,-507000.0,-206000.0,-858000.0,41.7,0.139999993,-234.8590851,-268.6751709,25.5,-2.18218565,28.41040993,-55.17303085,0,0
46:36.2,-0.1645,0.027,-0.2435,-0.573689025,0.652142225,8.77695175,97441.70227,-465500.0,-205000.0,-833000.0,41.695,0.179999992,-234.8590851,-267.9734802,26.0,-2.18218565,28.41040993,-55.17303085,0,0
46:36.2,-0.164,0.038,-0.242,-0.7453054,0.75511205,8.6494653,97440.71655,-424000.0,-204000.0,-808000.0,41.69,0.229999997,-241.5075302,-267.2803345,27.0,-2.18218565,28.41040993,-55.17303085,0,0
46:36.2,-0.17,0.04375,-0.242,-0.796790313,0.784532,8.615142025,97442.9184,-400500.0,-203250.0,-792250.0,41.69,0.280000001,-248.1559753,-266.5871887,28.0,-2.18218565,28.41040993,-55.17303085,0,0
46:36.3,-0.176,0.0495,-0.242,-0.848275225,0.81395195,8.58081875,97445.12024,-377000.0,-202500.0,-776500.0,41.69,0.280000001,-248.1559753,-266.5871887,28.0,-2.18218565,28.41040993,-55.17303085,0,0
46:36.3,-0.182,0.05525,-0.242,-0.899760138,0.8433719,8.546495475,97447.32208,-353500.0,-201750.0,-760750.0,41.69,0.339999989,-248.1559753,-265.9024811,29.0,-3.737514258,26.26812077,-52.42431069,0,0
46:36.4,-0.188,0.061,-0.242,-0.95124505,0.87279185,8.5121722,97449.52393,-330000.0,-201000.0,-745000.0,41.69,0.399999976,-248.1559753,-265.2177734,30.0,-5.292842865,24.1258316,-49.67559052,0,0
46:36.4,-0.261,0.062,-0.252,-0.79433865,0.5295591,8.4533323,97443.98804,-268000.0,-198000.0,-697000.0,41.68,0.399999976,-248.1559753,-265.2177734,30.0,-5.292842865,24.1258316,-49.67559052,0,0
46:36.4,-0.287666667,0.071666667,-0.247666667,-0.859716317,0.503408033,8.12971285,97444.07552,-241000.0,-195666.6667,-683000.0,41.68,0.539999962,-243.2518005,-263.8736267,32.0,-5.292842865,24.1258316,-49.67559052,0,0
46:36.5,-0.314333333,0.081333333,-0.243333333,-0.925093983,0.477256967,7.8060934,97444.16301,-214000.0,-193333.3333,-669000.0,41.68,0.539999962,-243.2518005,-263.8736267,32.0,-5.292842865,24.1258316,-49.67559052,0,0
46:36.5,-0.341,0.091,-0.239,-0.99047165,0.4511059,7.48247395,97444.25049,-187000.0,-191000.0,-655000.0,41.68,0.699999988,-243.2518005,-262.5379944,33.0,-5.292842865,24.1258316,-49.67559052,0,0
46:36.6,-0.2915,0.0975,-0.236,-1.12776475,0.544269075,7.693316925,97445.37659,-159000.0,-185000.0,-640000.0,41.68,0.699999988,-243.2518005,-262.5379944,33.0,-5.292842865,24.1258316,-49.67559052,0,0
46:36.6,-0.242,0.104,-0.233,-1.26505785,0.63743225,7.9041599,97446.50269,-131000.0,-179000.0,-625000.0,41.68,0.794999987,-245.7487106,-261.8870697,34.0,-6.078825951,22.84576177,-48.76267529,0,0
46:36.6,-0.233666667,0.109,-0.226666667,-1.22583125,0.503408033,7.63938035,97446.91773,-109333.3333,-176333.3333,-613666.6667,41.67666667,0.889999986,-248.2456207,-261.236145,35.0,-6.864809037,21.56569195,-47.84976006,0,0
46:36.7,-0.225333333,0.114,-0.220333333,-1.18660465,0.369383817,7.3746008,97447.33276,-87666.66667,-173666.6667,-602333.3333,41.67333333,0.990000009,-248.2456207,-260.5937195,36.0,-7.650792122,20.28562212,-46.93684483,0,0
46:36.7,-0.217,0.119,-0.214,-1.14737805,0.2353596,7.10982125,97447.7478,-66000.0,-171000.0,-591000.0,41.67,1.090000033,-248.2456207,-259.9512939,37.0,-8.436775208,19.00555229,-46.0239296,0,0
46:36.8,-0.2345,0.1235,-0.201,-1.279767825,0.24516625,7.252017675,97447.33887,-37000.0,-167500.0,-572500.0,41.67,1.214999973,-244.5248642,-259.3003693,37.5,-8.436775208,19.00555229,-46.0239296,0,0
46:36.8,-0.252,0.128,-0.188,-1.4121576,0.2549729,7.3942141,97446.92993,-8000.0,-164000.0,-554000.0,41.67,1.339999914,-240.8041077,-258.6494446,38.0,-8.436775208,19.00555229,-46.0239296,0,0
46:36.8,-0.234,0.135666667,-0.179333333,-1.44157755,0.143830867,7.341911967,97448.75692,5000.0,-160666.6667,-547666.6667,41.66666667,1.339999914,-240.8041077,-258.6494446,38.0,-8.436775208,19.00555229,-46.0239296,0,0
46:36.9,-0.216,0.143333333,-0.170666667,-1.4709975,0.032688833,7.289609833,97450.5839,18000.0,-157333.3333,-541333.3333,41.66333333,1.46999991,-240.8041077,-258.0196839,39.0,-8.436775208,19.00555229,-46.0239296,0,0
46:36.9,-0.198,0.151,-0.162,-1.50041745,-0.0784532,7.2373077,97452.41089,31000.0,-154000.0,-535000.0,41.66,1.599999905,-240.8041077,-257.3899231,40.0,-8.436775208,19.00555229,-46.0239296,0,0
46:37.0,-0.1795,0.1405,-0.154,-1.52003075,0.2549729,6.938204875,97453.70179,49000.0,-150000.0,-524000.0,41.66,1.599999905,-240.8041077,-257.3899231,40.0,-8.436775208,19.00555229,-46.0239296,0,0
46:37.0,-0.161,0.13,-0.146,-1.53964405,0.588399,6.63910205,97454.99268,67000.0,-146000.0,-513000.0,41.66,1.599999905,-240.8041077,-257.3899231,40.0,-8.436775208,19.00555229,-46.0239296,0,0
46:37.0,-0.162333333,0.138,-0.131333333,-1.55925735,0.241897367,6.743706317,97455.65796,77666.66667,-144000.0,-507666.6667,41.65666667,1.749999941,-233.1410447,-256.7517243,41.0,-10.61004639,16.42050839,-44.34200669,0,0
46:37.1,-0.163666667,0.146,-0.116666667,-1.57887065,-0.104604267,6.848310583,97456.32325,88333.33333,-142000.0,-502333.3333,41.65333333,1.899999976,-225.4779816,-256.1135254,42.0,-12.78331757,13.83546448,-42.66008377,0,0
46:37.1,-0.165,0.154,-0.102,-1.59848395,-0.4511059,6.95291485,97456.98853,99000.0,-140000.0,-497000.0,41.65,2.220000029,-225.4779816,-254.8622589,43.0,-12.78331757,13.83546448,-42.66008377,0,0
46:37.2,-0.176333333,0.150666667,-0.081666667,-1.6671305,-0.20593965,6.81562175,97457.97119,107666.6667,-138333.3333,-492666.6667,41.65,2.399999977,-228.7682572,-254.2494126,44.0,-12.78331757,13.83546448,-42.66008377,0,0
46:37.2,-0.187666667,0.147333333,-0.061333333,-1.73577705,0.0392266,6.67832865,97458.95386,116333.3333,-136666.6667,-488333.3333,41.65,2.579999924,-232.0585327,-253.6365662,45.0,-12.78331757,13.83546448,-42.66008377,0,0
46:37.2,-0.199,0.144,-0.041,-1.8044236,0.28439285,6.54103555,97459.93652,125000.0,-135000.0,-484000.0,41.65,2.579999924,-232.0585327,-253.6365662,45.0,-12.78331757,13.83546448,-42.66008377,0,0
46:37.3,-0.1795,0.143,-0.036,-1.8436502,0.5295591,6.4920023,97462.07275,132000.0,-131000.0,-480000.0,41.645,2.579999924,-232.0585327,-253.6365662,45.0,-12.78331757,13.83546448,-42.66008377,0,0
46:37.3,-0.16,0.142,-0.031,-1.8828768,0.77472535,6.44296905,97464.20898,139000.0,-127000.0,-476000.0,41.64,2.579999924,-232.0585327,-253.6365662,45.0,-12.78331757,13.83546448,-42.66008377,0,0
46:37.4,-0.14,0.138,-0.03,-1.868166825,0.769822025,6.114446275,97465.75927,145500.0,-124500.0,-472500.0,41.64,2.960000038,-232.0585327,-252.3939362,47.0,-12.78331757,13.83546448,-42.66008377,0,0
46:37.4,-0.12,0.134,-0.029,-1.85345685,0.7649187,5.7859235,97467.30957,152000.0,-122000.0,-469000.0,41.64,3.379999876,-220.5501556,-251.1681824,48.0,-15.72579861,10.68664265,-41.94359589,0,0
46:37.4,-0.135333333,0.133666667,-0.032666667,-1.866532383,0.438030367,6.204340567,97468.4611,156333.3333,-120666.6667,-467000.0,41.64,3.379999876,-220.5501556,-251.1681824,48.0,-15.72579861,10.68664265,-41.94359589,0,0
46:37.5,-0.150666667,0.133333333,-0.036333333,-1.879607917,0.111142033,6.622757633,97469.61263,160666.6667,-119333.3333,-465000.0,41.64,3.379999876,-220.5501556,-251.1681824,48.0,-15.72579861,10.68664265,-41.94359589,0,0
46:37.5,-0.166,0.133,-0.04,-1.89268345,-0.2157463,7.0411747,97470.76416,165000.0,-118000.0,-463000.0,41.64,3.829999924,-220.5501556,-249.9593811,50.0,-15.72579861,10.68664265,-41.94359589,0,0
46:37.6,-0.2355,0.1385,-0.0305,-1.8632635,-0.20593965,7.42363405,97473.58704,169000.0,-115000.0,-460500.0,41.635,3.829999924,-220.5501556,-249.9593811,50.0,-15.72579861,10.68664265,-41.94359589,0,0
46:37.6,-0.305,0.144,-0.021,-1.83384355,-0.196133,7.8060934,97476.40991,173000.0,-112000.0,-458000.0,41.63,3.829999924,-220.5501556,-249.9593811,50.0,-15.72579861,10.68664265,-41.94359589,0,0
46:37.6,-0.291666667,0.139,-0.015666667,-1.8436502,0.192864117,7.93357985,97478.53393,175000.0,-109000.0,-457666.6667,41.63,4.309999943,-214.7727966,-248.7505493,52.0,-15.72579861,10.68664265,-41.94359589,0,0
46:37.7,-0.278333333,0.134,-0.010333333,-1.85345685,0.581861233,8.0610663,97480.65796,177000.0,-106000.0,-457333.3333,41.63,4.554999829,-214.7727966,-248.141922,52.5,-15.72579861,10.68664265,-41.94359589,0,0
46:37.7,-0.265,0.129,-0.005,-1.8632635,0.97085835,8.18855275,97482.78198,179000.0,-103000.0,-457000.0,41.63,4.799999714,-214.7727966,-247.5332947,53.0,-15.72579861,10.68664265,-41.94359589,0,0
46:37.8,-0.244,0.149,-0.0165,-1.976039975,0.485429175,7.614863725,97485.8429,185000.0,-99000.0,-454000.0,41.63,4.799999714,-214.7727966,-247.5332947,53.0,-17.3113246,8.28744364,-41.86539078,0,0
46:37.8,-0.223,0.169,-0.028,-2.08881645,8.62e-16,7.0411747,97488.90381,191000.0,-95000.0,-451000.0,41.63,4.799999714,-214.7727966,-247.5332947,53.0,-18.89685059,5.888244629,-41.78718567,0,0
46:37.8,-0.219,0.161666667,-0.034666667,-2.043052083,0.24516625,6.65871535,97490.32796,193333.3333,-92333.33333,-449333.3333,41.62666667,5.309999943,-288.1774902,-246.3158875,55.0,-18.89685059,5.888244629,-41.78718567,0,0
46:37.9,-0.215,0.154333333,-0.041333333,-1.997287717,0.4903325,6.276256,97491.75212,195666.6667,-89666.66667,-447666.6667,41.62333333,5.309999943,-288.1774902,-246.3158875,55.0,-18.89685059,5.888244629,-41.78718567,0,0
46:37.9,-0.211,0.147,-0.048,-1.95152335,0.73549875,5.89379665,97493.17627,198000.0,-87000.0,-446000.0,41.62,5.579999924,-288.1774902,-245.7114869,56.0,-18.89685059,5.888244629,-41.78718567,0,0
46:38.0,-0.2095,0.1215,-0.059,-2.01036325,0.367749375,6.7273619,97496.49658,201000.0,-82500.0,-445500.0,41.62,5.849999905,-288.1774902,-245.1070862,57.0,-18.89685059,5.888244629,-41.78718567,0,0
46:38.0,-0.208,0.096,-0.07,-2.06920315,9.26e-16,7.56092715,97499.81689,204000.0,-78000.0,-445000.0,41.62,5.849999905,-288.1774902,-245.1070862,57.0,-18.89685059,5.888244629,-41.78718567,0,0
46:38.0,-0.20475,0.089,-0.06625,-2.064299825,0.061291563,7.651638663,97501.75934,204750.0,-76500.0,-445250.0,41.62,6.399999619,-299.3594971,-243.9067535,58.0,-18.89685059,5.888244629,-41.78718567,0,0
46:38.1,-0.2015,0.082,-0.0625,-2.0593965,0.122583125,7.742350175,97503.70178,205500.0,-75000.0,-445500.0,41.62,6.694999695,-299.3594971,-243.2896347,59.0,-18.89685059,5.888244629,-41.78718567,0,0
46:38.1,-0.19825,0.075,-0.05875,-2.054493175,0.183874688,7.833061688,97505.64423,206250.0,-73500.0,-445750.0,41.62,6.989999771,-299.3594971,-242.6725159,60.0,-18.89685059,5.888244629,-41.78718567,0,0
46:38.2,-0.195,0.068,-0.055,-2.04958985,0.24516625,7.9237732,97507.58667,207000.0,-72000.0,-446000.0,41.62,6.989999771,-299.3594971,-242.6725159,60.0,-21.66061211,1.251852632,-40.74476242,0,0
46:38.2,-0.166,0.098,-0.058,-2.1182364,0.04903325,7.7668668,97514.09302,210000.0,-63000.0,-441000.0,41.61,7.294999838,-299.5499573,-242.0554429,61.0,-21.66061211,1.251852632,-40.74476242,0,0
46:38.2,-0.128,0.082333333,-0.058333333,-2.131311933,0.052302133,7.799555633,97517.0044,210666.6667,-61333.33333,-442666.6667,41.61,7.599999905,-299.7404175,-241.4383698,62.0,-21.66061211,1.251852632,-40.74476242,0,0
46:38.3,-0.09,0.066666667,-0.058666667,-2.144387467,0.055571017,7.832244467,97519.91577,211333.3333,-59666.66667,-444333.3333,41.61,7.599999905,-299.7404175,-241.4383698,62.0,-21.66061211,1.251852632,-40.74476242,0,0
46:38.3,-0.052,0.051,-0.059,-2.157463,0.0588399,7.8649333,97522.82715,212000.0,-58000.0,-446000.0,41.61,8.229999542,-299.7404175,-240.2210083,63.0,-21.66061211,1.251852632,-40.74476242,0,0
46:38.4,-0.030333333,0.044666667,-0.049333333,-2.157463,0.045764367,7.95319315,97526.08236,213000.0,-55666.66667,-444333.3333,41.61,8.229999542,-299.7404175,-240.2210083,63.0,-21.66061211,1.251852632,-40.74476242,0,0
46:38.4,-0.008666667,0.038333333,-0.039666667,-2.157463,0.032688833,8.041453,97529.33756,214000.0,-53333.33333,-442666.6667,41.61,8.88999939,-316.3942261,-238.9699402,65.0,-21.66061211,1.251852632,-40.74476242,0,0
46:38.4,0.013,0.032,-0.03,-2.157463,0.0196133,8.12971285,97532.59277,215000.0,-51000.0,-441000.0,41.61,8.88999939,-316.3942261,-238.9699402,65.0,-21.66061211,1.251852632,-40.74476242,0,0
46:38.5,0.004,0.055,-0.0245,-2.16726965,0.004903325,7.79628675,97535.54382,217500.0,-50500.0,-439500.0,41.605,8.88999939,-316.3942261,-238.9699402,65.0,-21.66061211,1.251852632,-40.74476242,0,0
46:38.5,-0.005,0.078,-0.019,-2.1770763,-0.00980665,7.46286065,97538.49487,220000.0,-50000.0,-438000.0,41.6,9.559999466,-316.3942261,-237.7187805,67.0,-21.66061211,1.251852632,-40.74476242,0,0
46:38.6,0.051,0.0615,0.0045,-2.2163029,-0.1569064,7.820803375,97542.71546,219500.0,-51500.0,-438500.0,41.6,9.559999466,-316.3942261,-237.7187805,67.0,-21.66061211,1.251852632,-40.74476242,0,0
46:38.6,0.107,0.045,0.028,-2.2555295,-0.30400615,8.1787461,97546.93604,219000.0,-53000.0,-439000.0,41.6,9.559999466,-316.3942261,-237.7187805,67.0,-23.38151932,0.02098757,-39.71207047,0,0
46:38.6,0.096333333,0.029,0.038,-2.258798383,-0.199401883,8.371610217,97549.94914,216666.6667,-54666.66667,-441000.0,41.59666667,9.914999483,-320.0263062,-237.0890274,67.5,-23.38151932,0.02098757,-39.71207047,0,0
46:38.7,0.085666667,0.013,0.048,-2.262067267,-0.094797617,8.564474333,97552.96224,214333.3333,-56333.33333,-443000.0,41.59333333,10.2699995,-323.6583862,-236.4592743,68.0,-23.38151932,0.02098757,-39.71207047,0,0
46:38.7,0.075,-0.003,0.058,-2.26533615,0.00980665,8.75733845,97555.97534,212000.0,-58000.0,-445000.0,41.59,10.98999977,-323.6583862,-235.1997223,70.0,-23.38151932,0.02098757,-39.71207047,0,0
46:38.8,0.0635,-0.0055,0.0595,-2.2359162,0.196133,8.63965865,97558.78601,209500.0,-60000.0,-445000.0,41.59,10.98999977,-323.6583862,-235.1997223,70.0,-23.38151932,0.02098757,-39.71207047,0,0
46:38.8,0.052,-0.008,0.061,-2.20649625,0.38245935,8.52197885,97561.59668,207000.0,-62000.0,-445000.0,41.59,11.72999954,-344.1240234,-233.9317627,72.0,-23.38151932,0.02098757,-39.71207047,0,0
46:38.8,0.036,-0.019333333,0.059666667,-2.24572285,0.209208533,8.77695175,97565.12044,202000.0,-63666.66667,-449333.3333,41.59,11.72999954,-344.1240234,-233.9317627,72.0,-23.38151932,0.02098757,-39.71207047,0,0
46:38.9,0.02,-0.030666667,0.058333333,-2.28494945,0.035957717,9.03192465,97568.64421,197000.0,-65333.33333,-453666.6667,41.59,12.10499954,-344.1240234,-233.293541,73.0,-23.38151932,0.02098757,-39.71207047,0,0
46:38.9,0.004,-0.042,0.057,-2.32417605,-0.1372931,9.28689755,97572.16797,192000.0,-67000.0,-458000.0,41.59,12.47999954,-344.1240234,-232.6553192,74.0,-23.38151932,0.02098757,-39.71207047,0,0
46:39.0,-0.009,-0.049666667,0.054333333,-2.311100517,0.1176798,9.205175467,97575.15462,175333.3333,-66000.0,-468333.3333,41.59,12.47999954,-344.1240234,-232.6553192,74.0,-23.38151932,0.02098757,-39.71207047,0,0
46:39.0,-0.022,-0.057333333,0.051666667,-2.298024983,0.3726527,9.123453383,97578.14128,158666.6667,-65000.0,-478666.6667,41.59,12.47999954,-344.1240234,-232.6553192,74.0,-23.38151932,0.02098757,-39.71207047,0,0
46:39.0,-0.035,-0.065,0.049,-2.28494945,0.6276256,9.0417313,97581.12793,142000.0,-64000.0,-489000.0,41.59,12.86499977,-353.068634,-232.0043869,74.5,-23.254179,1.202178389,-40.52861405,0,0
46:39.1,-0.055,-0.103,0.043,-2.260432825,0.995374975,9.478127225,97587.94251,109500.0,-62500.0,-516000.0,41.585,13.25,-362.0132446,-231.3534546,75.0,-23.12683868,2.383369207,-41.34515762,0,0
46:39.1,-0.075,-0.141,0.037,-2.2359162,1.36312435,9.91452315,97594.75708,77000.0,-61000.0,-543000.0,41.58,14.00999928,-362.0132446,-230.0685883,77.0,-23.12683868,2.383369207,-41.34515762,0,0
46:39.2,-0.0875,-0.1605,0.005,-2.123139725,1.044408225,10.77750835,97599.646,29000.0,-57000.0,-577000.0,41.58,14.00999928,-362.0132446,-230.0685883,77.0,-23.12683868,2.383369207,-41.34515762,0,0
46:39.2,-0.1,-0.18,-0.027,-2.01036325,0.7256921,11.64049355,97604.53491,-19000.0,-53000.0,-611000.0,41.58,14.38999939,-373.4917602,-229.4091568,78.0,-23.12683868,2.383369207,-41.34515762,0,0
46:39.2,-0.121666667,-0.183333333,-0.035,-1.99074995,0.7649187,11.92815528,97605.63354,-57333.33333,-49333.33333,-638000.0,41.58,14.7699995,-384.9702759,-228.7497253,79.0,-23.12683868,2.383369207,-41.34515762,0,0
46:39.3,-0.143333333,-0.186666667,-0.043,-1.97113665,0.8041453,12.21581702,97606.73218,-95666.66667,-45666.66667,-665000.0,41.58,14.9574995,-384.9702759,-228.4221687,79.5,-23.12683868,2.383369207,-41.34515762,0,0
46:39.3,-0.165,-0.19,-0.051,-1.95152335,0.8433719,12.50347875,97607.83081,-134000.0,-42000.0,-692000.0,41.58,15.1449995,-384.9702759,-228.0946121,80.0,-23.12683868,2.383369207,-41.34515762,0,0
46:39.4,-0.121,-0.2015,-0.0575,-1.8240369,0.603108975,12.8859381,97614.61487,-185500.0,-35000.0,-729500.0,41.575,15.5199995,-384.9702759,-227.4394989,81.0,-20.48263168,0.650043964,-41.09395218,0,0
46:39.4,-0.077,-0.213,-0.064,-1.69655045,0.36284605,13.26839745,97621.39893,-237000.0,-28000.0,-767000.0,41.57,15.5199995,-384.9702759,-227.4394989,81.0,-20.48263168,0.650043964,-41.09395218,0,0
46:39.4,-0.058,-0.223666667,-0.066666667,-1.693281567,0.356308283,13.49721928,97624.91455,-281666.6667,-23000.0,-801333.3333,41.57,15.75999959,-394.1922404,-226.9914754,81.66666667,-20.48263168,0.650043964,-41.09395218,0,0
46:39.5,-0.039,-0.234333333,-0.069333333,-1.690012683,0.349770517,13.72604112,97628.43018,-326333.3333,-18000.0,-835666.6667,41.57,15.99999968,-403.4142049,-226.543452,82.33333333,-20.48263168,0.650043964,-41.09395218,0,0
46:39.5,-0.02,-0.245,-0.072,-1.6867438,0.34323275,13.95486295,97631.9458,-371000.0,-13000.0,-870000.0,41.57,16.23999977,-412.6361694,-226.0954285,83.0,-20.48263168,0.650043964,-41.09395218,0,0
46:39.6,0.0,-0.261,-0.0625,-1.46119085,0.26477955,14.48442205,97636.05347,-472000.0,-4500.0,-943500.0,41.57,16.94000053,-412.6361694,-224.7260437,85.0,-20.48263168,0.650043964,-41.09395218,0,0
46:39.6,0.02,-0.277,-0.053,-1.2356379,0.18632635,15.01398115,97640.16113,-573000.0,4000.0,-1017000.0,41.57,16.94000053,-412.6361694,-224.7260437,85.0,-20.48263168,0.650043964,-41.09395218,0,0
46:39.6,0.045,-0.285,-0.037,-1.14737805,0.201036325,15.2787607,97646.50269,-379500.0,5500.0,-1307500.0,41.57,17.26000023,-436.9941712,-224.0371093,86.0,-20.48263168,0.650043964,-41.09395218,0,0
46:39.7,0.07,-0.293,-0.021,-1.0591182,0.2157463,15.54354025,97652.84424,-186000.0,7000.0,-1598000.0,41.57,17.57999992,-461.3521729,-223.348175,87.0,-20.48263168,0.650043964,-41.09395218,0,0
46:39.7,0.067,-0.299,-0.004666667,-0.9610517,0.196133,15.85408417,97654.80754,-845666.6667,19000.0,-1028333.333,41.56666667,17.88999939,-461.3521729,-222.6380691,87.5,-17.59641552,0.617404729,-40.48609543,0,0
46:39.8,0.064,-0.305,0.011666667,-0.8629852,0.1765197,16.16462808,97656.77083,-1505333.333,31000.0,-458666.6667,41.56333333,18.19999886,-461.3521729,-221.9279633,88.0,-14.71019936,0.584765494,-39.87823868,0,0
46:39.8,0.061,-0.311,0.028,-0.7649187,0.1569064,16.475172,97658.73413,-2165000.0,43000.0,111000.0,41.56,18.19999886,-461.3521729,-221.9279633,88.0,-14.71019936,0.584765494,-39.87823868,0,0
46:39.8,0.034666667,-0.318333333,0.036333333,-0.693003267,0.173250817,16.77590927,97662.93945,-2327000.0,47000.0,785666.6667,41.56,18.46999932,-485.9298707,-221.2094498,89.0,-14.71019936,0.584765494,-39.87823868,0,0
46:39.9,0.008333333,-0.325666667,0.044666667,-0.621087833,0.189595233,17.07664653,97667.14478,-2489000.0,51000.0,1460333.333,41.56,18.73999977,-510.5075684,-220.4909363,90.0,-14.71019936,0.584765494,-39.87823868,0,0
46:39.9,-0.018,-0.333,0.053,-0.5491724,0.20593965,17.3773838,97671.3501,-2651000.0,55000.0,2135000.0,41.56,18.90333303,-510.5075684,-220.0175171,90.66666667,-14.71019936,0.584765494,-39.87823868,0,0
46:40.0,-0.015666667,-0.337333333,0.064333333,-0.496870267,0.24516625,17.59966787,97671.95435,-2661333.333,54000.0,1587000.0,41.55666667,19.06666628,-510.5075684,-219.5440979,91.33333333,-14.71019936,0.584765494,-39.87823868,0,0
46:40.0,-0.013333333,-0.341666667,0.075666667,-0.444568133,0.28439285,17.82195193,97672.55859,-2671666.667,53000.0,1039000.0,41.55333333,19.22999954,-510.5075684,-219.0706787,92.0,-14.71019936,0.584765494,-39.87823868,0,0
46:40.0,-0.011,-0.346,0.087,-0.392266,0.32361945,18.044236,97673.16284,-2682000.0,52000.0,491000.0,41.55,19.43499947,-540.1319581,-218.3394928,93.0,-14.71019936,0.584765494,-39.87823868,0,0
46:40.1,-0.05,-0.344,0.0825,-0.357942725,0.524655775,18.04913933,97679.94995,-2661500.0,55500.0,1587000.0,41.55,19.63999939,-569.7563477,-217.6083069,94.0,-14.71019936,0.584765494,-39.87823868,0,0
46:40.1,-0.089,-0.342,0.078,-0.32361945,0.7256921,18.05404265,97686.73706,-2641000.0,59000.0,2683000.0,41.55,19.98999977,-569.7563477,-216.1289978,96.0,-14.71019936,0.584765494,-39.87823868,0,0
46:40.2,-0.089,-0.341,0.0635,-0.2745862,0.7453054,17.86281298,97687.39014,-2641000.0,59500.0,2683000.0,41.55,19.98999977,-569.7563477,-216.1289978,96.0,-7.758097649,1.079918742,-41.14395142,0,0
46:40.2,-0.089,-0.34,0.049,-0.22555295,0.7649187,17.6715833,97688.04321,-2641000.0,60000.0,2683000.0,41.55,20.25,-618.8154297,-214.6157532,99.0,-7.758097649,1.079918742,-41.14395142,0,0
46:40.2,-0.098,-0.335,0.033,-0.08825985,0.701175475,17.75493983,97689.14185,-2641000.0,58000.0,2683000.0,41.55,20.25,-618.8154297,-214.6157532,99.0,-7.758097649,1.079918742,-41.14395142,0,0
46:40.3,-0.107,-0.33,0.017,0.04903325,0.63743225,17.83829635,97690.24048,-2641000.0,56000.0,2683000.0,41.55,20.25,-618.8154297,-214.6157532,99.0,-7.758097649,1.079918742,-41.14395142,0,0
46:40.3,-0.125,-0.318333333,0.011333333,0.042495483,0.702809917,17.60293675,97694.19149,-2641000.0,62333.33333,2683000.0,41.54666667,20.34999943,-618.8154297,-213.8676529,100.0,-7.758097649,1.079918742,-41.14395142,0,0
46:40.4,-0.143,-0.306666667,0.005666667,0.035957717,0.768187583,17.36757715,97698.1425,-2641000.0,68666.66667,2683000.0,41.54333333,20.44999886,-618.8154297,-213.1195526,101.0,-7.758097649,1.079918742,-41.14395142,0,0
46:40.4,-0.161,-0.295,3.61e-17,0.02941995,0.83356525,17.13221755,97702.09351,-2641000.0,75000.0,2683000.0,41.54,20.44999886,-618.8154297,-213.1195526,101.0,-7.758097649,1.079918742,-41.14395142,0,0
46:40.4,-0.12525,-0.289,-0.0055,0.090711513,0.742853738,16.92137458,97699.63837,-2641000.0,73500.0,2683000.0,41.54,20.56999969,-654.6156006,-211.6063538,103.0,-7.758097649,1.079918742,-41.14395142,0,0
46:40.5,-0.0895,-0.283,-0.011,0.152003075,0.652142225,16.7105316,97697.18323,-2641000.0,72000.0,2683000.0,41.54,20.56999969,-654.6156006,-211.6063538,103.0,-7.758097649,1.079918742,-41.14395142,0,0
46:40.5,-0.05375,-0.277,-0.0165,0.213294638,0.561430713,16.49968862,97694.72809,-2641000.0,70500.0,2683000.0,41.54,20.5866661,-654.6156006,-211.0907135,103.6666667,-7.758097649,1.079918742,-41.14395142,0,0
46:40.6,-0.018,-0.271,-0.022,0.2745862,0.4707192,16.28884565,97692.27295,-2641000.0,69000.0,2683000.0,41.54,20.60333252,-654.6156006,-210.5750733,104.3333333,-7.758097649,1.079918742,-41.14395142,0,0
46:40.6,-0.0065,-0.2645,-0.019,0.32361945,0.377556025,16.44575205,97693.80798,-2641500.0,90000.0,2683000.0,41.54,20.61999893,-654.6156006,-210.059433,105.0,-7.758097649,1.079918742,-41.14395142,0,0
46:40.6,0.005,-0.258,-0.016,0.3726527,0.28439285,16.60265845,97695.34302,-2642000.0,111000.0,2683000.0,41.54,20.60999966,-660.4492188,-209.2986603,106.0,-7.758097649,1.079918742,-41.14395142,0,0
46:40.7,0.006,-0.2425,-0.0105,0.2745862,0.367749375,16.48497865,97696.89331,-2641500.0,101000.0,2683000.0,41.535,20.60000038,-666.2828369,-208.5378876,107.0,-7.758097649,1.079918742,-41.14395142,0,0
46:40.7,0.007,-0.227,-0.005,0.1765197,0.4511059,16.36729885,97698.4436,-2641000.0,91000.0,2683000.0,41.53,20.60000038,-666.2828369,-208.5378876,107.0,1.332451344,-1.150201082,-41.65542603,0,0
46:40.8,0.004,-0.21,-0.0015,0.18632635,0.456009225,15.70534998,97697.75085,-2641000.0,87000.0,2683000.0,41.53,20.53999901,-666.2828369,-206.9740448,109.0,1.332451344,-1.150201082,-41.65542603,0,0
46:40.8,0.001,-0.193,0.002,0.196133,0.46091255,15.0434011,97697.05811,-2641000.0,83000.0,2683000.0,41.53,20.4649992,-672.5696411,-206.2090302,110.0,1.332451344,-1.150201082,-41.65542603,0,0
46:40.8,0.059,-0.1845,0.0035,0.289296175,0.2745862,14.46971208,97696.37146,-2641500.0,92000.0,2683000.0,41.53,20.38999939,-678.8564453,-205.4440155,111.0,1.332451344,-1.150201082,-41.65542603,0,0
46:40.9,0.117,-0.176,0.005,0.38245935,0.08825985,13.89602305,97695.68481,-2642000.0,101000.0,2683000.0,41.53,20.38999939,-678.8564453,-205.4440155,111.0,1.332451344,-1.150201082,-41.65542603,0,0
46:40.9,0.1335,-0.16975,0.01475,0.3530394,0.14709975,13.71950335,97694.44275,-2641750.0,93500.0,2683000.0,41.5275,20.21999931,-678.8564453,-203.8969574,113.0,1.332451344,-1.150201082,-41.65542603,0,0
46:41.0,0.15,-0.1635,0.0245,0.32361945,0.20593965,13.54298365,97693.20068,-2641500.0,86000.0,2683000.0,41.525,20.21999931,-678.8564453,-203.8969574,113.0,1.332451344,-1.150201082,-41.65542603,0,0
46:41.0,0.1665,-0.15725,0.03425,0.2941995,0.26477955,13.36646395,97691.95862,-2641250.0,78500.0,2683000.0,41.5225,20.10499954,-671.7646485,-203.1277313,114.0,3.035401106,-0.579763639,-41.74042511,0,0
46:41.0,0.183,-0.151,0.044,0.26477955,0.32361945,13.18994425,97690.71655,-2641000.0,71000.0,2683000.0,41.52,19.98999977,-664.6728516,-202.3585052,115.0,4.738350868,-0.009326196,-41.82542419,0,0
46:41.1,0.174333333,-0.145333333,0.043333333,0.271317317,0.320350567,13.2585908,97690.64941,-2641000.0,71000.0,2683000.0,41.52,19.98999977,-664.6728516,-202.3585052,115.0,4.738350868,-0.009326196,-41.82542419,0,0
46:41.1,0.165666667,-0.139666667,0.042666667,0.277855083,0.317081683,13.32723735,97690.58228,-2641000.0,71000.0,2683000.0,41.52,19.86499977,-664.6728516,-201.5892715,116.0,4.738350868,-0.009326196,-41.82542419,0,0
46:41.2,0.157,-0.134,0.042,0.28439285,0.3138128,13.3958839,97690.51514,-2641000.0,71000.0,2683000.0,41.52,19.73999977,-664.6728516,-200.8200378,117.0,4.738350868,-0.009326196,-41.82542419,0,0
46:41.2,0.1395,-0.1295,0.0405,0.2157463,0.38245935,13.17033095,97690.75012,-2641000.0,71000.0,2683000.0,41.52,19.73999977,-664.6728516,-200.8200378,117.0,4.738350868,-0.009326196,-41.82542419,0,0
46:41.2,0.122,-0.125,0.039,0.14709975,0.4511059,12.944778,97690.98511,-2641000.0,71000.0,2683000.0,41.52,19.45999908,-642.7562866,-199.2984314,119.0,4.738350868,-0.009326196,-41.82542419,0,0
46:41.3,0.098,-0.103,0.022,0.06864655,0.50013915,12.79767825,97674.35913,-2641000.0,46000.0,2683000.0,41.51,19.45999908,-642.7562866,-199.2984314,119.0,4.738350868,-0.009326196,-41.82542419,0,0
46:41.3,0.088666667,-0.095333333,0.015666667,0.1176798,0.467450317,12.56885642,97676.72119,-2641000.0,46000.0,2683000.0,41.51,19.30999946,-642.7562866,-198.5587845,120.0,4.738350868,-0.009326196,-41.82542419,0,0
46:41.4,0.079333333,-0.087666667,0.009333333,0.16671305,0.434761483,12.34003458,97679.08325,-2641000.0,46000.0,2683000.0,41.51,19.15999985,-642.7562866,-197.8191376,121.0,4.738350868,-0.009326196,-41.82542419,0,0
46:41.4,0.07,-0.08,0.003,0.2157463,0.40207265,12.11121275,97681.44531,-2641000.0,46000.0,2683000.0,41.51,19.15999985,-642.7562866,-197.8191376,121.0,4.738350868,-0.009326196,-41.82542419,0,0
46:41.4,0.0905,-0.07275,-0.0035,0.139744763,0.443750913,11.84888486,97679.17328,-2641000.0,45000.0,2683000.0,41.51,19.0,-628.1974793,-197.0794373,122.0,6.39042759,1.802461755,-42.24457359,0,0
46:41.5,0.111,-0.0655,-0.01,0.063743225,0.485429175,11.58655698,97676.90125,-2641000.0,44000.0,2683000.0,41.51,18.84000015,-613.6386719,-196.3397369,123.0,8.042504311,3.614249706,-42.66372299,0,0
46:41.5,0.1315,-0.05825,-0.0165,-0.012258312,0.527107438,11.32422909,97674.62921,-2641000.0,43000.0,2683000.0,41.51,18.51000023,-613.6386719,-194.8858032,125.0,8.042504311,3.614249706,-42.66372299,0,0
46:41.6,0.152,-0.051,-0.023,-0.08825985,0.5687857,11.0619012,97672.35718,-2641000.0,42000.0,2683000.0,41.51,18.51000023,-613.6386719,-194.8858032,125.0,8.042504311,3.614249706,-42.66372299,0,0
46:41.6,0.083,-0.039,-0.033,-0.1372931,0.5099458,10.34601575,97664.03809,-2679000.0,32000.0,628000.0,41.5,18.51000023,-613.6386719,-194.8858032,125.0,8.042504311,3.614249706,-42.66372299,0,0
46:41.6,0.08,-0.034333333,-0.037,-0.120948683,0.415148183,10.31986468,97662.16227,-2676666.667,30000.0,765000.0,41.5,18.32999993,-602.342987,-194.1546173,126.0,8.042504311,3.614249706,-42.66372299,0,0
46:41.7,0.077,-0.029666667,-0.041,-0.104604267,0.320350567,10.29371362,97660.28646,-2674333.333,28000.0,902000.0,41.5,18.14999962,-591.0473022,-193.4234314,127.0,8.042504311,3.614249706,-42.66372299,0,0
46:41.7,0.074,-0.025,-0.045,-0.08825985,0.22555295,10.26756255,97658.41064,-2672000.0,26000.0,1039000.0,41.5,17.80999947,-591.0473022,-192.0032196,129.0,8.042504311,3.614249706,-42.66372299,0,0
46:41.8,0.0775,-0.0205,-0.045,-0.102969825,0.220649625,10.12536613,97657.94372,-2397500.0,19000.0,1666500.0,41.495,17.80999947,-591.0473022,-192.0032196,129.0,8.042504311,3.614249706,-42.66372299,0,0
46:41.8,0.081,-0.016,-0.045,-0.1176798,0.2157463,9.9831697,97657.47681,-2123000.0,12000.0,2294000.0,41.49,17.80999947,-591.0473022,-192.0032196,129.0,8.042504311,3.614249706,-42.66372299,0,0
46:41.8,0.08,-0.007,-0.037,-0.142196425,0.338329425,9.870393225,97655.67933,-2392000.0,10500.0,1940500.0,41.49,17.45999908,-548.9456177,-190.5915527,131.0,8.936202049,6.410766602,-41.89057159,0,0
46:41.9,0.079,0.002,-0.029,-0.16671305,0.46091255,9.75761675,97653.88184,-2661000.0,9000.0,1587000.0,41.49,17.28499889,-548.9456177,-189.8899231,132.0,8.936202049,6.410766602,-41.89057159,0,0
46:41.9,0.075,0.008666667,-0.03,-0.1569064,0.408610417,9.6301303,97648.0306,-2488666.667,6333.333333,1456333.333,41.49,17.1099987,-548.9456177,-189.1882935,133.0,8.936202049,6.410766602,-41.89057159,0,0
46:42.0,0.071,0.015333333,-0.031,-0.14709975,0.356308283,9.50264385,97642.17937,-2316333.333,3666.666667,1325666.667,41.49,17.1099987,-548.9456177,-189.1882935,133.0,8.936202049,6.410766602,-41.89057159,0,0
46:42.0,0.067,0.022,-0.032,-0.1372931,0.30400615,9.3751574,97636.32813,-2144000.0,1000.0,1195000.0,41.49,17.1099987,-548.9456177,-189.1882935,133.0,8.936202049,6.410766602,-41.89057159,0,0
46:42.0,0.06,0.030666667,-0.034,-0.134024217,0.3726527,9.123453383,97637.55493,-2322333.333,666.6666667,1012000.0,41.49,16.77000046,-521.3052979,-187.8188934,134.0,8.936202049,6.410766602,-41.89057159,0,0
46:42.1,0.053,0.039333333,-0.036,-0.130755333,0.44129925,8.871749367,97638.78174,-2500666.667,333.3333333,829000.0,41.49,16.77000046,-521.3052979,-187.8188934,134.0,8.936202049,6.410766602,-41.89057159,0,0
46:42.1,0.046,0.048,-0.038,-0.12748645,0.5099458,8.62004535,97640.00854,-2679000.0,7.91e-11,646000.0,41.49,16.6050005,-521.3052979,-187.1425934,135.0,8.936202049,6.410766602,-41.89057159,0,0
46:42.2,0.030666667,0.047,-0.044333333,-0.1372931,0.523021333,8.574280983,97637.70548,-2684333.333,4.3e-11,351333.3333,41.48666667,16.44000053,-521.3052979,-186.4662933,136.0,8.936202049,6.410766602,-41.89057159,0,0
46:42.2,0.015333333,0.046,-0.050666667,-0.14709975,0.536096867,8.528516617,97635.40243,-2689666.667,6.97e-12,56666.66667,41.48333333,16.11999893,-480.848877,-185.1476135,138.0,8.936202049,6.410766602,-41.89057159,0,0
46:42.2,0.0,0.045,-0.057,-0.1569064,0.5491724,8.48275225,97633.09937,-2695000.0,-2.91e-11,-238000.0,41.48,16.11999893,-480.848877,-185.1476135,138.0,8.186751366,8.248663902,-41.15026855,0,0
46:42.3,-0.01,0.0455,-0.059,-0.1176798,0.40207265,8.6102387,97628.92762,-2694500.0,-500.0,-198500.0,41.48,16.11999893,-480.848877,-185.1476135,138.0,8.186751366,8.248663902,-41.15026855,0,0
46:42.3,-0.02,0.046,-0.061,-0.0784532,0.2549729,8.73772515,97624.75586,-2694000.0,-1000.0,-159000.0,41.48,15.80999947,-480.848877,-183.8204803,140.0,8.186751366,8.248663902,-41.15026855,0,0
46:42.4,-0.032,0.051333333,-0.062,-0.0588399,0.271317317,8.6690786,97624.34489,-2691666.667,-1666.666667,-32000.0,41.48,15.80999947,-480.848877,-183.8204803,140.0,8.186751366,8.248663902,-41.15026855,0,0
46:42.4,-0.044,0.056666667,-0.063,-0.0392266,0.287661733,8.60043205,97623.93392,-2689333.333,-2333.333333,95000.0,41.48,15.5199995,-441.3580017,-182.5204468,142.0,8.186751366,8.248663902,-41.15026855,0,0
46:42.4,-0.056,0.062,-0.064,-0.0196133,0.30400615,8.5317855,97623.52295,-2687000.0,-3000.0,222000.0,41.48,15.5199995,-441.3580017,-182.5204468,142.0,8.186751366,8.248663902,-41.15026855,0,0
46:42.5,-0.0745,0.0595,-0.059,-0.093163175,0.406975975,8.664175275,97621.61866,-2247500.0,-11000.0,-525000.0,41.475,15.5199995,-441.3580017,-182.5204468,142.0,8.186751366,8.248663902,-41.15026855,0,0
46:42.5,-0.093,0.057,-0.054,-0.16671305,0.5099458,8.79656505,97619.71436,-1808000.0,-19000.0,-1272000.0,41.47,15.37999964,-441.3580017,-181.8779755,142.5,8.186751366,8.248663902,-41.15026855,0,0
46:42.6,-0.0965,0.0665,-0.053,-0.14709975,0.367749375,8.50236555,97618.02369,-1993500.0,-15000.0,-972000.0,41.47,15.23999977,-441.3580017,-181.2355042,143.0,8.186751366,8.248663902,-41.15026855,0,0
46:42.6,-0.1,0.076,-0.052,-0.12748645,0.22555295,8.20816605,97616.33301,-2179000.0,-11000.0,-672000.0,41.47,15.10499954,-427.9308319,-180.6033402,144.0,8.186751366,8.248663902,-41.15026855,0,0
46:42.6,-0.098333333,0.076333333,-0.048,-0.1569064,0.258241783,8.329114733,97613.66577,-1709333.333,-17333.33333,-995333.3333,41.47,14.96999931,-414.5036621,-179.9711761,145.0,8.186751366,8.248663902,-41.15026855,0,0
46:42.7,-0.096666667,0.076666667,-0.044,-0.18632635,0.290930617,8.450063417,97610.99854,-1239666.667,-23666.66667,-1318666.667,41.47,14.96999931,-414.5036621,-179.9711761,145.0,6.421578884,7.336704731,-40.00388718,0,0
46:42.7,-0.095,0.077,-0.04,-0.2157463,0.32361945,8.5710121,97608.3313,-770000.0,-30000.0,-1642000.0,41.47,14.84499931,-414.5036621,-179.3411026,146.0,6.421578884,7.336704731,-40.00388718,0,0
46:42.8,-0.0755,0.089,-0.044,-0.2549729,0.387362675,8.40429905,97608.50525,-1055000.0,-25000.0,-1410500.0,41.47,14.71999931,-414.5036621,-178.7110291,147.0,6.421578884,7.336704731,-40.00388718,0,0
46:42.8,-0.056,0.101,-0.048,-0.2941995,0.4511059,8.237586,97608.6792,-1340000.0,-20000.0,-1179000.0,41.47,14.60499954,-403.8405456,-178.1719285,148.0,6.421578884,7.336704731,-40.00388718,0,0
46:42.8,-0.043666667,0.100666667,-0.048666667,-0.297468383,0.44129925,8.132981733,97607.32422,-1302666.667,-19666.66667,-1330000.0,41.46666667,14.48999977,-393.1774292,-177.6328278,149.0,6.421578884,7.336704731,-40.00388718,0,0
46:42.9,-0.031333333,0.100333333,-0.049333333,-0.300737267,0.4314926,8.028377467,97605.96924,-1265333.333,-19333.33333,-1481000.0,41.46333333,14.48999977,-393.1774292,-177.6328278,149.0,6.421578884,7.336704731,-40.00388718,0,0
46:42.9,-0.019,0.1,-0.05,-0.30400615,0.42168595,7.9237732,97604.61426,-1228000.0,-19000.0,-1632000.0,41.46,14.37999964,-393.1774292,-177.0029068,149.5,6.421578884,7.336704731,-40.00388718,0,0
46:43.0,-0.0075,0.098,-0.0535,-0.318716125,0.436395925,7.91396655,97601.92261,-539500.0,-26500.0,-1354500.0,41.46,14.2699995,-393.1774292,-176.3729858,150.0,6.421578884,7.336704731,-40.00388718,0,0
46:43.0,0.004,0.096,-0.057,-0.3334261,0.4511059,7.9041599,97599.23096,149000.0,-34000.0,-1077000.0,41.46,14.1699996,-378.5015259,-175.7600174,151.0,6.421578884,7.336704731,-40.00388718,0,0
46:43.0,-0.000333333,0.096333333,-0.056666667,-0.310543917,0.444568133,7.93357985,97599.30624,306333.3333,-39000.0,-1086000.0,41.46,14.06999969,-363.8256226,-175.147049,152.0,6.421578884,7.336704731,-40.00388718,0,0
46:43.1,-0.004666667,0.096666667,-0.056333333,-0.287661733,0.438030367,7.9629998,97599.38151,463666.6667,-44000.0,-1095000.0,41.46,14.06999969,-363.8256226,-175.147049,152.0,6.421578884,7.336704731,-40.00388718,0,0
46:43.1,-0.009,0.097,-0.056,-0.26477955,0.4314926,7.99241975,97599.45679,621000.0,-49000.0,-1104000.0,41.46,13.88000011,-363.8256226,-174.0419464,154.0,3.80008626,6.817629814,-39.1350975,0,0
46:43.2,-0.024,0.103,-0.052,-0.299102825,0.42168595,7.7472535,97595.26673,94500.0,-42500.0,-1091000.0,41.455,13.88000011,-363.8256226,-174.0419464,154.0,3.80008626,6.817629814,-39.1350975,0,0
46:43.2,-0.039,0.109,-0.048,-0.3334261,0.4118793,7.50208725,97591.07666,-432000.0,-36000.0,-1078000.0,41.45,13.71999931,-344.4568481,-172.8184204,156.0,3.80008626,6.817629814,-39.1350975,0,0
46:43.2,-0.021333333,0.109,-0.051333333,-0.32361945,0.392266,7.508625017,97591.27197,-234333.3333,-38333.33333,-1078666.667,41.45,13.68749952,-344.4568481,-172.673069,156.25,3.80008626,6.817629814,-39.1350975,0,0
46:43.3,-0.003666667,0.109,-0.054666667,-0.3138128,0.3726527,7.515162783,97591.46729,-36666.66667,-40666.66667,-1079333.333,41.45,13.65499973,-344.4568481,-172.5277176,156.5,3.80008626,6.817629814,-39.1350975,0,0
46:43.3,0.014,0.109,-0.058,-0.30400615,0.3530394,7.52170055,97591.6626,161000.0,-43000.0,-1080000.0,41.45,13.62249994,-344.4568481,-172.3823662,156.75,3.80008626,6.817629814,-39.1350975,0,0
46:43.4,-0.0095,0.1045,-0.0555,-0.289296175,0.289296175,7.6295737,97591.46423,-108500.0,-40000.0,-1075500.0,41.45,13.59000015,-344.4568481,-172.2370148,157.0,3.80008626,6.817629814,-39.1350975,0,0
46:43.4,-0.033,0.1,-0.053,-0.2745862,0.22555295,7.73744685,97591.26587,-378000.0,-37000.0,-1071000.0,41.45,13.46999931,-326.7562866,-170.9985962,159.0,3.80008626,6.817629814,-39.1350975,0,0
46:43.4,-0.023666667,0.102,-0.052333333,-0.251704017,0.26477955,7.685144717,97589.98413,-484666.6667,-35333.33333,-1069666.667,41.44666667,13.46999931,-326.7562866,-170.9985962,159.0,3.80008626,6.817629814,-39.1350975,0,0
46:43.5,-0.014333333,0.104,-0.051666667,-0.228821833,0.30400615,7.632842583,97588.70239,-591333.3333,-33666.66667,-1068333.333,41.44333333,13.4199996,-326.7562866,-170.5194245,160.0,2.530867637,6.788920403,-38.71251488,0,0
46:43.5,-0.005,0.106,-0.051,-0.20593965,0.34323275,7.58054045,97587.42065,-698000.0,-32000.0,-1067000.0,41.44,13.36999989,-326.7562866,-170.0402527,161.0,1.261649013,6.760210991,-38.28993225,0,0
46:43.6,-0.005666667,0.111333333,-0.047666667,-0.22555295,0.3726527,7.479205067,97587.15413,-773000.0,-30333.33333,-1069666.667,41.44,13.36999989,-326.7562866,-170.0402527,161.0,1.261649013,6.760210991,-38.28993225,0,0
46:43.6,-0.006333333,0.116666667,-0.044333333,-0.24516625,0.40207265,7.377869683,97586.88761,-848000.0,-28666.66667,-1072333.333,41.44,13.33499957,-317.7986145,-169.4124985,161.5,1.261649013,6.760210991,-38.28993225,0,0
46:43.6,-0.007,0.122,-0.041,-0.26477955,0.4314926,7.2765343,97586.62109,-923000.0,-27000.0,-1075000.0,41.44,13.29999924,-308.8409424,-168.7847443,162.0,1.261649013,6.760210991,-38.28993225,0,0
46:43.7,-0.0255,0.114,-0.0435,-0.26477955,0.4314926,7.24711435,97586.42273,-588500.0,-32500.0,-1066000.0,41.44,13.25,-308.8409424,-167.5647888,164.0,1.261649013,6.760210991,-38.28993225,0,0
46:43.7,-0.044,0.106,-0.046,-0.26477955,0.4314926,7.2176944,97586.22437,-254000.0,-38000.0,-1057000.0,41.44,13.25,-308.8409424,-167.5647888,164.0,1.261649013,6.760210991,-38.28993225,0,0
46:43.8,-0.058,0.091,-0.044,-0.279489525,0.46091255,7.84532,97586.31897,-471500.0,-33500.0,-1061500.0,41.44,13.25,-308.8409424,-167.5647888,164.0,1.261649013,6.760210991,-38.28993225,0,0
46:43.8,-0.072,0.076,-0.042,-0.2941995,0.4903325,8.4729456,97586.41357,-689000.0,-29000.0,-1066000.0,41.44,13.25,-308.8409424,-167.5647888,164.0,1.261649013,6.760210991,-38.28993225,0,0
46:43.8,-0.077,0.077,-0.043,-0.238628483,0.4903325,8.544861033,97586.49088,-685000.0,-29333.33333,-1071333.333,41.43666667,13.23999977,-301.0794678,-167.0663071,165.0,0.141414762,6.653406859,-37.96272087,0,0
46:43.9,-0.082,0.078,-0.044,-0.183057467,0.4903325,8.616776467,97586.5682,-681000.0,-29666.66667,-1076666.667,41.43333333,13.22999954,-293.3179932,-166.5678253,166.0,-0.978819489,6.546602726,-37.63550949,0,0
46:43.9,-0.087,0.079,-0.045,-0.12748645,0.4903325,8.6886919,97586.64551,-677000.0,-30000.0,-1082000.0,41.43,13.22499943,-293.3179932,-165.9524613,166.5,-0.978819489,6.546602726,-37.63550949,0,0
46:44.0,-0.075,0.0715,-0.051,-0.12748645,0.475622525,9.1594111,97585.39124,-688000.0,-26500.0,-1074500.0,41.43,13.21999931,-293.3179932,-165.3370972,167.0,-0.978819489,6.546602726,-37.63550949,0,0
46:44.0,-0.063,0.064,-0.057,-0.12748645,0.46091255,9.6301303,97584.13696,-699000.0,-23000.0,-1067000.0,41.43,13.22999954,-287.352356,-164.7174683,169.0,-0.978819489,6.546602726,-37.63550949,0,0
46:44.0,-0.013,0.061,-0.061,-0.1765197,0.42168595,9.5516771,97583.81144,-691666.6667,-23666.66667,-1068000.0,41.43,13.22999954,-287.352356,-164.7174683,169.0,-0.978819489,6.546602726,-37.63550949,0,0
46:44.1,0.037,0.058,-0.065,-0.22555295,0.38245935,9.4732239,97583.48592,-684333.3333,-24333.33333,-1069000.0,41.43,13.23499966,-287.352356,-164.0624772,170.0,-0.978819489,6.546602726,-37.63550949,0,0
46:44.1,0.087,0.055,-0.069,-0.2745862,0.34323275,9.3947707,97583.1604,-677000.0,-25000.0,-1070000.0,41.43,13.23999977,-287.352356,-163.407486,171.0,-0.978819489,6.546602726,-37.63550949,0,0
46:44.2,0.077,0.053,-0.0655,-0.22555295,0.26477955,9.05153795,97583.48084,-191000.0,-30500.0,-1066000.0,41.425,13.23999977,-287.352356,-163.407486,171.0,-0.978819489,6.546602726,-37.63550949,0,0
46:44.2,0.067,0.051,-0.062,-0.1765197,0.18632635,8.7083052,97583.80127,295000.0,-36000.0,-1062000.0,41.42,13.25,-286.6182251,-162.1127472,172.0,-0.978819489,6.546602726,-37.63550949,0,0
46:44.2,0.098666667,0.048,-0.051333333,-0.16671305,0.199401883,8.65927195,97583.36589,76333.33333,-34666.66667,-1061000.0,41.42,13.25,-286.6182251,-162.1127472,172.0,-2.827419996,6.642341137,-36.46198654,0,0
46:44.3,0.130333333,0.045,-0.040666667,-0.1569064,0.212477417,8.6102387,97582.9305,-142333.3333,-33333.33333,-1060000.0,41.42,13.25999975,-286.6182251,-161.4626999,173.0,-2.827419996,6.642341137,-36.46198654,0,0
46:44.3,0.162,0.042,-0.03,-0.14709975,0.22555295,8.56120545,97582.49512,-361000.0,-32000.0,-1059000.0,41.42,13.2699995,-286.6182251,-160.8126526,174.0,-2.827419996,6.642341137,-36.46198654,0,0
46:44.4,0.186333333,0.037,-0.020333333,-0.179788583,0.310543917,8.479483367,97582.68026,-275333.3333,-36000.0,-1058000.0,41.41666667,13.2699995,-286.6182251,-160.8126526,174.0,-2.827419996,6.642341137,-36.46198654,0,0
46:44.4,0.210666667,0.032,-0.010666667,-0.212477417,0.395534883,8.397761283,97582.8654,-189666.6667,-40000.0,-1057000.0,41.41333333,13.28999996,-281.1660767,-159.4564362,176.0,-2.827419996,6.642341137,-36.46198654,0,0
46:44.4,0.235,0.027,-0.001,-0.24516625,0.48052585,8.3160392,97583.05054,-104000.0,-44000.0,-1056000.0,41.41,13.28999996,-281.1660767,-159.4564362,176.0,-2.827419996,6.642341137,-36.46198654,0,0
46:44.5,0.1725,0.0205,-0.0015,-0.220649625,0.495235825,8.8652116,97584.07593,-11500.0,-46000.0,-1072000.0,41.41,13.28999996,-281.1660767,-159.4564362,176.0,-2.827419996,6.642341137,-36.46198654,0,0
46:44.5,0.11,0.014,-0.002,-0.196133,0.5099458,9.414384,97585.10132,81000.0,-48000.0,-1088000.0,41.41,13.32999992,-281.1660767,-157.9012146,177.0,-2.827419996,6.642341137,-36.46198654,0,0
46:44.6,0.0955,0.015,-0.0085,-0.191229675,0.475622525,9.448707275,97586.94153,-318000.0,-47000.0,-1089500.0,41.41,13.32999992,-281.1660767,-157.9012146,177.0,-3.435521126,9.605589867,-36.26981735,0,0
46:44.6,0.081,0.016,-0.015,-0.18632635,0.44129925,9.48303055,97588.78174,-717000.0,-46000.0,-1091000.0,41.41,13.38000011,-282.1357727,-156.5258636,179.0,-3.435521126,9.605589867,-36.26981735,0,0
46:44.6,0.079333333,0.014,-0.022,-0.1569064,0.4903325,9.319586383,97588.7736,-497000.0,-49666.66667,-1086000.0,41.41,13.38000011,-282.1357727,-156.5258636,179.0,-3.435521126,9.605589867,-36.26981735,0,0
46:44.7,0.077666667,0.012,-0.029,-0.12748645,0.53936575,9.156142217,97588.76546,-277000.0,-53333.33333,-1081000.0,41.41,13.38000011,-282.1357727,-156.5258636,179.0,-3.435521126,9.605589867,-36.26981735,0,0
46:44.7,0.076,0.01,-0.036,-0.0980665,0.588399,8.99269805,97588.75732,-57000.0,-57000.0,-1076000.0,41.41,13.43999958,-282.1357727,-155.1530151,181.0,-3.435521126,9.605589867,-36.26981735,0,0
46:44.8,0.0725,0.0075,-0.0485,-0.12748645,0.588399,9.046634625,97585.95581,-233000.0,-54000.0,-1180500.0,41.405,13.43999958,-282.1357727,-155.1530151,181.0,-3.435521126,9.605589867,-36.26981735,0,0
46:44.8,0.069,0.005,-0.061,-0.1569064,0.588399,9.1005712,97583.1543,-409000.0,-51000.0,-1285000.0,41.4,13.43999958,-282.1357727,-155.1530151,181.0,-3.435521126,9.605589867,-36.26981735,0,0
46:44.8,0.088333333,0.001,-0.072333333,-0.1372931,0.555710167,9.339199683,97585.64657,-452333.3333,-52666.66667,-1232000.0,41.4,13.5,-283.9113159,-152.0410919,182.0,-3.435521126,9.605589867,-36.26981735,0,0
46:44.9,0.107666667,-0.003,-0.083666667,-0.1176798,0.523021333,9.577828167,97588.13883,-495666.6667,-54333.33333,-1179000.0,41.4,13.53999996,-283.9113159,-151.3134842,183.0,-3.435521126,9.605589867,-36.26981735,0,0
46:44.9,0.127,-0.007,-0.095,-0.0980665,0.4903325,9.81645665,97590.6311,-539000.0,-56000.0,-1126000.0,41.4,13.57999992,-283.9113159,-150.5858765,184.0,-3.435521126,9.605589867,-36.26981735,0,0
46:45.0,0.1595,-0.0025,-0.1015,-0.06864655,0.534462425,9.50264385,97591.43676,-190000.0,-62000.0,-1189000.0,41.4,13.57999992,-283.9113159,-150.5858765,184.0,-4.026507378,12.07724571,-35.30342484,0,0
46:45.0,0.192,0.002,-0.108,-0.0392266,0.57859235,9.18883105,97592.24243,159000.0,-68000.0,-1252000.0,41.4,13.57999992,-283.9113159,-150.5858765,184.0,-4.026507378,12.07724571,-35.30342484,0,0
46:45.0,0.206,0.000666667,-0.111666667,-0.055571017,0.51975245,9.1986377,97593.2312,-270333.3333,-63000.0,-1066666.667,41.4,13.65999985,-284.951416,-148.2233276,186.0,-4.026507378,12.07724571,-35.30342484,0,0
46:45.1,0.22,-0.000666667,-0.115333333,-0.071915433,0.46091255,9.20844435,97594.21997,-699666.6667,-58000.0,-881333.3333,41.4,13.70499993,-284.951416,-147.4853897,186.5,-4.026507378,12.07724571,-35.30342484,0,0
46:45.1,0.234,-0.002,-0.119,-0.08825985,0.40207265,9.218251,97595.20874,-1129000.0,-53000.0,-696000.0,41.4,13.75,-284.951416,-146.7474518,187.0,-4.026507378,12.07724571,-35.30342484,0,0
46:45.2,0.2395,-0.008,-0.1155,-0.10787315,0.4314926,9.18883105,97594.70215,-1917000.0,-47500.0,-741500.0,41.395,13.75,-284.951416,-146.7474518,187.0,-4.026507378,12.07724571,-35.30342484,0,0
46:45.2,0.245,-0.014,-0.112,-0.12748645,0.46091255,9.1594111,97594.19556,-2705000.0,-42000.0,-787000.0,41.39,13.79999972,-289.3622437,-146.0114518,188.0,-4.026507378,12.07724571,-35.30342484,0,0
46:45.2,0.217,-0.017,-0.111666667,-0.101335383,0.457643667,9.165948867,97593.82935,-1939333.333,-55333.33333,-816000.0,41.39,13.84999943,-293.7730713,-145.2754517,189.0,-4.026507378,12.07724571,-35.30342484,0,0
46:45.3,0.189,-0.02,-0.111333333,-0.075184317,0.454374783,9.172486633,97593.46313,-1173666.667,-68666.66667,-845000.0,41.39,13.90499974,-293.7730713,-99.02585795,190.0,-4.026507378,12.07724571,-35.30342484,0,0
46:45.3,0.161,-0.023,-0.111,-0.04903325,0.4511059,9.1790244,97593.09692,-408000.0,-82000.0,-874000.0,41.39,13.96000004,-293.7730713,-52.77626419,191.0,-4.026507378,12.07724571,-35.30342484,0,0
46:45.4,0.219,-0.0365,-0.114,-0.034323275,0.40207265,9.527160475,97594.0094,-766000.0,-79500.0,-667500.0,41.39,13.96000004,-293.7730713,-52.77626419,191.0,-4.541521072,16.77523232,-32.93081284,0,0
46:45.4,0.277,-0.05,-0.117,-0.0196133,0.3530394,9.87529655,97594.92188,-1124000.0,-77000.0,-461000.0,41.39,14.09000015,-301.6405029,-51.41817474,192.0,-4.541521072,16.77523232,-32.93081284,0,0
46:45.4,0.37,-0.054,-0.121,0.0,0.444568133,9.986438583,97595.97372,-1406333.333,-73666.66667,-265000.0,41.38666667,14.09000015,-301.6405029,-51.41817474,192.0,-4.541521072,16.77523232,-32.93081284,0,0
46:45.5,0.463,-0.058,-0.125,0.0196133,0.536096867,10.09758062,97597.02555,-1688666.667,-70333.33333,-69000.0,41.38333333,14.09000015,-301.6405029,-51.41817474,192.0,-4.541521072,16.77523232,-32.93081284,0,0
46:45.5,0.556,-0.062,-0.129,0.0392266,0.6276256,10.20872265,97598.07739,-1971000.0,-67000.0,127000.0,41.38,14.1500001,-301.6405029,-50.7502613,193.0,-4.541521072,16.77523232,-32.93081284,0,0
46:45.6,0.5735,-0.0715,-0.1375,0.06864655,0.6472389,10.13517278,97600.10376,-1286000.0,-86500.0,-217500.0,41.38,14.21000004,-301.6405029,-50.08234787,194.0,-4.541521072,16.77523232,-32.93081284,0,0
46:45.6,0.591,-0.081,-0.146,0.0980665,0.6668522,10.0616229,97602.13013,-601000.0,-106000.0,-562000.0,41.38,14.21000004,-301.6405029,-50.08234787,194.0,-4.541521072,16.77523232,-32.93081284,0,0
46:45.6,0.591666667,-0.088,-0.148666667,0.104604267,0.693003267,10.14334498,97602.4821,-1128333.333,-103333.3333,-701666.6667,41.38,14.27999974,-284.0599976,-49.38103867,195.0,-4.541521072,16.77523232,-32.93081284,0,0
46:45.7,0.592333333,-0.095,-0.151333333,0.111142033,0.719154333,10.22506707,97602.83407,-1655666.667,-100666.6667,-841333.3333,41.38,14.34999943,-266.4794922,-48.67972946,196.0,-4.541521072,16.77523232,-32.93081284,0,0
46:45.7,0.593,-0.102,-0.154,0.1176798,0.7453054,10.30678915,97603.18604,-2183000.0,-98000.0,-981000.0,41.38,14.41499949,-266.4794922,-47.98955345,196.5,-4.459769249,22.33026124,-31.22822381,0,0
2018/9/11 18:46,0.5405,-0.1175,-0.162,0.142196425,0.789435325,10.47840553,97604.25721,-2437500.0,-102000.0,-567500.0,41.375,14.47999954,-266.4794922,-47.29937744,197.0,-4.378017426,27.88529015,-29.52563477,0,0
46:45.8,0.488,-0.133,-0.17,0.16671305,0.83356525,10.6500219,97605.32837,-2692000.0,-106000.0,-154000.0,41.37,14.54999972,-270.8821258,-46.58137131,198.0,-4.378017426,27.88529015,-29.52563477,0,0
46:45.8,0.451,-0.142666667,-0.176,0.202670767,0.885867383,10.77423947,97605.70475,-2686000.0,-111000.0,167000.0,41.37,14.62333298,-272.3496704,-45.84852218,199.0,-4.378017426,27.88529015,-29.52563477,0,0
46:45.9,0.414,-0.152333333,-0.182,0.238628483,0.938169517,10.89845703,97606.08114,-2680000.0,-116000.0,488000.0,41.37,14.69666624,-273.817215,-45.11567306,200.0,-4.378017426,27.88529015,-29.52563477,0,0
46:45.9,0.377,-0.162,-0.188,0.2745862,0.99047165,11.0226746,97606.45752,-2674000.0,-121000.0,809000.0,41.37,14.7699995,-275.2847595,-44.38282394,201.0,-4.378017426,27.88529015,-29.52563477,0,0
46:46.0,0.346,-0.1775,-0.1985,0.338329425,0.83356525,11.18448433,97604.9469,-2656000.0,-122000.0,1746500.0,41.37,14.7699995,-275.2847595,-44.38282394,201.0,-4.378017426,27.88529015,-29.52563477,0,0
46:46.0,0.315,-0.193,-0.209,0.40207265,0.67665885,11.34629405,97603.43628,-2638000.0,-123000.0,2684000.0,41.37,14.84499979,-281.6621704,-43.63698769,201.5,-4.378017426,27.88529015,-29.52563477,0,0
46:46.0,0.2915,-0.193,-0.2175,0.3530394,0.789435325,11.33158407,97609.71374,-2643000.0,-126000.0,2410000.0,41.37,14.92000008,-288.0395813,-42.89115143,202.0,-4.378017426,27.88529015,-29.52563477,0,0
46:46.1,0.268,-0.193,-0.226,0.30400615,0.9022118,11.3168741,97615.99121,-2648000.0,-129000.0,2136000.0,41.37,14.92000008,-288.0395813,-42.89115143,202.0,-4.378017426,27.88529015,-29.52563477,0,0
46:46.1,0.242333333,-0.196,-0.233333333,0.349770517,0.957782817,11.3561007,97615.00651,-2648000.0,-127666.6667,2136000.0,41.36666667,15.06999969,-288.0395813,-41.35494995,204.0,-4.378017426,27.88529015,-29.52563477,0,0
46:46.2,0.216666667,-0.199,-0.240666667,0.395534883,1.013353833,11.3953273,97614.02181,-2648000.0,-126333.3333,2136000.0,41.36333333,15.06999969,-288.0395813,-41.35494995,204.0,-4.378017426,27.88529015,-29.52563477,0,0
46:46.2,0.191,-0.202,-0.248,0.44129925,1.06892485,11.4345539,97613.03711,-2648000.0,-125000.0,2136000.0,41.36,15.06999969,-288.0395813,-41.35494995,204.0,-3.726974726,37.69208145,-22.74367523,0,0
46:46.2,0.1595,-0.2155,-0.26,0.5099458,1.06892485,11.52771708,97614.4928,-2648000.0,-125000.0,2136000.0,41.36,15.21999931,-291.8403625,-39.78535461,205.0,-3.726974726,37.69208145,-22.74367523,0,0
46:46.3,0.128,-0.229,-0.272,0.57859235,1.06892485,11.62088025,97615.94849,-2648000.0,-125000.0,2136000.0,41.36,15.21999931,-291.8403625,-39.78535461,205.0,-3.726974726,37.69208145,-22.74367523,0,0
46:46.3,0.130666667,-0.238,-0.279333333,0.585130117,1.0787315,11.77778665,97617.37061,-2644666.667,-124666.6667,2318666.667,41.36,15.38000011,-291.8403625,-38.1934967,207.0,-3.726974726,37.69208145,-22.74367523,0,0
46:46.4,0.133333333,-0.247,-0.286666667,0.591667883,1.08853815,11.93469305,97618.79272,-2641333.333,-124333.3333,2501333.333,41.36,15.38000011,-291.8403625,-38.1934967,207.0,-3.726974726,37.69208145,-22.74367523,0,0
46:46.4,0.136,-0.256,-0.294,0.59820565,1.0983448,12.09159945,97620.21484,-2638000.0,-124000.0,2684000.0,41.36,15.38000011,-291.8403625,-38.1934967,207.0,-3.726974726,37.69208145,-22.74367523,0,0
46:46.4,0.144,-0.261333333,-0.300333333,0.699541033,1.046042667,12.1406327,97619.80184,-2638000.0,-123666.6667,2684000.0,41.35666667,15.54999924,-283.3873901,-36.53484344,209.0,-3.726974726,37.69208145,-22.74367523,0,0
46:46.5,0.152,-0.266666667,-0.306666667,0.800876417,0.993740533,12.18966595,97619.38883,-2638000.0,-123333.3333,2684000.0,41.35333333,15.62999964,-283.3873901,-35.71108437,209.5,-3.726974726,37.69208145,-22.74367523,0,0
46:46.5,0.16,-0.272,-0.313,0.9022118,0.9414384,12.2386992,97618.97583,-2638000.0,-123000.0,2684000.0,41.35,15.71000004,-283.3873901,-34.88732529,210.0,-3.726974726,37.69208145,-22.74367523,0,0
46:46.6,0.163,-0.276,-0.3175,0.916921775,0.926728425,12.23379587,97627.89307,-2638000.0,-121000.0,2684000.0,41.35,15.71000004,-283.3873901,-34.88732529,210.0,-3.726974726,37.69208145,-22.74367523,0,0
46:46.6,0.166,-0.28,-0.322,0.93163175,0.91201845,12.22889255,97636.8103,-2638000.0,-119000.0,2684000.0,41.35,15.78999997,-289.3266754,-34.03017044,211.0,-3.695518017,39.50403404,-18.13862848,0,0
46:46.6,0.139,-0.297333333,-0.324333333,0.993740533,0.856447433,12.49694098,97634.42993,-2638000.0,-117333.3333,2684000.0,41.35,15.86999989,-295.2659607,-33.17301559,212.0,-3.664061308,41.31598663,-13.53358173,0,0
46:46.7,0.112,-0.314666667,-0.326666667,1.055849317,0.800876417,12.76498942,97632.04956,-2638000.0,-115666.6667,2684000.0,41.35,15.86999989,-295.2659607,-33.17301559,212.0,-3.664061308,41.31598663,-13.53358173,0,0
46:46.7,0.085,-0.332,-0.329,1.1179581,0.7453054,13.03303785,97629.66919,-2638000.0,-114000.0,2684000.0,41.35,16.02999878,-295.2659607,-31.43644142,213.0,-3.664061308,41.31598663,-13.53358173,0,0
46:46.8,0.0695,-0.341,-0.32,1.0983448,0.769822025,13.66556677,97631.21949,-2638500.0,-104500.0,2684000.0,41.35,16.02999878,-295.2659607,-31.43644142,213.0,-3.664061308,41.31598663,-13.53358173,0,0
46:46.8,0.054,-0.35,-0.311,1.0787315,0.79433865,14.2980957,97632.76978,-2639000.0,-95000.0,2684000.0,41.35,16.11499882,-304.1169129,-30.55145645,214.0,-3.664061308,41.31598663,-13.53358173,0,0
46:46.8,0.055,-0.3575,-0.3015,1.113054775,0.784532,14.48932538,97636.63025,-2639000.0,-96500.0,2684000.0,41.345,16.19999886,-312.967865,-29.66647148,215.0,-3.664061308,41.31598663,-13.53358173,0,0
46:46.9,0.056,-0.365,-0.292,1.14737805,0.77472535,14.68055505,97640.49072,-2639000.0,-98000.0,2684000.0,41.34,16.19999886,-312.967865,-29.66647148,215.0,-3.664061308,41.31598663,-13.53358173,0,0
46:46.9,0.056333333,-0.370666667,-0.284,1.251982317,0.777994233,14.6903617,97639.4104,-2638666.667,-99000.0,2684000.0,41.34,16.3599987,-312.967865,-27.87423897,216.0,-3.664061308,41.31598663,-13.53358173,0,0
46:47.0,0.056666667,-0.376333333,-0.276,1.356586583,0.781263117,14.70016835,97638.33008,-2638333.333,-100000.0,2684000.0,41.34,16.3599987,-312.967865,-27.87423897,216.0,-3.664061308,41.31598663,-13.53358173,0,0
46:47.0,0.057,-0.382,-0.268,1.46119085,0.784532,14.709975,97637.24976,-2638000.0,-101000.0,2684000.0,41.34,16.51000023,-307.3537903,-26.07087326,217.0,-3.664061308,41.31598663,-13.53358173,0,0
46:47.0,0.051,-0.383,-0.266,1.478352488,0.8237586,14.76636324,97639.5752,-2638000.0,-101250.0,2684000.0,41.3375,16.51000023,-307.3537903,-26.07087326,217.0,-3.072076082,42.29540062,-7.782313584,0,0
