time,field.angular_velocity.x,field.angular_velocity.y,field.angular_velocity.z,field.linear_acceleration.x,field.linear_acceleration.y,field.linear_acceleration.z,field.magnetic_field.x,field.magnetic_field.y,field.magnetic_field.z,field.fluid_pressure,field.temperature,field.airspeed,field.measured.pitch,field.measured.roll,field.measured.yaw,field.alt_error,field.aspd_error,field.xtrack_error,field.wp_dist
18:01.0,-0.1205,-0.003,0.0255,-0.034323275,0.7256921,10.1400761,-240000,287500,-275500,98277.6886,31.395,0,-0.513939083,3.029597998,-85.02085114,0.25999999,-86.41433716,-39.71873856,3
18:01.1,-0.13,0.004,0.006,0.08825985,0.6668522,10.36562905,-259000,324000,-253000,98280.9021,31.39,0,-0.513939083,3.029597998,-85.02085114,0.25999999,-86.41433716,-39.71873856,3
18:01.1,-0.095333333,0.004,-0.011666667,0.16671305,0.545903517,10.24468037,-286333.3333,391666.6667,-211333.3333,98281.44735,31.39,0,-0.513939083,3.029597998,-85.02085114,0.359999985,-78.00798035,-38.42443848,4
18:01.2,-0.060666667,0.004,-0.029333333,0.24516625,0.424954833,10.12373168,-313666.6667,459333.3333,-169666.6667,98281.99259,31.39,0,-0.513939083,3.029597998,-85.02085114,0.359999985,-78.00798035,-38.42443848,4
18:01.2,-0.026,0.004,-0.047,0.32361945,0.30400615,10.002783,-341000,527000,-128000,98282.53784,31.39,0,-0.493534685,2.118080616,-85.38859559,0.404999987,-78.00798035,-37.77376748,5
18:01.2,0.0175,0.0045,-0.0515,0.196133,0.318716125,9.81645665,-315000,490500,-161500,98283.58765,31.385,0,-0.473130286,1.206563234,-85.75634003,0.449999988,-78.00798035,-37.12309647,6
18:01.3,0.061,0.005,-0.056,0.06864655,0.3334261,9.6301303,-289000,454000,-195000,98284.63745,31.38,0,-0.473130286,1.206563234,-85.75634003,0.5,-78.80244064,-214.6879826,6.5
18:01.3,0.16025,0.0035,-0.065,0.085808188,0.384911013,9.8262633,-284000,443250,-198250,98284.71222,31.3775,0,-0.473130286,1.206563234,-85.75634003,0.525000006,-79.19967079,-303.4704256,6.75
18:01.4,0.2595,0.002,-0.074,0.102969825,0.436395925,10.0223963,-279000,432500,-201500,98284.78699,31.375,0,-0.473130286,1.206563234,-85.75634003,0.550000012,-79.59690094,-392.2528687,7
18:01.4,0.35875,0.0005,-0.083,0.120131463,0.487880838,10.2185293,-274000,421750,-204750,98284.86175,31.3725,0,-0.473130286,1.206563234,-85.75634003,0.659999967,20.40309906,-390.9510498,8
18:01.4,0.458,-0.001,-0.092,0.1372931,0.53936575,10.4146623,-269000,411000,-208000,98284.93652,31.37,0,-0.473130286,1.206563234,-85.75634003,0.659999967,20.40309906,-390.9510498,8
18:01.5,0.624,-0.003,-0.1135,0.161809725,0.465815875,10.61569863,-269000,411000,-208000,98284.93652,31.37,0,-0.473130286,1.206563234,-85.75634003,0.659999967,20.40309906,-390.9510498,8
18:01.5,0.79,-0.005,-0.135,0.18632635,0.392266,10.81673495,-269000,411000,-208000,98284.93652,31.37,0,-0.608088672,6.326061726,-84.24906158,0.75999999,21.70133591,-389.6661987,10
18:01.6,0.893,0.01,-0.125,0.0980665,0.367749375,10.30678915,-272500,416500,-193500,98284.9823,31.37,0,-0.608088672,6.326061726,-84.24906158,0.75999999,21.70133591,-389.6661987,10
18:01.6,0.996,0.025,-0.115,0.00980665,0.34323275,9.79684335,-276000,422000,-179000,98285.02808,31.37,0,-0.608088672,6.326061726,-84.24906158,0.75999999,21.70133591,-389.6661987,10
18:01.6,0.951666667,0.025666667,-0.107666667,-0.0392266,0.349770517,9.5909037,-250000,345000,-194666.6667,98286.5031,31.36333333,0,-0.608088672,6.326061726,-84.24906158,0.859999955,21.70133591,-388.3475037,11
18:01.7,0.907333333,0.026333333,-0.100333333,-0.08825985,0.356308283,9.38496405,-224000,268000,-210333.3333,98287.97811,31.35666667,0,-0.608088672,6.326061726,-84.24906158,0.859999955,21.70133591,-388.3475037,11
18:01.7,0.863,0.027,-0.093,-0.1372931,0.36284605,9.1790244,-198000,191000,-226000,98289.45313,31.35,0,-0.608088672,6.326061726,-84.24906158,0.904999972,19.3775177,-387.7050629,11.5
18:01.8,0.788,0.018,-0.1035,-0.181423025,0.2745862,9.7674234,-198000,191000,-226000,98287.10938,31.35,0,-0.608088672,6.326061726,-84.24906158,0.949999988,17.05369949,-387.0626221,12
18:01.8,0.713,0.009,-0.114,-0.22555295,0.18632635,10.3558224,-198000,191000,-226000,98284.76563,31.35,0,-0.608088672,6.326061726,-84.24906158,0.949999988,17.05369949,-387.0626221,12
18:01.8,0.635,0.014666667,-0.105,-0.310543917,0.248435133,9.872027667,-193666.6667,163000,-225333.3333,98285.09725,31.34666667,0,-0.608088672,6.326061726,-84.24906158,1.049999952,17.05369949,-385.7523804,14
18:01.9,0.557,0.020333333,-0.096,-0.395534883,0.310543917,9.388232933,-189333.3333,135000,-224666.6667,98285.42888,31.34333333,0,-0.608088672,6.326061726,-84.24906158,1.049999952,17.05369949,-385.7523804,14
18:01.9,0.479,0.026,-0.087,-0.48052585,0.3726527,8.9044382,-185000,107000,-224000,98285.7605,31.34,0,-0.608088672,6.326061726,-84.24906158,1.109999955,19.34490204,-385.1099396,14.5
18:02.0,0.3825,0.025,-0.09,-0.485429175,0.3530394,8.781855075,-168500,76500,-228000,98285.7605,31.34,0,-0.608088672,6.326061726,-84.24906158,1.169999957,21.63610458,-384.4674988,15
18:02.0,0.286,0.024,-0.093,-0.4903325,0.3334261,8.65927195,-152000,46000,-232000,98285.7605,31.34,0,-1.447377294,16.82549977,-82.87151337,1.234999955,21.63610458,-383.8334961,15.5
18:02.0,0.258333333,0.027,-0.097333333,-0.496870267,0.330157217,8.46313895,-147000,34666.66667,-226666.6667,98285.36581,31.34,0,-2.286665916,27.32493782,-81.49396515,1.299999952,21.63610458,-383.1994934,16
18:02.1,0.230666667,0.03,-0.101666667,-0.503408033,0.326888333,8.26700595,-142000,23333.33333,-221333.3333,98284.97111,31.34,0,-2.286665916,27.32493782,-81.49396515,1.299999952,21.63610458,-383.1994934,16
18:02.1,0.203,0.033,-0.106,-0.5099458,0.32361945,8.07087295,-137000,12000,-216000,98284.57642,31.34,0,-2.286665916,27.32493782,-81.49396515,1.379999936,23.98915291,-382.5739594,17
18:02.2,0.1345,0.022,-0.1075,-0.53936575,0.34323275,7.87473995,-134000,-8500,-218000,98285.85816,31.335,0,-2.286665916,27.32493782,-81.49396515,1.459999919,26.34220123,-381.9484253,18
18:02.2,0.066,0.011,-0.109,-0.5687857,0.36284605,7.67860695,-131000,-29000,-220000,98287.13989,31.33,0,-2.286665916,27.32493782,-81.49396515,1.459999919,26.34220123,-381.9484253,18
18:02.2,0.065333333,0.014666667,-0.114,-0.572054583,0.438030367,7.956462033,-125000,-39000,-223666.6667,98287.12565,31.33,0,-2.286665916,27.32493782,-81.49396515,1.549999953,26.34220123,-381.3186798,18.5
18:02.3,0.064666667,0.018333333,-0.119,-0.575323467,0.513214683,8.234317117,-119000,-49000,-227333.3333,98287.11141,31.33,0,-2.286665916,27.32493782,-81.49396515,1.639999986,26.34220123,-380.6889343,19
18:02.3,0.064,0.022,-0.124,-0.57859235,0.588399,8.5121722,-113000,-59000,-231000,98287.09717,31.33,0,-2.899722695,28.27414894,-80.81124497,1.73999995,29.10676003,-380.0718384,19.5
18:02.4,0.061666667,0.029666667,-0.129666667,-0.643970017,0.781263117,8.6494653,-98000,-83000,-238333.3333,98288.73902,31.32333333,0,-3.512779474,29.22336006,-80.12852478,1.839999914,31.87131882,-379.4547424,20
18:02.4,0.059333333,0.037333333,-0.135333333,-0.709347683,0.974127233,8.7867584,-83000,-107000,-245666.6667,98290.38086,31.31666667,0,-3.512779474,29.22336006,-80.12852478,1.959999919,31.87131882,-378.8292084,20.5
18:02.4,0.057,0.045,-0.141,-0.77472535,1.16699135,8.9240515,-68000,-131000,-253000,98292.02271,31.31,0,-3.512779474,29.22336006,-80.12852478,2.079999924,31.87131882,-378.2036743,21
18:02.5,0.0005,0.0585,-0.1795,-0.83356525,1.132668075,8.5710121,-61000,-136000,-259500,98292.41944,31.31,0,-3.512779474,29.22336006,-80.12852478,2.079999924,31.87131882,-378.2036743,21
18:02.5,-0.056,0.072,-0.218,-0.89240515,1.0983448,8.2179727,-54000,-141000,-266000,98292.81616,31.31,0,-3.512779474,29.22336006,-80.12852478,2.329999924,31.12316132,-376.9946899,23
18:02.6,-0.0645,0.0825,-0.2505,-0.897308475,1.005181625,8.30623255,-54000,-141000,-266000,98292.81616,31.31,0,-3.512779474,29.22336006,-80.12852478,2.329999924,31.12316132,-376.9946899,23
18:02.6,-0.073,0.093,-0.283,-0.9022118,0.91201845,8.3944924,-54000,-141000,-266000,98292.81616,31.31,0,-3.512779474,29.22336006,-80.12852478,2.329999924,31.12316132,-376.9946899,23
18:02.6,-0.1335,0.1045,-0.3045,-0.95124505,0.87279185,8.369975775,-42000,-159000,-272000,98294.20777,31.31,0,-3.512779474,29.22336006,-80.12852478,2.464999915,31.12316132,-376.3902893,23.5
18:02.7,-0.194,0.116,-0.326,-1.0002783,0.83356525,8.34545915,-30000,-177000,-278000,98295.59937,31.31,0,-3.512779474,29.22336006,-80.12852478,2.599999905,31.12316132,-375.7858887,24
18:02.7,-0.196333333,0.120666667,-0.325666667,-1.075462617,0.827027483,7.84532,-22666.66667,-181666.6667,-284666.6667,98297.25749,31.30666667,0,-3.512779474,29.22336006,-80.12852478,2.744999886,31.5735817,-375.2026215,24.5
18:02.8,-0.198666667,0.125333333,-0.325333333,-1.150646933,0.820489717,7.34518085,-15333.33333,-186333.3333,-291333.3333,98298.91561,31.30333333,0,-3.512779474,29.22336006,-80.12852478,2.889999866,32.02400208,-374.6193542,25
18:02.8,-0.201,0.13,-0.325,-1.22583125,0.81395195,6.8450417,-8000,-191000,-298000,98300.57373,31.3,0,-6.214524388,28.07655239,-77.5633049,3.049999952,32.02400208,-374.0276337,25.5
18:02.8,-0.122333333,0.122333333,-0.327333333,-1.261788967,0.7256921,6.704479717,5666.666667,-198666.6667,-309000,98301.68457,31.29666667,0,-8.916269302,26.92974472,-74.99808502,3.210000038,32.02400208,-373.4359131,26
18:02.9,-0.043666667,0.114666667,-0.329666667,-1.297746683,0.63743225,6.563917733,19333.33333,-206333.3333,-320000,98302.79541,31.29333333,0,-8.916269302,26.92974472,-74.99808502,3.210000038,32.02400208,-373.4359131,26
18:02.9,0.035,0.107,-0.332,-1.3337044,0.5491724,6.42335575,33000,-214000,-331000,98303.90625,31.29,0,-8.916269302,26.92974472,-74.99808502,3.389999986,31.35333062,-372.8526459,27
18:03.0,0.074,0.0945,-0.3165,-1.34351105,0.534462425,5.91340995,42500,-217500,-329000,98305.98755,31.29,0,-8.916269302,26.92974472,-74.99808502,3.569999933,30.68265915,-372.2693787,28
18:03.0,0.113,0.082,-0.301,-1.3533177,0.51975245,5.40346415,52000,-221000,-327000,98308.06885,31.29,0,-8.916269302,26.92974472,-74.99808502,3.764999867,30.68265915,-371.6903382,28.5
18:03.0,0.078,0.077333333,-0.289,-1.340242167,0.4314926,5.57998385,58000,-224333.3333,-328333.3333,98309.16138,31.28666667,0,-8.916269302,26.92974472,-74.99808502,3.9599998,30.68265915,-371.1112976,29
18:03.1,0.043,0.072666667,-0.277,-1.327166633,0.34323275,5.75650355,64000,-227666.6667,-329666.6667,98310.25391,31.28333333,0,-8.916269302,26.92974472,-74.99808502,4.184999824,30.48439026,-370.5364838,29.5
18:03.1,0.008,0.068,-0.265,-1.3140911,0.2549729,5.93302325,70000,-231000,-331000,98311.34644,31.28,0,-8.916269302,26.92974472,-74.99808502,4.409999847,30.28612137,-369.9616699,30
18:03.2,-0.0635,0.067,-0.2415,-1.3533177,0.171616375,6.30567595,70000,-231000,-331000,98311.34644,31.28,0,-8.916269302,26.92974472,-74.99808502,4.409999847,30.28612137,-369.9616699,30
18:03.2,-0.135,0.066,-0.218,-1.3925443,0.08825985,6.67832865,70000,-231000,-331000,98311.34644,31.28,0,-8.916269302,26.92974472,-74.99808502,4.573333263,30.28612137,-369.5756429,30.66666667
18:03.2,-0.15825,0.06275,-0.2075,-1.407254275,0.125034788,6.921043238,78250,-232500,-333000,98314.55842,31.2775,0,-8.916269302,26.92974472,-74.99808502,4.736666679,30.28612137,-369.1896159,31.33333333
18:03.3,-0.1815,0.0595,-0.197,-1.42196425,0.161809725,7.163757825,86500,-234000,-335000,98317.77039,31.275,0,-8.916269302,26.92974472,-74.99808502,4.900000095,30.28612137,-368.8035889,32
18:03.3,-0.20475,0.05625,-0.1865,-1.436674225,0.198584663,7.406472413,94750,-235500,-337000,98320.98237,31.2725,0,-11.85440397,25.8453579,-72.01252747,5.170000076,31.43439293,-368.2287598,32.5
18:03.4,-0.228,0.053,-0.176,-1.4513842,0.2353596,7.649187,103000,-237000,-339000,98324.19434,31.27,0,-14.79253864,24.76097107,-69.02696991,5.440000057,32.58266449,-367.6539307,33
18:03.4,-0.228,0.034,-0.16,-1.46119085,0.85317855,7.7668668,103000,-237000,-339000,98324.19434,31.27,0,-14.79253864,24.76097107,-69.02696991,5.720000029,32.58266449,-367.0918122,33.5
18:03.4,-0.2225,0.029,-0.1585,-1.485707475,0.985568325,8.01203305,104000,-238500,-348000,98327.18506,31.265,0,-14.79253864,24.76097107,-69.02696991,6,32.58266449,-366.5296936,34
18:03.5,-0.217,0.024,-0.157,-1.5102241,1.1179581,8.2571993,105000,-240000,-357000,98330.17578,31.26,0,-14.79253864,24.76097107,-69.02696991,6,32.58266449,-366.5296936,34
18:03.5,-0.203333333,0.028666667,-0.156333333,-1.582139533,0.964320583,8.273543717,109666.6667,-232000,-359000,98335.03825,31.26,0,-14.79253864,24.76097107,-69.02696991,6.589999676,38.35039139,-365.3882751,35
18:03.6,-0.189666667,0.033333333,-0.155666667,-1.654054967,0.810683067,8.289888133,114333.3333,-224000,-361000,98339.90071,31.26,0,-14.79253864,24.76097107,-69.02696991,6.589999676,38.35039139,-365.3882751,35
18:03.6,-0.176,0.038,-0.155,-1.7259704,0.65704555,8.30623255,119000,-216000,-363000,98344.76318,31.26,0,-14.79253864,24.76097107,-69.02696991,6.894999743,38.35039139,-364.8261261,36
18:03.6,-0.1765,0.039,-0.1535,-1.760293675,0.289296175,8.419009025,119000,-216000,-363000,98344.76318,31.26,0,-14.79253864,24.76097107,-69.02696991,7.199999809,38.35039139,-364.2639771,37
18:03.7,-0.177,0.04,-0.152,-1.79461695,-0.0784532,8.5317855,119000,-216000,-363000,98344.76318,31.26,0,-14.79253864,24.76097107,-69.02696991,7.199999809,38.35039139,-364.2639771,37
18:03.7,-0.17625,0.03825,-0.152,-1.748035363,0.083356525,8.63965865,122250,-211750,-366500,98348.25134,31.2575,0,-16.9303112,19.88878059,-66.10068512,7.839999676,-50.60443878,-363.1312561,38
18:03.8,-0.1755,0.0365,-0.152,-1.701453775,0.24516625,8.7475318,125500,-207500,-370000,98351.7395,31.255,0,-16.9303112,19.88878059,-66.10068512,8.154999972,-50.60443878,-362.5775757,38.5
18:03.8,-0.17475,0.03475,-0.152,-1.654872188,0.406975975,8.85540495,128750,-203250,-373500,98355.22766,31.2525,0,-16.9303112,19.88878059,-66.10068512,8.470000267,-50.60443878,-362.0238953,39
18:03.8,-0.174,0.033,-0.152,-1.6082906,0.5687857,8.9632781,132000,-199000,-377000,98358.71582,31.25,0,-16.9303112,19.88878059,-66.10068512,8.470000267,-50.60443878,-362.0238953,39
18:03.9,-0.214,0.029,-0.124,-1.6671305,1.06892485,8.629852,132000,-199000,-377000,98358.71582,31.25,0,-16.9303112,19.88878059,-66.10068512,8.470000267,-50.60443878,-362.0238953,39
18:03.9,-0.213666667,0.029,-0.116,-1.719432633,0.849909667,8.6494653,133333.3333,-197000,-377666.6667,98361.4502,31.24666667,0,-16.9303112,19.88878059,-66.10068512,9.119999886,-61.47251129,-360.9165344,41
18:04.0,-0.213333333,0.029,-0.108,-1.771734767,0.630894483,8.6690786,134666.6667,-195000,-378333.3333,98364.18457,31.24333333,0,-17.61271763,18.04766846,-64.99150276,9.119999886,-61.47251129,-360.9165344,41
18:04.0,-0.213,0.029,-0.1,-1.8240369,0.4118793,8.6886919,136000,-193000,-379000,98366.91895,31.24,0,-18.29512405,16.20655632,-63.8823204,9.119999886,-61.47251129,-360.9165344,41
18:04.0,-0.255333333,0.028333333,-0.108666667,-1.810961367,0.251704017,9.264015367,137333.3333,-187666.6667,-381000,98369.72453,31.24,0,-18.29512405,16.20655632,-63.8823204,9.779999733,-61.47251129,-359.8005371,42
18:04.1,-0.297666667,0.027666667,-0.117333333,-1.797885833,0.091528733,9.839338833,138666.6667,-182333.3333,-383000,98372.53011,31.24,0,-18.29512405,16.20655632,-63.8823204,9.779999733,-61.47251129,-359.8005371,42
18:04.1,-0.34,0.027,-0.126,-1.7848103,-0.06864655,10.4146623,140000,-177000,-385000,98375.33569,31.24,0,-18.29512405,16.20655632,-63.8823204,9.779999733,-61.47251129,-359.8005371,42
18:04.2,-0.282,0.022,-0.126333333,-1.820768017,0.3138128,10.54541763,138000,-165000,-385000,98380.25716,31.23333333,0,-18.29512405,16.20655632,-63.8823204,10.46000004,-85.83984375,-358.6678162,43
18:04.2,-0.224,0.017,-0.126666667,-1.856725733,0.69627215,10.67617297,136000,-153000,-385000,98385.17863,31.22666667,0,-18.29512405,16.20655632,-63.8823204,10.79500008,-85.83984375,-358.1099091,44
18:04.2,-0.166,0.012,-0.127,-1.89268345,1.0787315,10.8069283,134000,-141000,-385000,98390.1001,31.22,0,-18.29512405,16.20655632,-63.8823204,11.13000011,-85.83984375,-357.552002,45
18:04.3,-0.114333333,-0.000333333,-0.115666667,-1.909027867,0.9022118,10.84942378,134666.6667,-137333.3333,-385000,98393.29224,31.22,0,-18.29512405,16.20655632,-63.8823204,11.46000004,-91.37802124,-356.9856415,45.5
18:04.3,-0.062666667,-0.012666667,-0.104333333,-1.925372283,0.7256921,10.89191927,135333.3333,-133666.6667,-385000,98396.48437,31.22,0,-18.29512405,16.20655632,-63.8823204,11.78999996,-96.91619873,-356.419281,46
18:04.4,-0.011,-0.025,-0.093,-1.9417167,0.5491724,10.93441475,136000,-130000,-385000,98399.67651,31.22,0,-18.29512405,16.20655632,-63.8823204,11.78999996,-96.91619873,-356.419281,46
18:04.4,-0.045,-0.025,-0.054,-2.04958985,0.14709975,11.1599677,136000,-130000,-385000,98399.67651,31.22,0,-18.73823643,13.68038798,-62.39203262,12.11499977,-96.91619873,-355.8613739,46.5
18:04.4,-0.071,-0.021,-0.0375,-2.04958985,0.0196133,11.28255083,135000,-125000,-384500,98401.51367,31.215,0,-19.1813488,11.15421963,-60.90174484,12.43999958,-96.91619873,-355.3034668,47
18:04.5,-0.097,-0.017,-0.021,-2.04958985,-0.10787315,11.40513395,134000,-120000,-384000,98403.35083,31.21,0,-19.1813488,11.15421963,-60.90174484,12.43999958,-96.91619873,-355.3034668,47
18:04.5,-0.053333333,-0.011,-0.018666667,-2.062665383,-0.026151067,10.68271073,135000,-117333.3333,-388000,98409.93449,31.21,0,-19.1813488,11.15421963,-60.90174484,13.06999969,-132.2111206,-354.1453857,49
18:04.6,-0.009666667,-0.005,-0.016333333,-2.075740917,0.055571017,9.960287517,136000,-114666.6667,-392000,98416.51815,31.21,0,-19.1813488,11.15421963,-60.90174484,13.06999969,-132.2111206,-354.1453857,49
18:04.6,0.034,0.001,-0.014,-2.08881645,0.1372931,9.2378643,137000,-112000,-396000,98423.10181,31.21,0,-19.1813488,11.15421963,-60.90174484,13.06999969,-132.2111206,-354.1453857,49
18:04.6,0.016,-0.01,-0.008333333,-2.092085333,0.111142033,9.515719383,137000,-112000,-396000,98423.10181,31.21,0,-19.1813488,11.15421963,-60.90174484,13.69999981,-132.2111206,-353.0042114,50
18:04.7,-0.002,-0.021,-0.002666667,-2.095354217,0.084990967,9.793574467,137000,-112000,-396000,98423.10181,31.21,0,-19.1813488,11.15421963,-60.90174484,13.69999981,-132.2111206,-353.0042114,50
18:04.7,-0.02,-0.032,0.003,-2.0986231,0.0588399,10.07142955,137000,-112000,-396000,98423.10181,31.21,0,-19.1813488,11.15421963,-60.90174484,14.00499964,-146.0558014,-352.4377289,50.5
18:04.8,-0.037666667,-0.038666667,0.015333333,-2.06920315,0.379190467,10.18584047,138000,-115000,-396000,98427.33765,31.20666667,0,-19.1813488,11.15421963,-60.90174484,14.30999947,-159.9004822,-351.8712463,51
18:04.8,-0.055333333,-0.045333333,0.027666667,-2.0397832,0.699541033,10.30025138,139000,-118000,-396000,98431.57349,31.20333333,0,-18.90726089,10.57516479,-60.43216324,14.93999958,-159.9004822,-350.7216187,53
18:04.8,-0.073,-0.052,0.04,-2.01036325,1.0198916,10.4146623,140000,-121000,-396000,98435.80933,31.2,0,-18.90726089,10.57516479,-60.43216324,14.93999958,-159.9004822,-350.7216187,53
18:04.9,-0.078666667,-0.056666667,0.028333333,-1.99074995,1.046042667,10.591182,138333.3333,-117000,-391000,98438.84278,31.2,0,-18.90726089,10.57516479,-60.43216324,14.93999958,-159.9004822,-350.7216187,53
18:04.9,-0.084333333,-0.061333333,0.016666667,-1.97113665,1.072193733,10.7677017,136666.6667,-113000,-386000,98441.87622,31.2,0,-18.90726089,10.57516479,-60.43216324,15.24999953,-154.7104874,-350.1468049,53.5
18:05.0,-0.09,-0.066,0.005,-1.95152335,1.0983448,10.9442214,135000,-109000,-381000,98444.90967,31.2,0,-18.90726089,10.57516479,-60.43216324,15.55999947,-149.5204926,-349.571991,54
18:05.0,-0.112,-0.054,-0.033,-1.7848103,0.77472535,12.0229529,135000,-109000,-381000,98444.90967,31.2,0,-18.90726089,10.57516479,-60.43216324,15.55999947,-149.5204926,-349.571991,54
18:05.0,-0.173,-0.0405,-0.044,-1.770100325,0.57859235,11.62088025,134000,-107000,-386500,98448.25745,31.195,0,-18.90726089,10.57516479,-60.43216324,16.19000053,-149.5204926,-348.4053345,56
18:05.1,-0.234,-0.027,-0.055,-1.75539035,0.38245935,11.2188076,133000,-105000,-392000,98451.60522,31.19,0,-18.90726089,10.57516479,-60.43216324,16.19000053,-149.5204926,-348.4053345,56
18:05.1,-0.227333333,-0.025666667,-0.062333333,-1.807692483,0.232090717,11.12400998,133333.3333,-102333.3333,-395333.3333,98453.35286,31.18666667,0,-18.90726089,10.57516479,-60.43216324,16.77999878,-175.7333679,-347.2472534,57
18:05.2,-0.220666667,-0.024333333,-0.069666667,-1.859994617,0.081722083,11.02921237,133666.6667,-99666.66667,-398666.6667,98455.1005,31.18333333,0,-18.270504,7.744466305,-59.95832443,16.77999878,-175.7333679,-347.2472534,57
18:05.2,-0.214,-0.023,-0.077,-1.91229675,-0.06864655,10.93441475,134000,-97000,-402000,98456.84814,31.18,0,-18.270504,7.744466305,-59.95832443,16.77999878,-175.7333679,-347.2472534,57
18:05.2,-0.21,-0.037,-0.071,-1.915565633,0.268048433,10.98998577,129000,-88000,-397666.6667,98462.60986,31.17666667,0,-18.270504,7.744466305,-59.95832443,17.37999916,-175.7333679,-346.0637817,59
18:05.3,-0.206,-0.051,-0.065,-1.918834517,0.604743417,11.04555678,124000,-79000,-393333.3333,98468.37158,31.17333333,0,-18.270504,7.744466305,-59.95832443,17.37999916,-175.7333679,-346.0637817,59
18:05.3,-0.202,-0.065,-0.059,-1.9221034,0.9414384,11.1011278,119000,-70000,-389000,98474.1333,31.17,0,-18.270504,7.744466305,-59.95832443,17.66499901,-187.9223786,-345.4805145,59.5
18:05.4,-0.182666667,-0.051333333,-0.073333333,-1.869801267,0.7256921,11.31033633,116000,-64000,-392333.3333,98476.04167,31.17,0,-18.270504,7.744466305,-59.95832443,17.94999886,-200.1113892,-344.8972473,60
18:05.4,-0.163333333,-0.037666667,-0.087666667,-1.817499133,0.5099458,11.51954487,113000,-58000,-395666.6667,98477.95003,31.17,0,-18.270504,7.744466305,-59.95832443,18.22999955,-200.1113892,-344.3054199,61
18:05.4,-0.144,-0.024,-0.102,-1.765197,0.2941995,11.7287534,110000,-52000,-399000,98479.8584,31.17,0,-18.270504,7.744466305,-59.95832443,18.51000023,-200.1113892,-343.7135925,62
18:05.5,-0.105,-0.0075,-0.112,-1.87307015,0.230456275,11.05209455,110000,-52000,-399000,98479.8584,31.17,0,-18.12365771,6.707702697,-59.46439934,18.6500001,-206.3494683,-343.4113922,62.25
18:05.5,-0.066,0.009,-0.122,-1.9809433,0.16671305,10.3754357,110000,-52000,-399000,98479.8584,31.17,0,-17.97681141,5.670939088,-58.97047424,18.78999996,-212.5875473,-343.1091919,62.5
18:05.6,-0.027,-0.008,-0.1185,-1.9809433,0.3726527,9.978266375,111000,-45500,-397500,98483.32215,31.165,0,-17.82996512,4.63417548,-58.47654915,18.92999983,-218.8256264,-342.8069916,62.75
18:05.6,0.012,-0.025,-0.115,-1.9809433,0.57859235,9.58109705,112000,-39000,-396000,98486.78589,31.16,0,-17.68311882,3.597411871,-57.98262405,19.06999969,-225.0637054,-342.5047913,63
18:05.6,0.0315,-0.033,-0.1055,-1.8828768,0.181423025,9.811553325,114000,-37500,-401000,98489.4104,31.16,0,-17.68311882,3.597411871,-57.98262405,19.6099987,-225.0637054,-341.3044434,65
18:05.7,0.051,-0.041,-0.096,-1.7848103,-0.2157463,10.0420096,116000,-36000,-406000,98492.03491,31.16,0,-17.68311882,3.597411871,-57.98262405,19.88499928,-237.5986099,-340.695694,65.5
18:05.7,0.06625,-0.0435,-0.0825,-1.81423025,-0.061291563,10.01258965,115500,-34750,-405500,98495.48798,31.1575,0,-17.68311882,3.597411871,-57.98262405,20.15999985,-250.1335144,-340.0869446,66
18:05.8,0.0815,-0.046,-0.069,-1.8436502,0.093163175,9.9831697,115000,-33500,-405000,98498.94104,31.155,0,-17.40809822,3.610843897,-56.41461563,20.15999985,-250.1335144,-340.0869446,66
18:05.8,0.09675,-0.0485,-0.0555,-1.87307015,0.247617912,9.95374975,114500,-32250,-404500,98502.39411,31.1525,0,-17.40809822,3.610843897,-56.41461563,20.43499947,-250.1335144,-339.4783173,67
18:05.8,0.112,-0.051,-0.042,-1.9024901,0.40207265,9.9243298,114000,-31000,-404000,98505.84717,31.15,0,-17.40809822,3.610843897,-56.41461563,20.70999908,-250.1335144,-338.8696899,68
18:05.9,0.138,-0.061,-0.041,-1.77500365,-0.3138128,11.6895268,114000,-31000,-404000,98505.84717,31.15,0,-17.40809822,3.610843897,-56.41461563,20.70999908,-250.1335144,-338.8696899,68
18:05.9,0.117666667,-0.052,-0.013,-1.846919083,0.10787315,11.27437862,112000,-34000,-399333.3333,98511.41561,31.14666667,0,-17.40809822,3.610843897,-56.41461563,21.25,-261.6720276,-337.6608887,70
18:06.0,0.097333333,-0.043,0.015,-1.918834517,0.5295591,10.85923043,110000,-37000,-394666.6667,98516.98405,31.14333333,0,-17.40809822,3.610843897,-56.41461563,21.25,-261.6720276,-337.6608887,70
18:06.0,0.077,-0.034,0.043,-1.99074995,0.95124505,10.44408225,108000,-40000,-390000,98522.55249,31.14,0,-17.40809822,3.610843897,-56.41461563,21.25,-261.6720276,-337.6608887,70
18:06.0,0.013666667,-0.042333333,0.03,-1.928641167,0.797607533,10.84942378,108000,-40000,-390000,98522.55249,31.14,0,-17.40809822,3.610843897,-56.41461563,21.78999901,-261.6720276,-336.4436646,71
18:06.1,-0.049666667,-0.050666667,0.017,-1.866532383,0.643970017,11.25476532,108000,-40000,-390000,98522.55249,31.14,0,-17.40809822,3.610843897,-56.41461563,22.05999947,-269.3964081,-335.8307343,72
18:06.1,-0.113,-0.059,0.004,-1.8044236,0.4903325,11.66010685,108000,-40000,-390000,98522.55249,31.14,0,-17.40809822,3.610843897,-56.41461563,22.32999992,-277.1207886,-335.217804,73
18:06.2,-0.134,-0.0245,-0.021,-1.828940225,0.348136075,9.5320638,112500,-41000,-392500,98523.9624,31.14,0,-16.44001007,4.76191473,-55.9973793,22.32999992,-277.1207886,-335.217804,73
18:06.2,-0.155,0.01,-0.046,-1.85345685,0.20593965,7.40402075,117000,-42000,-395000,98525.37231,31.14,0,-16.44001007,4.76191473,-55.9973793,22.59499931,-277.1207886,-334.5964966,73.5
18:06.2,-0.070333333,-0.012,-0.031,-1.8240369,-0.035957717,8.7083052,115666.6667,-39000,-396666.6667,98529.56746,31.13666667,0,-16.44001007,4.76191473,-55.9973793,22.8599987,-277.1207886,-333.9751892,74
18:06.3,0.014333333,-0.034,-0.016,-1.79461695,-0.277855083,10.01258965,114333.3333,-36000,-398333.3333,98533.76261,31.13333333,0,-16.44001007,4.76191473,-55.9973793,23.12999916,-253.8414994,-333.3623352,75
18:06.3,0.099,-0.056,-0.001,-1.765197,-0.51975245,11.3168741,113000,-33000,-400000,98537.95776,31.13,0,-16.44001007,4.76191473,-55.9973793,23.39999962,-230.5622101,-332.7494812,76
18:06.4,0.1535,-0.057,0.0225,-1.819133575,-0.308909475,11.964113,113000,-33000,-400000,98537.95776,31.13,0,-16.44001007,4.76191473,-55.9973793,23.39999962,-230.5622101,-332.7494812,76
18:06.4,0.208,-0.058,0.046,-1.87307015,-0.0980665,12.6113519,113000,-33000,-400000,98537.95776,31.13,0,-16.44001007,4.76191473,-55.9973793,23.66499997,-230.5622101,-332.1323395,76.5
18:06.4,0.129,-0.048,0.078,-1.77500365,-0.4314926,11.39042398,109500,-30500,-396500,98541.0553,31.13,0,-16.44001007,4.76191473,-55.9973793,23.93000031,-230.5622101,-331.5151978,77
18:06.5,0.05,-0.038,0.11,-1.67693715,-0.7649187,10.16949605,106000,-28000,-393000,98544.15283,31.13,0,-16.44001007,4.76191473,-55.9973793,23.93000031,-230.5622101,-331.5151978,77
18:06.5,0.063,-0.035666667,0.147,-1.7259704,-0.523021333,10.15642052,103333.3333,-24333.33333,-390666.6667,98548.20353,31.12666667,0,-16.44001007,4.76191473,-55.9973793,24.46999931,-234.5104218,-330.2894897,79
18:06.6,0.076,-0.033333333,0.184,-1.77500365,-0.281123967,10.14334498,100666.6667,-20666.66667,-388333.3333,98552.25423,31.12333333,0,-16.44001007,4.76191473,-55.9973793,24.46999931,-234.5104218,-330.2894897,79
18:06.6,0.089,-0.031,0.221,-1.8240369,-0.0392266,10.13026945,98000,-17000,-386000,98556.30493,31.12,0,-15.98693307,5.432793299,-56.57850138,24.64666621,-234.5104218,-329.8781026,79.66666667
18:06.6,0.049,-0.026666667,0.221666667,-1.830574667,0.36284605,9.264015367,94000,-22000,-386333.3333,98560.28646,31.11666667,0,-15.53385608,6.103671869,-57.15962346,24.8233331,-234.5104218,-329.4667155,80.33333333
18:06.7,0.009,-0.022333333,0.222333333,-1.837112433,0.7649187,8.397761283,90000,-27000,-386666.6667,98564.26798,31.11333333,0,-15.08077908,6.774550438,-57.74074554,25,-234.5104218,-329.0553284,81
18:06.7,-0.031,-0.018,0.223,-1.8436502,1.16699135,7.5315072,86000,-32000,-387000,98568.24951,31.11,0,-15.08077908,6.774550438,-57.74074554,25.52999878,-263.5128174,-327.8127136,82
18:06.8,-0.1,-0.018666667,0.185666667,-1.859994617,1.18660465,8.44352565,86000,-32000,-387000,98568.24951,31.11,0,-15.08077908,6.774550438,-57.74074554,25.52999878,-263.5128174,-327.8127136,82
18:06.8,-0.169,-0.019333333,0.148333333,-1.876339033,1.20621795,9.3555441,86000,-32000,-387000,98568.24951,31.11,0,-15.08077908,6.774550438,-57.74074554,25.52999878,-263.5128174,-327.8127136,82
18:06.8,-0.238,-0.02,0.111,-1.89268345,1.22583125,10.26756255,86000,-32000,-387000,98568.24951,31.11,0,-15.08077908,6.774550438,-57.74074554,26.06999969,-263.5128174,-326.5777893,84
18:06.9,-0.2975,-0.027,0.0365,-1.779906975,1.014988275,10.5715687,76000,-23500,-383000,98572.63184,31.105,0,-15.08077908,6.774550438,-57.74074554,26.06999969,-263.5128174,-326.5777893,84
18:06.9,-0.357,-0.034,-0.038,-1.6671305,0.8041453,10.87557485,66000,-15000,-379000,98577.01416,31.1,0,-15.08077908,6.774550438,-57.74074554,26.33499908,-265.8148804,-325.969162,85
18:07.0,-0.297,-0.0295,-0.073,-1.65732385,0.67665885,10.69415183,66000,-15000,-379000,98577.01416,31.1,0,-15.08077908,6.774550438,-57.74074554,26.59999847,-268.1169434,-325.3605347,86
18:07.0,-0.237,-0.025,-0.108,-1.6475172,0.5491724,10.5127288,66000,-15000,-379000,98577.01416,31.1,0,-15.08077908,6.774550438,-57.74074554,26.59999847,-268.1169434,-325.3605347,86
18:07.0,-0.206333333,-0.036666667,-0.127,-1.63771055,0.513214683,10.53887987,63333.33333,2000,-378666.6667,98579.35791,31.1,0,-15.08077908,6.774550438,-57.74074554,27.14999962,-268.1169434,-324.1094666,87
18:07.1,-0.175666667,-0.048333333,-0.146,-1.6279039,0.477256967,10.56503093,60666.66667,19000,-378333.3333,98581.70166,31.1,0,-14.15176773,1.994529247,-58.78749466,27.14999962,-268.1169434,-324.1094666,87
18:07.1,-0.145,-0.06,-0.165,-1.61809725,0.44129925,10.591182,58000,36000,-378000,98584.04541,31.1,0,-14.15176773,1.994529247,-58.78749466,27.67000008,-272.1853333,-322.8753052,89
18:07.2,-0.1815,-0.087,-0.169,-1.57887065,0.5687857,10.44898558,43500,69500,-365500,98585.11048,31.1,0,-14.15176773,1.994529247,-58.78749466,27.67000008,-272.1853333,-322.8753052,89
18:07.2,-0.218,-0.114,-0.173,-1.53964405,0.69627215,10.30678915,29000,103000,-353000,98586.17554,31.1,0,-14.15176773,1.994529247,-58.78749466,27.92999936,-272.1853333,-322.2497712,90
18:07.2,-0.218,-0.1285,-0.174,-1.407254275,0.48052585,10.12536613,23500,120500,-346500,98592.59339,31.095,0,-14.15176773,1.994529247,-58.78749466,28.18999863,-272.1853333,-321.6242371,91
18:07.3,-0.218,-0.143,-0.175,-1.2748645,0.26477955,9.9439431,18000,138000,-340000,98599.01123,31.09,0,-14.15176773,1.994529247,-58.78749466,28.18999863,-272.1853333,-321.6242371,91
18:07.3,-0.202,-0.161333333,-0.177333333,-1.20621795,0.20593965,10.32313357,11666.66667,164333.3333,-325666.6667,98600.09562,31.08666667,0,-14.15176773,1.994529247,-58.78749466,28.44999886,-276.3895112,-320.9944916,91.5
18:07.4,-0.186,-0.179666667,-0.179666667,-1.1375714,0.14709975,10.70232403,5333.333333,190666.6667,-311333.3333,98601.18001,31.08333333,0,-14.15176773,1.994529247,-58.78749466,28.70999908,-280.593689,-320.3647461,92
18:07.4,-0.17,-0.198,-0.182,-1.06892485,0.08825985,11.0815145,-1000,217000,-297000,98602.2644,31.08,0,-14.15176773,1.994529247,-58.78749466,28.70999908,-280.593689,-320.3647461,92
18:07.4,-0.1355,-0.2155,-0.1475,-0.95124505,0.024516625,11.39042398,-22500,272000,-274500,98606.14014,31.08,0,-14.15176773,1.994529247,-58.78749466,29.22999954,-280.593689,-319.0883179,94
18:07.5,-0.101,-0.233,-0.113,-0.83356525,-0.0392266,11.69933345,-44000,327000,-252000,98610.01587,31.08,0,-14.15176773,1.994529247,-58.78749466,29.22999954,-280.593689,-319.0883179,94
18:07.5,-0.023333333,-0.242,-0.097,-0.69627215,-0.02941995,12.37926118,-56000,358333.3333,-241333.3333,98612.97607,31.07666667,0,-10.65364361,-3.431737185,-54.65391922,29.73999977,-285.1066589,-317.7950134,96
18:07.6,0.054333333,-0.251,-0.081,-0.55897905,-0.0196133,13.05918892,-68000,389666.6667,-230666.6667,98615.93628,31.07333333,0,-10.65364361,-3.431737185,-54.65391922,29.73999977,-285.1066589,-317.7950134,96
18:07.6,0.132,-0.26,-0.065,-0.42168595,-0.00980665,13.73911665,-80000,421000,-220000,98618.89648,31.07,0,-10.65364361,-3.431737185,-54.65391922,29.97999954,-285.1066589,-317.1525726,96.5
18:07.6,0.141,-0.260333333,-0.032333333,-0.346501633,-0.140561983,13.65412568,-104666.6667,476333.3333,-189000,98621.28499,31.07,0,-10.65364361,-3.431737185,-54.65391922,30.21999931,-285.1066589,-316.5101318,97
18:07.7,0.15,-0.260666667,0.000333333,-0.271317317,-0.271317317,13.56913472,-129333.3333,531666.6667,-158000,98623.6735,31.07,0,-10.65364361,-3.431737185,-54.65391922,30.21999931,-285.1066589,-316.5101318,97
18:07.7,0.159,-0.261,0.033,-0.196133,-0.40207265,13.48414375,-154000,587000,-127000,98626.06201,31.07,0,-10.65364361,-3.431737185,-54.65391922,30.65999985,-298.5433655,-315.1998901,99
18:07.8,0.3,-0.2855,0.065,0.0392266,-0.201036325,14.66584508,-167000,612000,-111500,98630.84717,31.07,0,-10.65364361,-3.431737185,-54.65391922,30.65999985,-298.5433655,-315.1998901,99
18:07.8,0.441,-0.31,0.097,0.2745862,1.94E-15,15.8475464,-180000,637000,-96000,98635.63232,31.07,0,-10.65364361,-3.431737185,-54.65391922,30.875,-298.5433655,-314.5363159,100
18:07.8,0.384333333,-0.309,0.114666667,0.38245935,-0.003268883,15.81158868,-205666.6667,452000,-82000,98636.98323,31.07,0,-10.65364361,-3.431737185,-54.65391922,31.09000015,-298.5433655,-313.8727417,101
18:07.9,0.327666667,-0.308,0.132333333,0.4903325,-0.006537767,15.77563097,-231333.3333,267000,-68000,98638.33415,31.07,0,-7.543869973,-0.93679297,-54.84630013,31.17999983,-307.4885407,-313.5451813,101.25
18:07.9,0.271,-0.307,0.15,0.59820565,-0.00980665,15.73967325,-257000,82000,-54000,98639.68506,31.07,0,-4.434096336,1.558151245,-55.03868103,31.26999951,-316.4337159,-313.2176209,101.5
18:08.0,0.2405,-0.305,0.1505,0.6080123,0.18632635,15.83283643,-296000,718000,-14000,98643.08472,31.065,0,-4.434096336,1.558151245,-55.03868103,31.44999886,-334.3240662,-312.5625,102
18:08.0,0.21,-0.303,0.151,0.61781895,0.38245935,15.9259996,-335000,1354000,26000,98646.48438,31.06,0,-4.434096336,1.558151245,-55.03868103,31.60999871,-334.3240662,-311.9031525,103
18:08.0,0.1915,-0.311,0.1525,0.7453054,0.55897905,16.19568247,-339000,1208500,29500,98646.78345,31.06,0,-4.434096336,1.558151245,-55.03868103,31.76999855,-334.3240662,-311.2438049,104
18:08.1,0.173,-0.319,0.154,0.87279185,0.73549875,16.46536535,-343000,1063000,33000,98647.08252,31.06,0,-4.434096336,1.558151245,-55.03868103,31.76999855,-334.3240662,-311.2438049,104
18:08.1,0.149,-0.322,0.129333333,0.934900633,0.742036517,16.77917815,-360666.6667,1073333.333,51000,98652.22371,31.05666667,0,-4.434096336,1.558151245,-55.03868103,31.76999855,-334.3240662,-311.2438049,104
18:08.2,0.125,-0.325,0.104666667,0.997009417,0.748574283,17.09299095,-378333.3333,1083666.667,69000,98657.36491,31.05333333,0,-4.434096336,1.558151245,-55.03868103,32.00999832,-274.4203491,-309.8997803,106
18:08.2,0.101,-0.328,0.08,1.0591182,0.75511205,17.40680375,-396000,1094000,87000,98662.5061,31.05,0,-4.434096336,1.558151245,-55.03868103,32.00999832,-274.4203491,-309.8997803,106
18:08.2,0.1185,-0.322,0.06,1.299381125,0.67665885,17.71571323,-416000,1268500,101000,98662.5061,31.05,0,-4.434096336,1.558151245,-55.03868103,32.09999848,-274.4203491,-309.2362061,107
18:08.3,0.136,-0.316,0.04,1.53964405,0.59820565,18.0246227,-436000,1443000,115000,98662.5061,31.05,0,-4.434096336,1.558151245,-55.03868103,32.18999863,-274.4203491,-308.5726318,108
18:08.3,0.06125,-0.30825,0.0375,1.429319238,0.772273688,18.61057004,-455750,1219500,138750,98662.02392,31.0475,0,-0.354480982,3.744574785,-56.26371384,32.2349987,-282.4277802,-307.9090576,108.5
18:08.4,-0.0135,-0.3005,0.035,1.318994425,0.946341725,19.19651738,-475500,996000,162500,98661.54175,31.045,0,3.725134373,5.930998325,-57.48874664,32.27999878,-290.4352112,-307.2454834,109
18:08.4,-0.08825,-0.29275,0.0325,1.208669613,1.120409763,19.78246471,-495250,772500,186250,98661.05957,31.0425,0,3.725134373,5.930998325,-57.48874664,32.28999901,-290.4352112,-306.5819245,110
18:08.4,-0.163,-0.285,0.03,1.0983448,1.2944778,20.36841205,-515000,549000,210000,98660.57739,31.04,0,3.725134373,5.930998325,-57.48874664,32.29999924,-290.4352112,-305.9183655,111
18:08.5,-0.049,-0.202,-0.062,1.26505785,0.8825985,15.8671597,-515000,549000,210000,98660.57739,31.04,0,3.725134373,5.930998325,-57.48874664,32.29999924,-290.4352112,-305.9183655,111
18:08.5,-0.087,-0.192333333,-0.085333333,1.30428445,0.8237586,14.8668814,-525000,805333.3333,215333.3333,98660.65267,31.03666667,0,3.725134373,5.930998325,-57.48874664,32.26499939,-290.2123413,-305.2631073,112
18:08.6,-0.125,-0.182666667,-0.108666667,1.34351105,0.7649187,13.8666031,-535000,1061666.667,220666.6667,98660.72794,31.03333333,0,3.725134373,5.930998325,-57.48874664,32.22999954,-289.9894714,-304.6078491,113
18:08.6,-0.163,-0.173,-0.132,1.38273765,0.7060788,12.8663248,-545000,1318000,226000,98660.80322,31.03,0,3.725134373,5.930998325,-57.48874664,32.22999954,-289.9894714,-304.6078491,113
18:08.6,-0.104666667,-0.161333333,-0.15,1.366393233,0.604743417,12.6309652,-541333.3333,1200000,214666.6667,98662.06868,31.03333333,0,3.725134373,5.930998325,-57.48874664,32.11000061,-289.9894714,-303.2976379,115
18:08.7,-0.046333333,-0.149666667,-0.168,1.350048817,0.503408033,12.3956056,-537666.6667,1082000,203333.3333,98663.33415,31.03666667,0,3.725134373,5.930998325,-57.48874664,32.11000061,-289.9894714,-303.2976379,115
18:08.7,0.012,-0.138,-0.186,1.3337044,0.40207265,12.160246,-534000,964000,192000,98664.59961,31.04,0,6.09945941,5.692925453,-56.4696846,32.03499985,-283.638382,-302.6636657,115.5
18:08.8,0.036,-0.1495,-0.171,1.2944778,0.269682875,12.84180818,-545000,1149000,186500,98660.80017,31.03,0,8.473784447,5.454852581,-55.45062256,31.95999908,-277.2872925,-302.0296936,116
18:08.8,0.06,-0.161,-0.156,1.2552512,0.1372931,13.52337035,-556000,1334000,181000,98657.00073,31.02,0,8.473784447,5.454852581,-55.45062256,31.77999878,-277.2872925,-300.7532349,118
18:08.8,0.055,-0.149,-0.128,1.247896213,0.169164712,12.93742301,-551750,1137000,185000,98655.71289,31.02,0,8.473784447,5.454852581,-55.45062256,31.77999878,-277.2872925,-300.7532349,118
18:08.9,0.05,-0.137,-0.1,1.240541225,0.201036325,12.35147568,-547500,940000,189000,98654.42505,31.02,0,8.473784447,5.454852581,-55.45062256,31.7166659,-271.9802857,-300.3305868,118.6666667
18:08.9,0.045,-0.125,-0.072,1.233186238,0.232907938,11.76552834,-543250,743000,193000,98653.13721,31.02,0,8.473784447,5.454852581,-55.45062256,31.65333303,-266.6732788,-299.9079386,119.3333333
18:09.0,0.04,-0.113,-0.044,1.22583125,0.26477955,11.179581,-539000,546000,197000,98651.84937,31.02,0,8.473784447,5.454852581,-55.45062256,31.59000015,-261.366272,-299.4852905,120
18:09.0,-0.047,-0.1145,-0.029,1.230734575,0.24516625,11.93959638,-554000,874000,201500,98652.31324,31.015,0,8.473784447,5.454852581,-55.45062256,31.59000015,-261.366272,-299.4852905,120
18:09.0,-0.134,-0.116,-0.014,1.2356379,0.22555295,12.69961175,-569000,1202000,206000,98652.7771,31.01,0,8.473784447,5.454852581,-55.45062256,31.38999939,-261.366272,-298.2593994,121
18:09.1,-0.016,-0.1295,0.0065,1.4513842,0.2549729,13.9450563,-571000,1182000,194500,98651.52283,31.01,0,8.473784447,5.454852581,-55.45062256,31.26999951,-246.7519761,-297.6465607,122
18:09.1,0.102,-0.143,0.027,1.6671305,0.28439285,15.19050085,-573000,1162000,183000,98650.26855,31.01,0,8.473784447,5.454852581,-55.45062256,31.14999962,-232.1376801,-297.0337219,123
18:09.2,0.065,-0.1055,0.0345,1.40235095,0.367749375,14.0627361,-573000,1162000,183000,98650.26855,31.01,0,8.473784447,5.454852581,-55.45062256,31.14999962,-232.1376801,-297.0337219,123
18:09.2,0.028,-0.068,0.042,1.1375714,0.4511059,12.93497135,-573000,1162000,183000,98650.26855,31.01,0,11.85196114,6.900585175,-53.30582047,31.14999962,-232.1376801,-297.0337219,123
18:09.2,-0.053,-0.072,0.046,1.1571847,0.552441283,12.51982317,-567333.3333,1288333.333,164666.6667,98645.50374,31.00666667,0,11.85196114,6.900585175,-53.30582047,30.87999916,-232.1376801,-295.8502808,125
18:09.3,-0.134,-0.076,0.05,1.176798,0.653776667,12.10467498,-561666.6667,1414666.667,146333.3333,98640.73893,31.00333333,0,11.85196114,6.900585175,-53.30582047,30.87999916,-232.1376801,-295.8502808,125
18:09.3,-0.215,-0.08,0.054,1.1964113,0.75511205,11.6895268,-556000,1541000,128000,98635.97412,31,0,11.85196114,6.900585175,-53.30582047,30.72999954,-222.3268509,-295.2630005,125.5
18:09.4,-0.248,-0.0635,0.033,1.36312435,0.69627215,11.44926388,-554500,1572500,127000,98636.72486,31,0,11.85196114,6.900585175,-53.30582047,30.57999992,-212.5160217,-294.6757202,126
18:09.4,-0.281,-0.047,0.012,1.5298374,0.63743225,11.20900095,-553000,1604000,126000,98637.47559,31,0,11.85196114,6.900585175,-53.30582047,30.47666613,-212.5160217,-294.292511,126.6666667
18:09.4,-0.282,-0.025666667,0.008,1.467728617,0.748574283,10.74155063,-553000,1604000,126000,98637.47559,31,0,11.85196114,6.900585175,-53.30582047,30.37333234,-212.5160217,-293.9093017,127.3333333
18:09.5,-0.283,-0.004333333,0.004,1.405619833,0.859716317,10.27410032,-553000,1604000,126000,98637.47559,31,0,11.85196114,6.900585175,-53.30582047,30.26999855,-212.5160217,-293.5260925,128
18:09.5,-0.284,0.017,-2.08E-18,1.34351105,0.97085835,9.80665,-553000,1604000,126000,98637.47559,31,0,12.93589401,3.542988062,-53.93032837,29.9299984,-176.6229553,-292.3849182,129
18:09.6,-0.309666667,0.027333333,-0.031333333,1.320628867,0.722423217,8.95347145,-544000,1398333.333,112666.6667,98633.02409,30.99333333,0,12.93589401,3.542988062,-53.93032837,29.9299984,-176.6229553,-292.3849182,129
18:09.6,-0.335333333,0.037666667,-0.062666667,1.297746683,0.473988083,8.1002929,-535000,1192666.667,99333.33333,98628.57259,30.98666667,0,12.93589401,3.542988062,-53.93032837,29.9299984,-176.6229553,-292.3849182,129
18:09.6,-0.361,0.048,-0.094,1.2748645,0.22555295,7.24711435,-526000,987000,86000,98624.12109,30.98,0,12.93589401,3.542988062,-53.93032837,29.6099987,-176.6229553,-291.2437744,131
18:09.7,-0.252,0.035,-0.071,1.26505785,0.12748645,7.1784678,-526000,987000,86000,98624.12109,30.98,0,12.93589401,3.542988062,-53.93032837,29.6099987,-176.6229553,-291.2437744,131
18:09.7,-0.179333333,0.032,-0.067333333,1.242175667,-0.006537767,7.587078217,-522666.6667,1082000,67000,98621.4681,30.98,0,12.93589401,3.542988062,-53.93032837,29.45499897,-162.1385498,-290.6731873,132
18:09.8,-0.106666667,0.029,-0.063666667,1.219293483,-0.140561983,7.995688633,-519333.3333,1177000,48000,98618.8151,30.98,0,12.93589401,3.542988062,-53.93032837,29.29999924,-147.6541443,-290.1026001,133
18:09.8,-0.034,0.026,-0.06,1.1964113,-0.2745862,8.40429905,-516000,1272000,29000,98616.16211,30.98,0,12.93589401,3.542988062,-53.93032837,29.29999924,-147.6541443,-290.1026001,133
18:09.8,0.071,0.0165,-0.05,1.240541225,-0.357942725,8.3944924,-491500,985000,11000,98615.12757,30.98,0,12.93589401,3.542988062,-53.93032837,29.01999855,-147.6541443,-288.978302,134
18:09.9,0.176,0.007,-0.04,1.28467115,-0.44129925,8.38468575,-467000,698000,-7000,98614.09302,30.98,0,12.93589401,3.542988062,-53.93032837,29.01999855,-147.6541443,-288.978302,134
18:09.9,0.088666667,0.002666667,-0.009333333,1.278133383,-0.124217567,8.780220633,-466333.3333,763333.3333,-8333.333333,98611.07381,30.97666667,0,12.71054268,2.695688948,-53.56891823,28.88499928,-140.1799164,-288.4119416,135
18:10.0,0.001333333,-0.001666667,0.021333333,1.271595617,0.192864117,9.175755517,-465666.6667,828666.6667,-9666.666667,98608.05461,30.97333333,0,12.48519135,1.848389834,-53.20750809,28.75,-132.7056885,-287.8455811,136
18:10.0,-0.086,-0.006,0.052,1.26505785,0.5099458,9.5712904,-465000,894000,-11000,98605.0354,30.97,0,12.25984001,1.00109072,-52.84609795,28.625,-132.7056885,-287.2919007,136.5
18:10.0,-0.248,-0.015333333,0.060333333,1.369662117,0.6668522,10.87230597,-461666.6667,879000,-12666.66667,98601.0966,30.96666667,0,12.03448868,0.153791606,-52.48468781,28.5,-132.7056885,-286.7382202,137
18:10.1,-0.41,-0.024666667,0.068666667,1.474266383,0.8237586,12.17332153,-458333.3333,864000,-14333.33333,98597.15779,30.96333333,0,12.03448868,0.153791606,-52.48468781,28.5,-132.7056885,-286.7382202,137
18:10.1,-0.572,-0.034,0.077,1.57887065,0.980665,13.4743371,-455000,849000,-16000,98593.21899,30.96,0,12.03448868,0.153791606,-52.48468781,28.36999989,-126.6854287,-286.1803284,138
18:10.2,-0.432,-0.029,0.0745,1.7259704,1.064021525,16.40652545,-446000,848500,-27000,98593.46008,30.96,0,12.03448868,0.153791606,-52.48468781,28.23999977,-120.6651688,-285.6224365,139
18:10.2,-0.292,-0.024,0.072,1.87307015,1.14737805,19.3387138,-437000,848000,-38000,98593.70117,30.96,0,12.03448868,0.153791606,-52.48468781,28.08500004,-120.6651688,-285.0602875,139.5
18:10.2,-0.253333333,-0.008666667,0.048333333,1.722701517,1.134302517,18.60648393,-437000,848000,-38000,98593.70117,30.96,0,12.03448868,0.153791606,-52.48468781,27.93000031,-120.6651688,-284.4981384,140
18:10.3,-0.214666667,0.006666667,0.024666667,1.572332883,1.121226983,17.87425407,-437000,848000,-38000,98593.70117,30.96,0,12.03448868,0.153791606,-52.48468781,27.93000031,-120.6651688,-284.4981384,140
18:10.3,-0.176,0.022,0.001,1.42196425,1.10815145,17.1420242,-437000,848000,-38000,98593.70117,30.96,0,12.32363224,-6.349890232,-53.66548157,27.53999901,-96.29554749,-283.3823547,142
18:10.4,-0.0245,0.062,-0.049,1.181701325,0.980665,15.26405073,-443000,857500,-42500,98593.58826,30.96,0,12.32363224,-6.349890232,-53.66548157,27.53999901,-96.29554749,-283.3823547,142
18:10.4,0.127,0.102,-0.099,0.9414384,0.85317855,13.38607725,-449000,867000,-47000,98593.47534,30.96,0,12.32363224,-6.349890232,-53.66548157,27.53999901,-96.29554749,-283.3823547,142
18:10.4,0.159,0.103,-0.097333333,0.85317855,0.536096867,12.2190859,-440333.3333,846666.6667,-57000,98590.1652,30.95666667,0,12.32363224,-6.349890232,-53.66548157,27.06999969,-96.29554749,-282.2496338,143
18:10.5,0.191,0.104,-0.095666667,0.7649187,0.219015183,11.05209455,-431666.6667,826333.3333,-67000,98586.85506,30.95333333,0,12.32363224,-6.349890232,-53.66548157,27.06999969,-96.29554749,-282.2496338,143
18:10.5,0.223,0.105,-0.094,0.67665885,-0.0980665,9.8851032,-423000,806000,-77000,98583.54492,30.95,0,12.32363224,-6.349890232,-53.66548157,26.56999969,-42.53768921,-281.1507263,145
18:10.6,0.2825,0.124,-0.057,0.632528925,-0.2157463,8.69849855,-408500,766500,-98500,98580.28565,30.95,0,12.32363224,-6.349890232,-53.66548157,26.56999969,-42.53768921,-281.1507263,145
18:10.6,0.342,0.143,-0.02,0.588399,-0.3334261,7.5118939,-394000,727000,-120000,98577.02637,30.95,0,11.48467684,-4.500151754,-52.97244072,26.31999969,-42.53768921,-280.5970459,145.5
18:10.6,0.358,0.153,0.0035,0.6276256,-0.328522775,6.281159325,-376000,679500,-145000,98571.8628,30.945,0,10.64572144,-2.650413275,-52.27939987,26.06999969,-42.53768921,-280.0433655,146
18:10.7,0.374,0.163,0.027,0.6668522,-0.32361945,5.05042475,-358000,632000,-170000,98566.69922,30.94,0,10.64572144,-2.650413275,-52.27939987,26.06999969,-42.53768921,-280.0433655,146
18:10.7,0.42425,0.168,0.0235,0.6472389,-0.044129925,4.672868725,-353250,620500,-172000,98563.06916,30.9375,0,10.64572144,-2.650413275,-52.27939987,25.59999847,-3.106689453,-278.9529114,148
18:10.8,0.4745,0.173,0.02,0.6276256,0.2353596,4.2953127,-348500,609000,-174000,98559.43909,30.935,0,10.64572144,-2.650413275,-52.27939987,25.59999847,-3.106689453,-278.9529114,148
18:10.8,0.52475,0.178,0.0165,0.6080123,0.514849125,3.917756675,-343750,597500,-176000,98555.80903,30.9325,0,10.64572144,-2.650413275,-52.27939987,25.59999847,-3.106689453,-278.9529114,148
18:10.8,0.575,0.183,0.013,0.588399,0.79433865,3.54020065,-339000,586000,-178000,98552.17896,30.93,0,10.64572144,-2.650413275,-52.27939987,25.18999863,-3.106689453,-277.8878174,149
18:10.9,0.493666667,0.187,-0.007,0.487063617,0.542634633,4.102448583,-313000,530333.3333,-198000,98551.37736,30.93,0,10.64572144,-2.650413275,-52.27939987,25.01499939,-0.072145462,-277.3468171,150
18:10.9,0.412333333,0.191,-0.027,0.385728233,0.290930617,4.664696517,-287000,474666.6667,-218000,98550.57577,30.93,0,10.64572144,-2.650413275,-52.27939987,24.84000015,2.962398529,-276.8058167,151
18:11.0,0.331,0.195,-0.047,0.28439285,0.0392266,5.22694445,-261000,419000,-238000,98549.77417,30.93,0,10.64572144,-2.650413275,-52.27939987,24.84000015,2.962398529,-276.8058167,151
18:11.0,0.158,0.225,-0.027,0.3530394,0.1765197,4.5502856,-261000,419000,-238000,98549.77417,30.93,0,9.271211627,0.389719009,-52.25954564,24.74333318,2.962398529,-276.4451599,151.3333333
18:11.0,-0.0045,0.1605,-0.0065,0.318716125,0.250069575,5.56037055,-250500,409000,-232000,98545.29724,30.925,0,7.896701814,3.429851294,-52.23969142,24.64666621,2.962398529,-276.0845032,151.6666667
18:11.1,-0.167,0.096,0.014,0.28439285,0.32361945,6.5704555,-240000,399000,-226000,98540.82031,30.92,0,6.522192001,6.469983578,-52.21983719,24.54999924,2.962398529,-275.7238464,152
18:11.1,-0.13425,0.1085,0.016,0.291747838,0.311361138,6.773943488,-237500,390750,-227000,98539.72778,30.92,0,6.522192001,6.469983578,-52.21983719,24.42499924,3.794527054,-275.1912994,152.5
18:11.2,-0.1015,0.121,0.018,0.299102825,0.299102825,6.977431475,-235000,382500,-228000,98538.63526,30.92,0,6.522192001,6.469983578,-52.21983719,24.29999924,4.626655579,-274.6587524,153
18:11.2,-0.06875,0.1335,0.02,0.306457813,0.286844513,7.180919463,-232500,374250,-229000,98537.54273,30.92,0,6.522192001,6.469983578,-52.21983719,24.23333295,4.626655579,-274.3008931,153.6666667
18:11.2,-0.036,0.146,0.022,0.3138128,0.2745862,7.38440745,-230000,366000,-230000,98536.4502,30.92,0,6.522192001,6.469983578,-52.21983719,24.16666667,4.626655579,-273.9430339,154.3333333
18:11.3,-0.0575,0.1375,0.007,0.191229675,0.46091255,7.89435325,-230000,366000,-230000,98536.4502,30.92,0,6.522192001,6.469983578,-52.21983719,24.10000038,4.626655579,-273.5851746,155
18:11.3,-0.079,0.129,-0.008,0.06864655,0.6472389,8.40429905,-230000,366000,-230000,98536.4502,30.92,0,6.522192001,6.469983578,-52.21983719,24.00500012,12.87288666,-273.0526276,155.5
18:11.4,-0.0655,0.14075,-0.0145,0.1176798,0.544269075,8.024291363,-223250,366250,-234000,98535.01282,30.9175,0,6.522192001,6.469983578,-52.21983719,23.93875003,14.93444443,-272.6553383,156.125
18:11.4,-0.052,0.1525,-0.021,0.16671305,0.44129925,7.644283675,-216500,366500,-238000,98533.57544,30.915,0,6.522192001,6.469983578,-52.21983719,23.87249994,16.9960022,-272.2580491,156.75
18:11.4,-0.0385,0.16425,-0.0275,0.2157463,0.338329425,7.264275988,-209750,366750,-242000,98532.13806,30.9125,0,6.522192001,6.469983578,-52.21983719,23.80624986,19.05755997,-271.8607598,157.375
18:11.5,-0.025,0.176,-0.034,0.26477955,0.2353596,6.8842683,-203000,367000,-246000,98530.70068,30.91,0,6.522192001,6.469983578,-52.21983719,23.73999977,21.11911774,-271.4634705,158
18:11.5,-0.016,0.168,-0.075,0.0980665,-0.00980665,5.2367511,-200000,375000,-234000,98530.40161,30.9,0,2.788386345,4.572377205,-52.65953064,23.59000015,31.90031052,-270.4152527,159
18:11.6,0.022,0.1915,-0.055,0.122583125,-0.1176798,3.40290755,-200000,375000,-234000,98530.40161,30.9,0,2.788386345,4.572377205,-52.65953064,23.59000015,31.90031052,-270.4152527,159
18:11.6,0.06,0.215,-0.035,0.14709975,-0.22555295,1.569064,-200000,375000,-234000,98530.40161,30.9,0,2.788386345,4.572377205,-52.65953064,23.53499985,31.90031052,-269.8911743,160
18:11.6,0.101,0.145333333,-0.024333333,0.084990967,-0.320350567,5.586521617,-192000,363333.3333,-245000,98528.22062,30.89666667,0,2.788386345,4.572377205,-52.65953064,23.47999954,31.90031052,-269.3670959,161
18:11.7,0.142,0.075666667,-0.013666667,0.022882183,-0.415148183,9.603979233,-184000,351666.6667,-256000,98526.03963,30.89333333,0,2.788386345,4.572377205,-52.65953064,23.47999954,31.90031052,-269.3670959,161
18:11.7,0.183,0.006,-0.003,-0.0392266,-0.5099458,13.62143685,-176000,340000,-267000,98523.85864,30.89,0,2.788386345,4.572377205,-52.65953064,23.45499993,37.43462563,-268.8472137,161.5
18:11.8,0.0605,-0.036,0.0895,0.08825985,0.196133,15.62199345,-169000,343000,-261500,98523.85864,30.89,0,2.788386345,4.572377205,-52.65953064,23.43000031,42.96894073,-268.3273315,162
18:11.8,-0.062,-0.078,0.182,0.2157463,0.9022118,17.62255005,-162000,346000,-256000,98523.85864,30.89,0,2.788386345,4.572377205,-52.65953064,23.38000012,42.96894073,-267.815918,162.5
18:11.8,-0.1085,0.015,0.1365,0.0392266,0.661948875,12.3956056,-155500,327500,-261500,98523.67859,30.89,0,1.903268278,4.778843403,-53.03984261,23.35500002,42.96894073,-267.5602112,162.75
18:11.9,-0.155,0.108,0.091,-0.1372931,0.42168595,7.16866115,-149000,309000,-267000,98523.49854,30.89,0,1.01815021,4.985309601,-53.42015457,23.32999992,42.96894073,-267.3045044,163
18:11.9,-0.21325,0.102,0.063,-0.169164712,0.4118793,6.702845275,-152750,321750,-266000,98523.05146,30.885,0,1.01815021,4.985309601,-53.42015457,23.28333282,44.77717081,-266.96639,163.6666667
18:12.0,-0.2715,0.096,0.035,-0.201036325,0.40207265,6.2370294,-156500,334500,-265000,98522.60438,30.88,0,1.01815021,4.985309601,-53.42015457,23.23666573,46.5854009,-266.6282755,164.3333333
18:12.0,-0.32975,0.09,0.007,-0.232907938,0.392266,5.771213525,-160250,347250,-264000,98522.15729,30.875,0,1.01815021,4.985309601,-53.42015457,23.18999863,48.39363098,-266.2901611,165
18:12.0,-0.388,0.084,-0.021,-0.26477955,0.38245935,5.30539765,-164000,360000,-263000,98521.71021,30.87,0,1.01815021,4.985309601,-53.42015457,23.13999939,48.39363098,-265.7871857,165.5
18:12.1,-0.186,0.119,-0.006,-0.2549729,0.30400615,5.12887795,-164000,360000,-263000,98521.71021,30.87,0,1.01815021,4.985309601,-53.42015457,23.09000015,48.39363098,-265.2842102,166
18:12.1,-0.113333333,0.114333333,-0.010333333,-0.268048433,0.418417067,6.204340567,-158333.3333,347000,-270000,98520.00122,30.87,0,1.01815021,4.985309601,-53.42015457,23,63.44966888,-264.2783203,168
18:12.2,-0.040666667,0.109666667,-0.014666667,-0.281123967,0.532827983,7.279803183,-152666.6667,334000,-277000,98518.29224,30.87,0,1.01815021,4.985309601,-53.42015457,23,63.44966888,-264.2783203,168
18:12.2,0.032,0.105,-0.019,-0.2941995,0.6472389,8.3552658,-147000,321000,-284000,98516.58325,30.87,0,1.01815021,4.985309601,-53.42015457,22.94999886,63.44966888,-263.263916,169
18:12.2,0.004666667,0.120333333,-0.034666667,-0.281123967,0.63743225,7.400751867,-144000,317666.6667,-287000,98516.58325,30.87,0,-0.159525514,3.682055235,-53.64678955,22.94999886,63.44966888,-263.263916,169
18:12.3,-0.022666667,0.135666667,-0.050333333,-0.268048433,0.6276256,6.446237933,-141000,314333.3333,-290000,98516.58325,30.87,0,-1.337201238,2.378800869,-53.87342453,22.94999886,63.44966888,-263.263916,169
18:12.3,-0.05,0.151,-0.066,-0.2549729,0.61781895,5.491724,-138000,311000,-293000,98516.58325,30.87,0,-1.337201238,2.378800869,-53.87342453,22.93000031,64.82830048,-262.2495422,170
18:12.4,-0.114,0.107,-0.116,-0.20593965,0.3530394,5.0013915,-125000,304000,-284000,98520.36743,30.86,0,-1.337201238,2.378800869,-53.87342453,22.93000031,64.82830048,-262.2495422,170
18:12.4,0.0205,0.10125,-0.10725,-0.188778013,0.063743225,4.935196613,-121000,307000,-283250,98519.0918,30.8575,0,-1.337201238,2.378800869,-53.87342453,22.9449997,64.82830048,-261.7423554,171
18:12.4,0.155,0.0955,-0.0985,-0.171616375,-0.22555295,4.869001725,-117000,310000,-282500,98517.81616,30.855,0,-1.337201238,2.378800869,-53.87342453,22.95999908,64.82830048,-261.2351685,172
18:12.5,0.2895,0.08975,-0.08975,-0.154454738,-0.514849125,4.802806838,-113000,313000,-281750,98516.54053,30.8525,0,-1.337201238,2.378800869,-53.87342453,22.95999908,64.82830048,-261.2351685,172
18:12.5,0.424,0.084,-0.081,-0.1372931,-0.8041453,4.73661195,-109000,316000,-281000,98515.26489,30.85,0,-1.337201238,2.378800869,-53.87342453,23.00499916,67.98109818,-260.7364502,172.5
18:12.6,0.342,0.0535,-0.021,-0.171616375,-0.691368825,5.996766475,-109000,316000,-281000,98515.26489,30.85,0,-1.337201238,2.378800869,-53.87342453,23.04999924,71.13389587,-260.2377319,173
18:12.6,0.26,0.023,0.039,-0.20593965,-0.57859235,7.256921,-109000,316000,-281000,98515.26489,30.85,0,-1.337201238,2.378800869,-53.87342453,23.04999924,71.13389587,-260.2377319,173
18:12.6,0.202666667,0.016666667,0.078333333,-0.261510667,-0.32361945,7.9629998,-109000,314333.3333,-274666.6667,98516.83553,30.85,0,-2.530727208,3.572183132,-53.02566719,23.11999894,71.13389587,-259.7263184,174
18:12.7,0.145333333,0.010333333,0.117666667,-0.317081683,-0.06864655,8.6690786,-109000,312666.6667,-268333.3333,98518.40617,30.85,0,-3.724253178,4.765565395,-52.17790985,23.18999863,71.13389587,-259.2149048,175
18:12.7,0.088,0.004,0.157,-0.3726527,0.18632635,9.3751574,-109000,311000,-262000,98519.97681,30.85,0,-3.724253178,4.765565395,-52.17790985,23.27499867,73.79045105,-258.7119294,175.5
18:12.8,0.234,-0.0265,0.1615,-0.16671305,0.259876225,12.40541225,-106000,322000,-256500,98521.63086,30.845,0,-3.724253178,4.765565395,-52.17790985,23.3599987,76.44700623,-258.2089539,176
18:12.8,0.38,-0.057,0.166,0.0392266,0.3334261,15.4356671,-103000,333000,-251000,98523.28491,30.84,0,-3.724253178,4.765565395,-52.17790985,23.3599987,76.44700623,-258.2089539,176
18:12.8,0.259333333,-0.097666667,0.161666667,0.24516625,0.457643667,17.25316623,-115000,342333.3333,-237333.3333,98522.86173,30.83666667,0,-3.724253178,4.765565395,-52.17790985,23.51999855,76.44700623,-257.2114868,177
18:12.9,0.138666667,-0.138333333,0.157333333,0.4511059,0.581861233,19.07066537,-127000,351666.6667,-223666.6667,98522.43856,30.83333333,0,-3.724253178,4.765565395,-52.17790985,23.51999855,76.44700623,-257.2114868,177
18:12.9,0.018,-0.179,0.153,0.65704555,0.7060788,20.8881645,-139000,361000,-210000,98522.01538,30.83,0,-3.724253178,4.765565395,-52.17790985,23.5499986,74.66834005,-256.8789978,177.6666667
18:13.0,-0.2035,-0.1655,0.1765,0.75511205,0.46091255,20.01537265,-139000,361000,-210000,98523.97461,30.83,0,-3.724253178,4.765565395,-52.17790985,23.57999865,72.88967387,-256.5465088,178.3333333
18:13.0,-0.425,-0.152,0.2,0.85317855,0.2157463,19.1425808,-139000,361000,-210000,98525.93384,30.83,0,-3.724253178,4.765565395,-52.17790985,23.6099987,71.11100769,-256.2140198,179
18:13.0,-0.353,-0.124666667,0.189,0.712616567,0.160175283,18.25671342,-146333.3333,374333.3333,-202333.3333,98525.93384,30.83,0,-1.66225636,7.440732002,-55.05207443,23.59000015,71.11100769,-255.216568,180
18:13.1,-0.281,-0.097333333,0.178,0.572054583,0.104604267,17.37084603,-153666.6667,387666.6667,-194666.6667,98525.93384,30.83,0,-1.66225636,7.440732002,-55.05207443,23.59000015,71.11100769,-255.216568,180
18:13.1,-0.209,-0.07,0.167,0.4314926,0.04903325,16.48497865,-161000,401000,-187000,98525.93384,30.83,0,-1.66225636,7.440732002,-55.05207443,23.51999951,66.27349663,-254.7262802,181
18:13.2,-0.201333333,-0.044333333,0.174333333,0.300737267,0.10787315,14.60863962,-163000,384666.6667,-207000,98524.90031,30.82666667,0,-1.66225636,7.440732002,-55.05207443,23.44999886,61.43598557,-254.2359924,182
18:13.2,-0.193666667,-0.018666667,0.181666667,0.169981933,0.16671305,12.73230058,-165000,368333.3333,-227000,98523.86678,30.82333333,0,-1.66225636,7.440732002,-55.05207443,23.35499955,61.43598557,-253.7457123,182.5
18:13.2,-0.186,0.007,0.189,0.0392266,0.22555295,10.85596155,-167000,352000,-247000,98522.83325,30.82,0,-1.66225636,7.440732002,-55.05207443,23.26000023,61.43598557,-253.2554321,183
18:13.3,-0.2475,0.012,0.1865,-0.00980665,0.583495675,11.15506438,-167000,352000,-247000,98523.97766,30.82,0,-1.66225636,7.440732002,-55.05207443,23.26000023,61.43598557,-253.2554321,183
18:13.3,-0.309,0.017,0.184,-0.0588399,0.9414384,11.4541672,-167000,352000,-247000,98525.12207,30.82,0,-1.66225636,7.440732002,-55.05207443,23.01999855,34.36498642,-252.2664185,185
18:13.4,-0.227,0.077,0.138,-0.2549729,0.769822025,8.99269805,-160000,341000,-256000,98525.12207,30.82,0,-1.66225636,7.440732002,-55.05207443,23.01999855,34.36498642,-252.2664185,185
18:13.4,-0.145,0.137,0.092,-0.4511059,0.59820565,6.5312289,-153000,330000,-265000,98525.12207,30.82,0,-1.66225636,7.440732002,-55.05207443,23.01999855,34.36498642,-252.2664185,185
