time,field.angular_velocity.x,field.angular_velocity.y,field.angular_velocity.z,field.linear_acceleration.x,field.linear_acceleration.y,field.linear_acceleration.z,field.magnetic_field.x,field.magnetic_field.y,field.magnetic_field.z,field.fluid_pressure,field.temperature,field.airspeed,field.measured.pitch,field.measured.roll,field.measured.yaw,field.alt_error,field.aspd_error,field.xtrack_error,field.wp_dist
2018-10-05 19:58:52.800,0.786,0.019,-0.089,-0.8041453,0.16671305,9.0809579,-46000.0,-113000.0,-522000.0,97254.56543,37.37,0.0,1.860707045,0.448904485,-92.46420288,-0.75,-624.376709,-35.5512886,8.0
2018-10-05 19:58:52.840,0.803,0.0186666666666666,-0.09,-0.8662540833333333,0.1503686333333333,9.143066683333332,-41333.333333333336,-125000.0,-517666.6666666667,97252.76082333332,37.373333333333335,0.0,1.860707045,0.448904485,-92.46420288,-0.75,-624.376709,-35.5512886,8.0
2018-10-05 19:58:52.880,0.82,0.0183333333333333,-0.091,-0.9283628666666668,0.1340242166666666,9.205175466666669,-36666.66666666666,-137000.0,-513333.3333333333,97250.95621666667,37.376666666666665,0.0,1.860707045,0.448904485,-92.46420288,-0.75,-624.376709,-35.5512886,8.0
2018-10-05 19:58:52.920,0.837,0.018,-0.092,-0.99047165,0.1176798,9.26728425,-32000.0,-149000.0,-509000.0,97249.15161,37.38,0.0,1.860707045,0.448904485,-92.46420288,-0.75,-624.376709,-35.5512886,8.0
2018-10-05 19:58:52.960,0.8323333333333333,0.023,-0.084,-1.02969825,0.1307553333333333,9.211713233333333,-28333.33333333333,-160000.0,-502333.3333333333,97247.46297,37.376666666666665,0.0,1.860707045,0.448904485,-92.46420288,-0.8400000034999999,-610.6338501,-34.490421295000004,9.0
2018-10-05 19:58:53.000,0.8276666666666667,0.028,-0.076,-1.06892485,0.1438308666666666,9.156142216666666,-24666.666666666668,-171000.0,-495666.6666666667,97245.77433,37.373333333333335,0.0,1.860707045,0.448904485,-92.46420288,-0.930000007,-596.8909912,-33.42955399,10.0
2018-10-05 19:58:53.040,0.823,0.033,-0.068,-1.10815145,0.1569064,9.1005712,-21000.0,-182000.0,-489000.0,97244.08569,37.37,0.0,1.860707045,0.448904485,-92.46420288,-0.930000007,-596.8909912,-33.42955399,10.0
2018-10-05 19:58:53.080,0.7853333333333333,0.0313333333333333,-0.0643333333333333,-1.124495866666667,0.1928641166666666,9.0025047,-16666.666666666668,-193666.66666666663,-480333.3333333333,97243.36344333334,37.37,0.0,1.860707045,0.448904485,-92.46420288,-1.0200000105,-596.8909912,-32.359291080000006,11.0
2018-10-05 19:58:53.120,0.7476666666666666,0.0296666666666666,-0.0606666666666666,-1.140840283333333,0.2288218333333333,8.9044382,-12333.333333333334,-205333.3333333333,-471666.6666666667,97242.64119666668,37.37,0.0,1.860707045,0.448904485,-92.46420288,-1.110000014,-596.8909912,-31.28902817,12.0
2018-10-05 19:58:53.160,0.71,0.028,-0.057,-1.1571847,0.26477955,8.8063717,-8000.0,-217000.0,-463000.0,97241.91895,37.37,0.0,1.2087117435,11.4235966075,-91.655605315,-1.1949999925,-584.61816405,-35.572942735,13.0
2018-10-05 19:58:53.200,0.6375,0.0275,-0.067,-1.122861425,0.2991028249999999,8.73772515,-2500.0,-230500.0,-450500.0,97237.72278,37.37,0.0,0.556716442,22.39828873,-90.84700775,-1.279999971,-572.3453369,-39.8568573,14.0
2018-10-05 19:58:53.240,0.565,0.027,-0.077,-1.08853815,0.3334261,8.6690786,3000.0,-244000.0,-438000.0,97233.52661,37.37,0.0,0.556716442,22.39828873,-90.84700775,-1.279999971,-572.3453369,-39.8568573,14.0
2018-10-05 19:58:53.280,0.1836666666666666,0.0156666666666666,-0.043,-1.14737805,0.3595771666666666,8.665809716666667,-8000.0,-254666.66666666663,-434333.3333333333,97232.59684,37.37,0.0,0.556716442,22.39828873,-90.84700775,-1.3549999595000002,-522.84535215,-40.207151415,15.5
2018-10-05 19:58:53.320,-0.1976666666666666,0.0043333333333333,-0.0089999999999999,-1.20621795,0.3857282333333333,8.662540833333335,-19000.0,-265333.3333333333,-430666.6666666667,97231.66707,37.37,0.0,0.556716442,22.39828873,-90.84700775,-1.4049999516666667,-502.06905108333336,-40.445547106666666,16.333333333333332
2018-10-05 19:58:53.360,-0.579,-0.007,0.025,-1.26505785,0.4118793,8.65927195,-30000.0,-276000.0,-427000.0,97230.7373,37.37,0.0,0.556716442,22.39828873,-90.84700775,-1.4549999438333334,-481.2927500166667,-40.68394279833333,17.166666666666668
2018-10-05 19:58:53.400,-1.0499999999999998,-0.0034999999999999,0.07,-1.26505785,0.6080123,9.242767625,-25000.0,-278000.0,-429500.0,97231.27441,37.37,0.0,0.556716442,22.39828873,-90.84700775,-1.504999936,-460.51644895,-40.92233849,18.0
2018-10-05 19:58:53.440,-1.521,1.41e-17,0.115,-1.26505785,0.8041453,9.8262633,-20000.0,-280000.0,-432000.0,97231.81152,37.37,0.0,0.556716442,22.39828873,-90.84700775,-1.54249993,-454.101989725,-41.10478497,18.5
2018-10-05 19:58:53.480,-1.543,0.043,0.106,-1.2617889666666666,0.89240515,9.813187766666667,-24000.0,-267333.3333333333,-443333.3333333333,97232.76367,37.36666666666667,0.0,0.556716442,22.39828873,-90.84700775,-1.579999924,-447.6875305,-41.28723145,19.0
2018-10-05 19:58:53.520,-1.565,0.086,0.097,-1.2585200833333334,0.980665,9.800112233333332,-28000.0,-254666.66666666663,-454666.6666666667,97233.71582,37.36333333333333,0.0,0.556716442,22.39828873,-90.84700775,-1.719999909,-447.6875305,-42.04622269,21.0
2018-10-05 19:58:53.560,-1.587,0.129,0.088,-1.2552512,1.06892485,9.7870367,-32000.0,-242000.0,-466000.0,97234.66797,37.36,0.0,0.266072685,14.6255080715,-91.2938385,-1.719999909,-447.6875305,-42.04622269,21.0
2018-10-05 19:58:53.600,-1.552,0.1679999999999999,0.0535,-1.250347875,1.083634825,9.360447425,-23000.0,-207000.0,-486000.0,97233.203125,37.36,0.0,-0.024571072,6.852727413,-91.74066925,-1.719999909,-447.6875305,-42.04622269,21.0
2018-10-05 19:58:53.640,-1.517,0.207,0.019,-1.24544455,1.0983448,8.93385815,-14000.0,-172000.0,-506000.0,97231.73828,37.36,0.0,-0.024571072,6.852727413,-91.74066925,-1.860000014,-416.7510986,-42.81261444,23.0
2018-10-05 19:58:53.680,-1.4443333333333332,0.2313333333333333,-0.0103333333333333,-1.2585200833333334,0.9937405333333332,8.3160392,-22333.333333333336,-150000.0,-515666.6666666667,97230.03336666668,37.36,0.0,-0.024571072,6.852727413,-91.74066925,-1.930000007,-416.7510986,-43.183179855,24.0
2018-10-05 19:58:53.720,-1.3716666666666666,0.2556666666666667,-0.0396666666666666,-1.2715956166666669,0.8891362666666667,7.69822025,-30666.666666666668,-128000.0,-525333.3333333334,97228.32845333334,37.36,0.0,-0.024571072,6.852727413,-91.74066925,-2.0,-416.7510986,-43.55374527,25.0
2018-10-05 19:58:53.760,-1.299,0.28,-0.069,-1.28467115,0.784532,7.0804013,-39000.0,-106000.0,-535000.0,97226.62354,37.36,0.0,-0.024571072,6.852727413,-91.74066925,-2.059999943,-402.75993345,-43.91799164,26.0
2018-10-05 19:58:53.800,-1.2075,0.2815,-0.075,-1.36312435,0.7207887749999999,6.732265225,-36500.0,-72000.0,-544000.0,97225.81482,37.36,0.0,-0.024571072,6.852727413,-91.74066925,-2.119999886,-388.7687683,-44.28223801,27.0
2018-10-05 19:58:53.840,-1.116,0.283,-0.081,-1.44157755,0.65704555,6.38412915,-34000.0,-38000.0,-553000.0,97225.0061,37.36,0.0,-0.024571072,6.852727413,-91.74066925,-2.159999967,-388.7687683,-44.62295914,28.0
2018-10-05 19:58:53.880,-0.9745,0.2624999999999999,-0.0745,-1.4906108,0.4118793,5.8447634,-25500.0,-11500.0,-553000.0,97221.472165,37.36,0.0,-0.024571072,6.852727413,-91.74066925,-2.200000048,-388.7687683,-44.96368027,29.0
2018-10-05 19:58:53.920,-0.833,0.242,-0.068,-1.53964405,0.16671305,5.30539765,-17000.0,15000.0,-553000.0,97217.93823,37.36,0.0,-0.024571072,6.852727413,-91.74066925,-2.200000048,-388.7687683,-44.96368027,29.0
2018-10-05 19:58:53.960,-0.7546666666666666,0.2256666666666666,-0.0383333333333333,-1.5527195833333334,0.1307553333333333,5.1975245,-15666.666666666666,28666.666666666664,-553666.6666666666,97219.00227666668,37.36,0.0,-0.024571072,6.852727413,-91.74066925,-2.200000048,-388.7687683,-44.96368027,29.0
2018-10-05 19:58:54.000,-0.6763333333333333,0.2093333333333333,-0.0086666666666666,-1.5657951166666666,0.0947976166666666,5.08965135,-14333.333333333334,42333.33333333333,-554333.3333333334,97220.06632333332,37.36,0.0,-5.644022942,-21.93713379,-89.45404816,-2.24000001,-363.7147827,-45.61985397,31.0
2018-10-05 19:58:54.040,-0.598,0.193,0.021,-1.57887065,0.0588399,4.9817782,-13000.0,56000.0,-555000.0,97221.13037,37.36,0.0,-5.644022942,-21.93713379,-89.45404816,-2.225000024,-363.7147827,-45.92527771,32.0
2018-10-05 19:58:54.080,-0.565,0.1875,0.0465,-1.6082906,-0.0220649624999999,4.8763567125,-8500.0,65250.0,-553500.0,97219.7891225,37.3575,0.0,-5.644022942,-21.93713379,-89.45404816,-2.210000038,-363.7147827,-46.23070145,33.0
2018-10-05 19:58:54.120,-0.532,0.182,0.072,-1.63771055,-0.1029698249999999,4.770935225000001,-4000.0,74500.0,-552000.0,97218.447875,37.355,0.0,-5.644022942,-21.93713379,-89.45404816,-2.183333317333333,-355.0356445333333,-46.42589950666667,33.666666666666664
2018-10-05 19:58:54.160,-0.499,0.1765,0.0975,-1.6671304999999998,-0.1838746874999999,4.6655137375,500.0,83750.0,-550500.0,97217.1066275,37.3525,0.0,-5.644022942,-21.93713379,-89.45404816,-2.1566665966666667,-346.3565063666667,-46.62109756333333,34.333333333333336
2018-10-05 19:58:54.200,-0.466,0.171,0.123,-1.69655045,-0.26477955,4.56009225,5000.0,93000.0,-549000.0,97215.76538,37.35,0.0,-5.644022942,-21.93713379,-89.45404816,-2.129999876,-337.6773682,-46.81629562,35.0
2018-10-05 19:58:54.240,-0.35,0.149,0.173,-1.57887065,-0.0980665,4.1580196,26000.0,120000.0,-540000.0,97220.54443,37.36,0.0,-5.644022942,-21.93713379,-89.45404816,-2.129999876,-337.6773682,-46.81629562,35.0
2018-10-05 19:58:54.280,-0.32175,0.1275,0.198,-1.6107422625,-0.132389775,4.6091255,27500.0,127000.0,-537750.0,97220.6161475,37.3575,0.0,-5.644022942,-21.93713379,-89.45404816,-2.129999876,-337.6773682,-46.81629562,35.0
2018-10-05 19:58:54.320,-0.2935,0.106,0.223,-1.642613875,-0.16671305,5.0602314,29000.0,134000.0,-535500.0,97220.687865,37.355,0.0,-5.644022942,-21.93713379,-89.45404816,-2.054999888,-337.6773682,-47.09187889,36.0
2018-10-05 19:58:54.360,-0.26525,0.0844999999999999,0.248,-1.6744854875,-0.201036325,5.5113373,30500.0,141000.0,-533250.0,97220.7595825,37.3525,0.0,-5.644022942,-21.93713379,-89.45404816,-1.9799999,-337.6773682,-47.36746216,37.0
2018-10-05 19:58:54.400,-0.237,0.063,0.273,-1.7063571,-0.2353596,5.9624432,32000.0,148000.0,-531000.0,97220.8313,37.35,0.0,-5.644022942,-21.93713379,-89.45404816,-1.769999981,-320.5232544,-47.90599823,39.0
2018-10-05 19:58:54.440,-0.164,0.066,0.282,-1.75539035,0.06864655,6.1978028,32000.0,148000.0,-531000.0,97220.8313,37.35,0.0,-8.406487941,-27.28419304,-90.13143921,-1.769999981,-320.5232544,-47.90599823,39.0
2018-10-05 19:58:54.480,-0.122,0.051,0.287,-1.75539035,-0.06864655,6.854848349999999,35000.0,151000.0,-529500.0,97221.328735,37.35,0.0,-11.16895294,-32.63125229,-90.80883026,-1.769999981,-320.5232544,-47.90599823,39.0
2018-10-05 19:58:54.520,-0.08,0.036,0.292,-1.75539035,-0.20593965,7.5118939,38000.0,154000.0,-528000.0,97221.82617,37.35,0.0,-11.16895294,-32.63125229,-90.80883026,-1.50999999,-320.5232544,-48.41011047,41.0
2018-10-05 19:58:54.560,-0.08525,0.03275,0.29525,-1.7921652875,-0.1593580625,7.455505662499999,38500.0,154000.0,-528000.0,97221.7849725,37.3475,0.0,-11.16895294,-32.63125229,-90.80883026,-1.3650000095,-309.90657045,-48.63863945,41.5
2018-10-05 19:58:54.600,-0.0905,0.0295,0.2985,-1.828940225,-0.112776475,7.399117425,39000.0,154000.0,-528000.0,97221.743775,37.345,0.0,-11.16895294,-32.63125229,-90.80883026,-1.220000029,-299.2898865,-48.86716843,42.0
2018-10-05 19:58:54.640,-0.09575,0.02625,0.3017499999999999,-1.8657151625,-0.0661948875,7.3427291875,39500.0,154000.0,-528000.0,97221.7025775,37.3425,0.0,-11.16895294,-32.63125229,-90.80883026,-1.220000029,-299.2898865,-48.86716843,42.0
2018-10-05 19:58:54.680,-0.101,0.023,0.305,-1.9024901,-0.0196133,7.28634095,40000.0,154000.0,-528000.0,97221.66138,37.34,0.0,-11.16895294,-32.63125229,-90.80883026,-1.220000029,-299.2898865,-48.86716843,42.0
2018-10-05 19:58:54.720,-0.1203333333333333,0.014,0.3026666666666666,-1.8796079166666668,0.0686465499999999,7.40402075,42666.66666666666,153666.66666666666,-527666.6666666666,97224.49748,37.34333333333333,0.0,-11.16895294,-32.63125229,-90.80883026,-1.050000012,-299.2898865,-49.07391167,43.0
2018-10-05 19:58:54.760,-0.1396666666666666,0.005,0.3003333333333333,-1.8567257333333331,0.1569063999999999,7.521700549999999,45333.333333333336,153333.33333333334,-527333.3333333334,97227.33358,37.34666666666667,0.0,-11.16895294,-32.63125229,-90.80883026,-0.879999995,-299.2898865,-49.28065491,44.0
2018-10-05 19:58:54.800,-0.159,-0.004,0.298,-1.83384355,0.24516625,7.63938035,48000.0,153000.0,-527000.0,97230.16968,37.35,0.0,-11.16895294,-32.63125229,-90.80883026,-0.879999995,-299.2898865,-49.28065491,44.0
2018-10-05 19:58:54.840,-0.141,-0.013,0.277,-1.93191005,0.196133,8.2571993,64000.0,160000.0,-523000.0,97234.77783,37.34,0.0,-15.18980312,-33.74633026,-95.62084198,-0.519999981,-286.5283813,-49.65971756,46.0
2018-10-05 19:58:54.880,-0.1285,-0.0245,0.2615,-1.91229675,0.12748645,8.232682675,63000.0,160000.0,-525500.0,97236.395265,37.34,0.0,-15.18980312,-33.74633026,-95.62084198,-0.319999989,-286.5283813,-49.81657219,47.0
2018-10-05 19:58:54.920,-0.116,-0.036,0.246,-1.89268345,0.0588399,8.20816605,62000.0,160000.0,-528000.0,97238.0127,37.34,0.0,-15.18980312,-33.74633026,-95.62084198,-0.119999997,-286.5283813,-49.97342682,48.0
2018-10-05 19:58:54.960,-0.1013333333333333,-0.038,0.237,-1.93191005,0.1470997499999999,8.204897166666667,59000.0,161000.0,-527000.0,97240.60059,37.34,0.0,-15.18980312,-33.74633026,-95.62084198,0.0899999924999999,-280.5096588,-50.112197875,49.0
2018-10-05 19:58:55.000,-0.0866666666666666,-0.04,0.228,-1.97113665,0.2353595999999999,8.201628283333333,56000.0,162000.0,-526000.0,97243.18848,37.34,0.0,-15.18980312,-33.74633026,-95.62084198,0.299999982,-274.4909363,-50.25096893,50.0
2018-10-05 19:58:55.040,-0.072,-0.042,0.219,-2.01036325,0.32361945,8.1983594,53000.0,163000.0,-525000.0,97245.77637,37.34,0.0,-15.18980312,-33.74633026,-95.62084198,0.529999986,-274.4909363,-50.35074234,51.0
2018-10-05 19:58:55.080,-0.0676666666666666,-0.0443333333333333,0.2186666666666666,-2.0136321333333336,0.1569063999999999,8.201628283333333,51666.66666666666,162666.66666666666,-525000.0,97247.6827,37.34,0.0,-15.18980312,-33.74633026,-95.62084198,0.75999999,-274.4909363,-50.45051575,52.0
2018-10-05 19:58:55.120,-0.0633333333333333,-0.0466666666666666,0.2183333333333333,-2.0169010166666665,-0.00980665,8.204897166666667,50333.333333333336,162333.33333333334,-525000.0,97249.58903,37.34,0.0,-15.18980312,-33.74633026,-95.62084198,0.75999999,-274.4909363,-50.45051575,52.0
2018-10-05 19:58:55.160,-0.059,-0.049,0.218,-2.0201699,-0.1765197,8.20816605,49000.0,162000.0,-525000.0,97251.49536,37.34,0.0,-15.18980312,-33.74633026,-95.62084198,1.004999995,-275.01564025,-50.539398195,53.0
2018-10-05 19:58:55.200,-0.0209999999999999,-0.054,0.2269999999999999,-1.985846625,-0.024516625,8.164036125,49500.0,161000.0,-525000.0,97255.596925,37.34,0.0,-15.18980312,-33.74633026,-95.62084198,1.25,-275.5403442,-50.62828064,54.0
2018-10-05 19:58:55.240,0.017,-0.059,0.236,-1.95152335,0.12748645,8.1199062,50000.0,160000.0,-525000.0,97259.69849,37.34,0.0,-15.18980312,-33.74633026,-95.62084198,1.25,-275.5403442,-50.62828064,54.0
2018-10-05 19:58:55.280,0.058,-0.068,0.24,-1.976039975,0.02941995,8.693595225,50000.0,160500.0,-525000.0,97260.424805,37.34,0.0,-18.01648712,-34.05469131,-101.2256393,1.25,-275.5403442,-50.62828064,54.0
2018-10-05 19:58:55.320,0.099,-0.077,0.244,-2.0005566,-0.06864655,9.26728425,50000.0,161000.0,-525000.0,97261.15112,37.34,0.0,-18.01648712,-34.05469131,-101.2256393,1.769999981,-275.5403442,-50.73720169,55.0
2018-10-05 19:58:55.360,0.085,-0.079,0.2516666666666666,-2.0005566,-0.08825985,9.214982116666668,46333.333333333336,157333.33333333334,-525000.0,97264.21508666666,37.336666666666666,0.0,-18.01648712,-34.05469131,-101.2256393,1.769999981,-275.5403442,-50.73720169,55.0
2018-10-05 19:58:55.400,0.071,-0.081,0.2593333333333333,-2.0005566,-0.10787315,9.162679983333334,42666.66666666666,153666.66666666666,-525000.0,97267.27905333332,37.333333333333336,0.0,-18.01648712,-34.05469131,-101.2256393,2.319999933,-281.6976624,-50.80081177,57.0
2018-10-05 19:58:55.440,0.057,-0.083,0.267,-2.0005566,-0.12748645,9.11037785,39000.0,150000.0,-525000.0,97270.34302,37.33,0.0,-18.01648712,-34.05469131,-101.2256393,2.319999933,-281.6976624,-50.80081177,57.0
2018-10-05 19:58:55.480,0.0503333333333333,-0.0766666666666666,0.2746666666666666,-2.04958985,-0.0163444166666666,8.861942716666666,47666.66666666666,149666.66666666666,-524666.6666666666,97273.59009,37.33,0.0,-18.01648712,-34.05469131,-101.2256393,2.319999933,-281.6976624,-50.80081177,57.0
2018-10-05 19:58:55.520,0.0436666666666666,-0.0703333333333333,0.2823333333333333,-2.0986231,0.0947976166666666,8.613507583333334,56333.33333333333,149333.33333333334,-524333.3333333334,97276.83716,37.33,0.0,-18.01648712,-34.05469131,-101.2256393,2.889999866,-281.6976624,-50.80995178,59.0
2018-10-05 19:58:55.560,0.037,-0.064,0.29,-2.14765635,0.20593965,8.36507245,65000.0,149000.0,-524000.0,97280.08423,37.33,0.0,-18.01648712,-34.05469131,-101.2256393,3.189999938,-281.6976624,-50.79731178,60.0
2018-10-05 19:58:55.600,0.0404999999999999,-0.078,0.288,-2.16726965,0.12748645,8.624948674999999,62500.0,144000.0,-526000.0,97284.94263,37.33,0.0,-18.01648712,-34.05469131,-101.2256393,3.49000001,-281.6976624,-50.78467178,61.0
2018-10-05 19:58:55.640,0.044,-0.092,0.286,-2.18688295,0.04903325,8.8848249,60000.0,139000.0,-528000.0,97289.80103,37.33,0.0,-18.01648712,-34.05469131,-101.2256393,3.7949999575,-284.4927826,-50.735002515,62.0
2018-10-05 19:58:55.680,0.068,-0.0883333333333333,0.2763333333333333,-2.1770763,0.1634441666666666,8.881556016666666,61333.333333333336,137666.66666666666,-527666.6666666666,97291.33301,37.33,0.0,-18.01648712,-34.05469131,-101.2256393,4.099999905,-287.2879028,-50.68533325,63.0
2018-10-05 19:58:55.720,0.092,-0.0846666666666666,0.2666666666666666,-2.16726965,0.2778550833333333,8.878287133333334,62666.66666666666,136333.33333333334,-527333.3333333334,97292.86499,37.33,0.0,-20.35608482,-29.76024437,-108.8864899,4.099999905,-287.2879028,-50.68533325,63.0
2018-10-05 19:58:55.760,0.116,-0.081,0.257,-2.157463,0.392266,8.87501825,64000.0,135000.0,-527000.0,97294.39697,37.33,0.0,-20.35608482,-29.76024437,-108.8864899,4.099999905,-287.2879028,-50.68533325,63.0
2018-10-05 19:58:55.800,0.224,-0.098,0.227,-2.20649625,0.1569064,10.09104285,67000.0,129000.0,-528000.0,97300.26855,37.33,0.0,-20.35608482,-29.76024437,-108.8864899,4.75,-295.5966797,-50.55504608,64.0
2018-10-05 19:58:55.840,0.2225,-0.10675,0.21375,-2.1991412625,0.1103248125,10.3362091,66000.0,125500.0,-529000.0,97303.166195,37.33,0.0,-20.35608482,-29.76024437,-108.8864899,5.089999914,-295.5966797,-50.4589653,65.0
2018-10-05 19:58:55.880,0.221,-0.1155,0.2005,-2.191786275,0.063743225,10.581375349999998,65000.0,122000.0,-530000.0,97306.06384,37.33,0.0,-20.35608482,-29.76024437,-108.8864899,5.429999828,-295.5966797,-50.36288452,66.0
2018-10-05 19:58:55.920,0.2195,-0.12425,0.18725,-2.1844312875,0.0171616374999999,10.8265416,64000.0,118500.0,-531000.0,97308.961485,37.33,0.0,-20.35608482,-29.76024437,-108.8864899,5.429999828,-295.5966797,-50.36288452,66.0
2018-10-05 19:58:55.960,0.218,-0.133,0.174,-2.1770763,-0.02941995,11.07170785,63000.0,115000.0,-532000.0,97311.85913,37.33,0.0,-20.46190643,-27.75280857,-110.62516025,5.594999789999999,-298.869888325,-50.3045005775,66.5
2018-10-05 19:58:56.000,0.246,-0.1495,0.178,-2.1378497000000003,0.0,11.743463375,61500.0,111000.0,-533500.0,97314.276125,37.33,0.0,-20.56772804,-25.74537277,-112.3638306,5.759999752,-302.14309695,-50.246116635,67.0
2018-10-05 19:58:56.040,0.274,-0.166,0.182,-2.0986231,0.02941995,12.4152189,60000.0,107000.0,-535000.0,97316.69312,37.33,0.0,-20.56772804,-25.74537277,-112.3638306,5.924999714,-305.416305575,-50.1877326925,67.5
2018-10-05 19:58:56.080,0.2715,-0.1709999999999999,0.1825,-2.123139725,0.0147099750000007,12.52309205,59000.0,99500.0,-536500.0,97322.63489,37.325,0.0,-20.56772804,-25.74537277,-112.3638306,6.089999676,-308.6895142,-50.12934875,68.0
2018-10-05 19:58:56.120,0.269,-0.176,0.183,-2.14765635,1.55e-15,12.6309652,58000.0,92000.0,-538000.0,97328.57666,37.32,0.0,-20.56772804,-25.74537277,-112.3638306,6.779999733,-308.6895142,-49.83740234,70.0
2018-10-05 19:58:56.160,0.266,-0.1896666666666666,0.154,-2.1182364,0.0359577166666676,12.957853533333331,52666.66666666666,86666.66666666667,-542000.0,97331.89697333334,37.32,0.0,-20.56772804,-25.74537277,-112.3638306,7.1049997805,-323.2575531,-49.667036055,71.0
2018-10-05 19:58:56.200,0.263,-0.2033333333333333,0.125,-2.08881645,0.0719154333333338,13.284741866666668,47333.333333333336,81333.33333333333,-546000.0,97335.21728666668,37.32,0.0,-20.56772804,-25.74537277,-112.3638306,7.429999828,-337.825592,-49.49666977,72.0
2018-10-05 19:58:56.240,0.26,-0.217,0.096,-2.0593965,0.10787315,13.6116302,42000.0,76000.0,-550000.0,97338.5376,37.32,0.0,-20.56772804,-25.74537277,-112.3638306,7.7499997615,-337.825592,-49.293621065,72.5
2018-10-05 19:58:56.280,0.2675,-0.2205,0.0955,-1.976039975,0.02941995,13.5135637,42500.0,71000.0,-549500.0,97343.45398,37.32,0.0,-20.56772804,-25.74537277,-112.3638306,8.069999695,-337.825592,-49.09057236,73.0
2018-10-05 19:58:56.320,0.275,-0.224,0.095,-1.89268345,-0.04903325,13.4154972,43000.0,66000.0,-549000.0,97348.37036,37.32,0.0,-20.56772804,-25.74537277,-112.3638306,8.069999695,-337.825592,-49.09057236,73.0
2018-10-05 19:58:56.360,0.2526666666666667,-0.2246666666666666,0.107,-1.8894145666666664,-0.0163444166666666,13.510294816666669,29333.333333333336,58333.333333333336,-551333.3333333334,97350.56355666666,37.32,0.0,-19.83035755,-23.5248308175,-113.686607375,8.21999979025,-347.058349575,-48.98001003500001,73.5
2018-10-05 19:58:56.400,0.2303333333333333,-0.2253333333333333,0.119,-1.8861456833333332,0.0163444166666666,13.605092433333336,15666.666666666668,50666.66666666666,-553666.6666666666,97352.75675333332,37.32,0.0,-19.09298706,-21.304288865,-115.00938415,8.3699998855,-356.29110715,-48.86944771,74.0
2018-10-05 19:58:56.440,0.208,-0.226,0.131,-1.8828768,0.04903325,13.69989005,2000.0,43000.0,-556000.0,97354.94995,37.32,0.0,-18.35561657,-19.0837469125,-116.332160925,8.81500005725,-365.523864725,-48.506814005,75.5
2018-10-05 19:58:56.480,0.1846666666666666,-0.2296666666666666,0.1383333333333333,-1.83384355,0.0326888333333338,13.019962316666668,333.33333333333326,40333.333333333336,-556333.3333333334,97359.02506333332,37.32,0.0,-17.61824608,-16.86320496,-117.6549377,9.260000229,-374.7566223,-48.1441803,77.0
2018-10-05 19:58:56.520,0.1613333333333333,-0.2333333333333333,0.1456666666666666,-1.7848103,0.0163444166666676,12.340034583333331,-1333.3333333333337,37666.66666666666,-556666.6666666666,97363.10017666666,37.32,0.0,-17.61824608,-16.86320496,-117.6549377,9.260000229,-374.7566223,-48.1441803,77.0
2018-10-05 19:58:56.560,0.138,-0.237,0.153,-1.73577705,1.43e-15,11.66010685,-3000.0,35000.0,-557000.0,97367.17529,37.32,0.0,-17.61824608,-16.86320496,-117.6549377,9.4000000955,-386.6730194,-48.0099773425,77.5
2018-10-05 19:58:56.600,0.191,-0.2425,0.1525,-1.721067075,0.1372931000000007,12.047469525,-5000.0,33000.0,-557000.0,97370.672605,37.32,0.0,-17.61824608,-16.86320496,-117.6549377,9.539999962,-398.5894165,-47.875774385,78.0
2018-10-05 19:58:56.640,0.244,-0.248,0.152,-1.7063571,0.2745862,12.4348322,-7000.0,31000.0,-557000.0,97374.16992,37.32,0.0,-17.61824608,-16.86320496,-117.6549377,9.954999926,-410.5058136,-47.4459285725,79.5
2018-10-05 19:58:56.680,0.24375,-0.2585,0.1465,-1.6352588875,0.259876225,13.3885289125,-13250.0,27000.0,-555500.0,97377.711485,37.32,0.0,-17.61824608,-16.86320496,-117.6549377,10.36999989,-422.4222107,-47.01608276,81.0
2018-10-05 19:58:56.720,0.2435,-0.269,0.141,-1.564160675,0.24516625,14.342225625,-19500.0,23000.0,-554000.0,97381.25305,37.32,0.0,-16.509307863333333,-15.30735207,-118.91928353333334,10.543333056666668,-432.2090047333333,-46.811148323333335,81.66666666666667
2018-10-05 19:58:56.760,0.24325,-0.2794999999999999,0.1355,-1.4930624625,0.230456275,15.2959223375,-25750.0,19000.0,-552500.0,97384.794615,37.32,0.0,-15.400369646666666,-13.75149918,-120.18362936666666,10.716666223333334,-441.99579876666667,-46.606213886666666,82.33333333333333
2018-10-05 19:58:56.800,0.243,-0.29,0.13,-1.42196425,0.2157463,16.24961905,-32000.0,15000.0,-551000.0,97388.33618,37.32,0.0,-14.29143143,-12.19564629,-121.4479752,10.88999939,-451.7825928,-46.40127945,83.0
2018-10-05 19:58:56.840,0.277,-0.284,0.117,-1.34351105,0.2157463,16.26923235,-32000.0,15000.0,-551000.0,97388.33618,37.32,0.0,-14.29143143,-12.19564629,-121.4479752,10.88999939,-451.7825928,-46.40127945,83.0
2018-10-05 19:58:56.880,0.2725,-0.2885,0.086,-1.3140911000000002,0.196133,15.79851315,-42500.0,6000.0,-554500.0,97395.358275,37.315,0.0,-14.29143143,-12.19564629,-121.4479752,11.35999966,-451.7825928,-45.74289322,84.0
2018-10-05 19:58:56.920,0.268,-0.293,0.055,-1.28467115,0.1765197,15.32779395,-53000.0,-3000.0,-558000.0,97402.38037,37.31,0.0,-14.29143143,-12.19564629,-121.4479752,11.35999966,-451.7825928,-45.74289322,84.0
2018-10-05 19:58:56.960,0.2936666666666667,-0.2913333333333333,0.0606666666666666,-1.2519823166666668,0.0359577166666666,15.32779395,-57666.66666666666,-6666.666666666666,-557333.3333333334,97404.76074,37.31,0.0,-14.29143143,-12.19564629,-121.4479752,11.569999695,-468.95474245,-45.39649582,85.0
2018-10-05 19:58:57.000,0.3193333333333333,-0.2896666666666666,0.0663333333333333,-1.219293483333333,-0.1046042666666666,15.32779395,-62333.333333333336,-10333.333333333332,-556666.6666666666,97407.14111,37.31,0.0,-14.29143143,-12.19564629,-121.4479752,11.77999973,-486.1268921,-45.05009842,86.0
2018-10-05 19:58:57.040,0.345,-0.288,0.072,-1.18660465,-0.24516625,15.32779395,-67000.0,-14000.0,-556000.0,97409.52148,37.31,0.0,-14.29143143,-12.19564629,-121.4479752,11.77999973,-486.1268921,-45.05009842,86.0
2018-10-05 19:58:57.080,0.345,-0.284,0.098,-1.211121275,-0.1765197,15.0826277,-64000.0,-18000.0,-551000.0,97410.54382,37.31,0.0,-14.29143143,-12.19564629,-121.4479752,12.14999962,-486.1268921,-44.3137207,88.0
2018-10-05 19:58:57.120,0.345,-0.28,0.124,-1.2356379,-0.10787315,14.83746145,-61000.0,-22000.0,-546000.0,97411.56616,37.31,0.0,-14.29143143,-12.19564629,-121.4479752,12.14999962,-486.1268921,-44.3137207,88.0
2018-10-05 19:58:57.160,0.358,-0.2793333333333334,0.1373333333333333,-1.18660465,-0.04903325,15.684102233333332,-67333.33333333333,-27666.666666666668,-546000.0,97414.10522333332,37.31,0.0,-11.2011461275,-8.323485376499999,-123.10642625,12.31499958,-498.17103575,-43.94553375,89.0
2018-10-05 19:58:57.200,0.371,-0.2786666666666667,0.1506666666666666,-1.1375714,0.00980665,16.530743016666666,-73666.66666666667,-33333.333333333336,-546000.0,97416.64428666668,37.31,0.0,-8.110860825,-4.451324463,-124.7648773,12.47999954,-510.2151794,-43.5773468,90.0
2018-10-05 19:58:57.240,0.384,-0.278,0.164,-1.08853815,0.06864655,17.3773838,-80000.0,-39000.0,-546000.0,97419.18335,37.31,0.0,-8.110860825,-4.451324463,-124.7648773,12.47999954,-510.2151794,-43.5773468,90.0
2018-10-05 19:58:57.280,0.33,-0.2804999999999999,0.179,-1.083634825,0.20593965,17.195960775,-85000.0,-46500.0,-542500.0,97424.92981,37.31,0.0,-8.110860825,-4.451324463,-124.7648773,12.47999954,-510.2151794,-43.5773468,90.0
2018-10-05 19:58:57.320,0.276,-0.283,0.194,-1.0787315,0.34323275,17.01453775,-90000.0,-54000.0,-539000.0,97430.67627,37.31,0.0,-8.110860825,-4.451324463,-124.7648773,12.75,-510.2151794,-138.0764008,92.0
2018-10-05 19:58:57.360,0.2673333333333333,-0.2776666666666667,0.1883333333333333,-1.0558493166666667,0.4511059,17.030882166666665,-92666.66666666669,-57333.333333333336,-537000.0,97430.30192,37.31,0.0,-8.110860825,-4.451324463,-124.7648773,12.75,-510.2151794,-138.0764008,92.0
2018-10-05 19:58:57.400,0.2586666666666666,-0.2723333333333333,0.1826666666666666,-1.0329671333333332,0.55897905,17.047226583333334,-95333.33333333331,-60666.66666666666,-535000.0,97429.92757,37.31,0.0,-8.110860825,-4.451324463,-124.7648773,12.75,-510.2151794,-138.0764008,92.0
2018-10-05 19:58:57.440,0.25,-0.267,0.177,-1.01008495,0.6668522,17.063571,-98000.0,-64000.0,-533000.0,97429.55322,37.31,0.0,-8.110860825,-4.451324463,-124.7648773,12.96000004,-523.8776855,-136.3423309,94.0
2018-10-05 19:58:57.480,0.195,-0.2576666666666666,0.1456666666666666,-0.9643205833333334,0.5949367666666667,17.28912395,-108333.33333333331,-69333.33333333333,-533666.6666666666,97430.49926666668,37.31,0.0,-8.110860825,-4.451324463,-124.7648773,12.96000004,-523.8776855,-136.3423309,94.0
2018-10-05 19:58:57.520,0.14,-0.2483333333333333,0.1143333333333333,-0.9185562166666666,0.5230213333333333,17.514676899999998,-118666.66666666669,-74666.66666666667,-534333.3333333334,97431.44531333332,37.31,0.0,-8.110860825,-4.451324463,-124.7648773,13.10999966,-523.8776855,-134.5909424,96.0
2018-10-05 19:58:57.560,0.085,-0.239,0.083,-0.87279185,0.4511059,17.74022985,-129000.0,-80000.0,-535000.0,97432.39136,37.31,0.0,-5.0434163215,-0.988362193,-126.6812973,13.14999962,-527.7594299,-133.72039795,97.0
2018-10-05 19:58:57.600,0.1505,-0.2219999999999999,0.071,-0.907115125,0.46091255,16.862534675,-132000.0,-83500.0,-532500.0,97433.17871,37.31,0.0,-1.975971818,2.474600077,-128.5977173,13.18999958,-531.6411743,-132.8498535,98.0
2018-10-05 19:58:57.640,0.216,-0.205,0.059,-0.9414384,0.4707192,15.9848395,-135000.0,-87000.0,-530000.0,97433.96606,37.31,0.0,-1.975971818,2.474600077,-128.5977173,13.18999958,-531.6411743,-132.8498535,98.0
2018-10-05 19:58:57.680,0.238,-0.1836666666666666,0.0423333333333333,-0.97085835,0.5655168166666666,15.422591566666666,-143000.0,-89333.33333333333,-528000.0,97434.16341,37.306666666666665,0.0,-1.975971818,2.474600077,-128.5977173,13.18999958,-531.6411743,-132.8498535,98.0
2018-10-05 19:58:57.720,0.26,-0.1623333333333333,0.0256666666666666,-1.0002783,0.6603144333333334,14.860343633333333,-151000.0,-91666.66666666669,-526000.0,97434.36076,37.303333333333335,0.0,-1.975971818,2.474600077,-128.5977173,13.19999981,-531.6411743,-131.1119843,99.0
2018-10-05 19:58:57.760,0.282,-0.141,0.009,-1.02969825,0.75511205,14.2980957,-159000.0,-94000.0,-524000.0,97434.55811,37.3,0.0,-1.975971818,2.474600077,-128.5977173,13.17999983,-522.8112182499999,-130.2514496,100.0
2018-10-05 19:58:57.800,0.29,-0.136,0.004,-1.005181625,0.6913688250000001,14.0038962,-163500.0,-98000.0,-520000.0,97436.013795,37.3,0.0,-1.975971818,2.474600077,-128.5977173,13.15999985,-513.9812622,-129.3909149,101.0
2018-10-05 19:58:57.840,0.298,-0.131,-0.001,-0.980665,0.6276256,13.7096967,-168000.0,-102000.0,-516000.0,97437.46948,37.3,0.0,-1.975971818,2.474600077,-128.5977173,13.15999985,-513.9812622,-129.3909149,101.0
2018-10-05 19:58:57.880,0.248,-0.1325,-0.024,-0.956148375,0.57859235,13.979379575,-170500.0,-110500.0,-516000.0,97436.85913,37.3,0.0,-1.975971818,2.474600077,-128.5977173,13.06999969,-513.9812622,-127.6698151,103.0
2018-10-05 19:58:57.920,0.198,-0.134,-0.047,-0.93163175,0.5295591,14.24906245,-173000.0,-119000.0,-516000.0,97436.24878,37.3,0.0,-1.975971818,2.474600077,-128.5977173,13.06999969,-513.9812622,-127.6698151,103.0
2018-10-05 19:58:57.960,0.192,-0.1303333333333333,-0.063,-0.9185562166666666,0.4772569666666666,14.242524683333334,-175333.33333333334,-121666.66666666669,-512666.6666666667,97434.47265666666,37.3,0.0,-1.975971818,2.474600077,-128.5977173,13.06999969,-513.9812622,-127.6698151,103.0
2018-10-05 19:58:58.000,0.186,-0.1266666666666666,-0.079,-0.9054806833333332,0.4249548333333333,14.235986916666668,-177666.66666666666,-124333.33333333331,-509333.3333333333,97432.69653333334,37.3,0.0,1.647498727,8.68047905,-128.4256897,12.96000004,-483.467865,-125.9828186,105.0
2018-10-05 19:58:58.040,0.18,-0.123,-0.095,-0.89240515,0.3726527,14.22944915,-180000.0,-127000.0,-506000.0,97430.92041,37.3,0.0,1.647498727,8.68047905,-128.4256897,12.96000004,-483.467865,-125.9828186,105.0
2018-10-05 19:58:58.080,0.194,-0.099,-0.0955,-0.887501825,0.328522775,13.292914075,-182500.0,-132000.0,-500500.0,97433.618165,37.3,0.0,1.647498727,8.68047905,-128.4256897,12.884999755,-483.467865,-125.14608,106.0
2018-10-05 19:58:58.120,0.208,-0.075,-0.096,-0.8825985,0.28439285,12.356379,-185000.0,-137000.0,-495000.0,97436.31592,37.3,0.0,1.647498727,8.68047905,-128.4256897,12.80999947,-483.467865,-124.3093414,107.0
2018-10-05 19:58:58.160,0.1999999999999999,-0.0743333333333333,-0.0963333333333333,-0.8793296166666666,0.2909306166666666,12.045835083333332,-181333.3333333333,-139666.66666666666,-494333.3333333333,97435.00366333332,37.3,0.0,1.647498727,8.68047905,-128.4256897,12.80999947,-483.467865,-124.3093414,107.0
2018-10-05 19:58:58.200,0.192,-0.0736666666666666,-0.0966666666666666,-0.8760607333333333,0.2974683833333333,11.735291166666666,-177666.66666666666,-142333.33333333334,-493666.6666666667,97433.69140666666,37.3,0.0,1.647498727,8.68047905,-128.4256897,12.63000011,-462.2259216,-122.6699371,109.0
2018-10-05 19:58:58.240,0.184,-0.073,-0.097,-0.87279185,0.30400615,11.42474725,-174000.0,-145000.0,-493000.0,97432.37915,37.3,0.0,1.647498727,8.68047905,-128.4256897,12.63000011,-462.2259216,-122.6699371,109.0
2018-10-05 19:58:58.280,0.151,-0.073,-0.079,-0.8825985000000001,0.2157463,11.3168741,-173000.0,-151500.0,-489000.0,97431.82373,37.295,0.0,1.647498727,8.68047905,-128.4256897,12.63000011,-462.2259216,-122.6699371,109.0
2018-10-05 19:58:58.320,0.118,-0.073,-0.061,-0.89240515,0.12748645,11.20900095,-172000.0,-158000.0,-485000.0,97431.26831,37.29,0.0,2.808905125,12.26024818,-126.5731735,12.42999935,-462.2259216,-121.0440674,111.0
2018-10-05 19:58:58.360,0.0699999999999999,-0.0755,-0.0365,-0.81395195,0.220649625,10.87557485,-165000.0,-157500.0,-480500.0,97430.288695,37.295,0.0,2.808905125,12.26024818,-126.5731735,12.42999935,-462.2259216,-121.0440674,111.0
2018-10-05 19:58:58.400,0.022,-0.078,-0.012,-0.73549875,0.3138128,10.54214875,-158000.0,-157000.0,-476000.0,97429.30908,37.3,0.0,2.808905125,12.26024818,-126.5731735,12.23999977,-428.5653992,-119.4457703,113.0
2018-10-05 19:58:58.440,0.03325,-0.06975,-0.00825,-0.7330470874999999,0.3358777625,10.5887303375,-160750.0,-160000.0,-476250.0,97426.7807,37.2975,0.0,2.808905125,12.26024818,-126.5731735,12.23999977,-428.5653992,-119.4457703,113.0
2018-10-05 19:58:58.480,0.0445,-0.0615,-0.0045,-0.730595425,0.357942725,10.635311925,-163500.0,-163000.0,-476500.0,97424.25232,37.295,0.0,2.808905125,12.26024818,-126.5731735,12.03999996,-428.5653992,-117.8745346,115.0
2018-10-05 19:58:58.520,0.05575,-0.05325,-0.00075,-0.7281437625,0.3800076874999999,10.6818935125,-166250.0,-166000.0,-476750.0,97421.72394,37.2925,0.0,2.808905125,12.26024818,-126.5731735,12.03999996,-428.5653992,-117.8745346,115.0
2018-10-05 19:58:58.560,0.067,-0.045,0.003,-0.7256921,0.40207265,10.7284751,-169000.0,-169000.0,-477000.0,97419.19556,37.29,0.0,2.808905125,12.26024818,-126.5731735,11.940000055,-416.7518616,-117.1027107,115.5
2018-10-05 19:58:58.600,0.0585,-0.0275,0.0075,-0.701175475,0.4511058999999999,10.1793027,-171000.0,-169500.0,-476000.0,97417.84668,37.29,0.0,2.808905125,12.26024818,-126.5731735,11.84000015,-404.938324,-116.3308868,116.0
2018-10-05 19:58:58.640,0.05,-0.01,0.012,-0.67665885,0.50013915,9.6301303,-173000.0,-170000.0,-475000.0,97416.4978,37.29,0.0,2.808905125,12.26024818,-126.5731735,11.84000015,-404.938324,-116.3308868,116.0
2018-10-05 19:58:58.680,0.0195,-0.009,-0.0154999999999999,-0.6570455500000001,0.5540757249999999,9.703680175,-167000.0,-168000.0,-472500.0,97419.555665,37.29,0.0,2.808905125,12.26024818,-126.5731735,11.84000015,-404.938324,-116.3308868,116.0
2018-10-05 19:58:58.720,-0.011,-0.008,-0.043,-0.63743225,0.6080123,9.77723005,-161000.0,-166000.0,-470000.0,97422.61353,37.29,0.0,2.808905125,12.26024818,-126.5731735,11.64999962,-404.938324,-114.7975082,118.0
2018-10-05 19:58:58.760,-0.0275,-0.00125,-0.0635,-0.6545938875,0.5957539875,9.664453575,-163250.0,-167250.0,-471000.0,97420.263675,37.29,0.0,3.796123981,14.05538082,-125.7793655,11.46000004,-376.6103821,-113.2846909,120.0
2018-10-05 19:58:58.800,-0.044,0.0055,-0.0839999999999999,-0.671755525,0.583495675,9.5516771,-165500.0,-168500.0,-472000.0,97417.91382,37.29,0.0,3.796123981,14.05538082,-125.7793655,11.46000004,-376.6103821,-113.2846909,120.0
2018-10-05 19:58:58.840,-0.0605,0.01225,-0.1045,-0.6889171625,0.5712373625,9.438900625,-167750.0,-169750.0,-473000.0,97415.563965,37.29,0.0,3.796123981,14.05538082,-125.7793655,11.46000004,-376.6103821,-113.2846909,120.0
2018-10-05 19:58:58.880,-0.077,0.019,-0.125,-0.7060788,0.55897905,9.32612415,-170000.0,-171000.0,-474000.0,97413.21411,37.29,0.0,3.796123981,14.05538082,-125.7793655,11.46000004,-376.6103821,-113.2846909,120.0
2018-10-05 19:58:58.920,-0.099,0.0204999999999999,-0.145,-0.6864655,0.46091255,9.2967042,-170000.0,-171000.0,-474000.0,97413.21411,37.29,0.0,3.796123981,14.05538082,-125.7793655,11.369999885,-376.6103821,-112.5418091,121.0
2018-10-05 19:58:58.960,-0.121,0.022,-0.165,-0.6668522,0.36284605,9.26728425,-170000.0,-171000.0,-474000.0,97413.21411,37.29,0.0,3.796123981,14.05538082,-125.7793655,11.27999973,-376.6103821,-111.7989273,122.0
2018-10-05 19:58:59.000,-0.1055,0.026,-0.15,-0.681562175,0.2255529499999999,8.9632781,-168000.0,-172500.0,-476000.0,97410.083005,37.29,0.0,3.796123981,14.05538082,-125.7793655,11.27999973,-376.6103821,-111.7989273,122.0
2018-10-05 19:58:59.040,-0.09,0.03,-0.135,-0.69627215,0.08825985,8.65927195,-166000.0,-174000.0,-478000.0,97406.9519,37.29,0.0,3.796123981,14.05538082,-125.7793655,11.10999966,-346.396637,-110.3304596,124.0
2018-10-05 19:58:59.080,-0.0746666666666666,0.0243333333333333,-0.1136666666666666,-0.67665885,0.1209486833333333,8.740994033333333,-165666.66666666666,-173333.33333333334,-478000.0,97406.60807,37.29,0.0,3.796123981,14.05538082,-125.7793655,10.94999981,-346.396637,-108.8684921,126.0
2018-10-05 19:58:59.120,-0.0593333333333333,0.0186666666666666,-0.0923333333333333,-0.65704555,0.1536375166666666,8.822716116666667,-165333.33333333334,-172666.66666666666,-478000.0,97406.26424,37.29,0.0,3.796123981,14.05538082,-125.7793655,10.94999981,-346.396637,-108.8684921,126.0
2018-10-05 19:58:59.160,-0.044,0.013,-0.071,-0.63743225,0.18632635,8.9044382,-165000.0,-172000.0,-478000.0,97405.92041,37.29,0.0,3.796123981,14.05538082,-125.7793655,10.87999964,-334.3488617,-108.15969085,126.5
2018-10-05 19:58:59.200,-0.008,0.0104999999999999,-0.0615,-0.632528925,0.28439285,9.193734375,-164500.0,-171000.0,-480500.0,97402.197265,37.29,0.0,3.796123981,14.05538082,-125.7793655,10.80999947,-322.3010864,-107.4508896,127.0
2018-10-05 19:58:59.240,0.028,0.008,-0.052,-0.6276256,0.38245935,9.48303055,-164000.0,-170000.0,-483000.0,97398.47412,37.29,0.0,2.510549068,12.78985977,-123.0404892,10.80999947,-322.3010864,-107.4508896,127.0
2018-10-05 19:58:59.280,0.031,0.0125,-0.0455,-0.603108975,0.348136075,9.4339973,-163000.0,-171000.0,-483500.0,97398.217775,37.285,0.0,2.510549068,12.78985977,-123.0404892,10.67999935,-322.3010864,-106.0300293,129.0
2018-10-05 19:58:59.320,0.034,0.017,-0.039,-0.57859235,0.3138128,9.38496405,-162000.0,-172000.0,-484000.0,97397.96143,37.28,0.0,2.510549068,12.78985977,-123.0404892,10.67999935,-322.3010864,-106.0300293,129.0
2018-10-05 19:58:59.360,-0.00125,0.01775,-0.024,-0.588399,0.3309744375,9.419287325,-161250.0,-172250.0,-482500.0,97397.29462,37.28,0.0,2.510549068,12.78985977,-123.0404892,10.61499977,-308.80183409999995,-105.33502195,130.0
2018-10-05 19:58:59.400,-0.0365,0.0185,-0.009,-0.5982056499999999,0.348136075,9.4536106,-160500.0,-172500.0,-481000.0,97396.62781,37.28,0.0,2.510549068,12.78985977,-123.0404892,10.55000019,-295.3025818,-104.6400146,131.0
2018-10-05 19:58:59.440,-0.07175,0.01925,0.0059999999999999,-0.6080123,0.3652977125,9.487933875,-159750.0,-172750.0,-479500.0,97395.961,37.28,0.0,2.510549068,12.78985977,-123.0404892,10.55000019,-295.3025818,-104.6400146,131.0
2018-10-05 19:58:59.480,-0.107,0.02,0.021,-0.61781895,0.38245935,9.52225715,-159000.0,-173000.0,-478000.0,97395.29419,37.28,0.0,2.510549068,12.78985977,-123.0404892,10.42999935,-295.3025818,-103.2434921,133.0
2018-10-05 19:58:59.520,-0.157,0.028,0.029,-0.59820565,0.5491724,9.1790244,-162000.0,-173000.0,-477000.0,97399.55444,37.28,0.0,2.510549068,12.78985977,-123.0404892,10.42999935,-295.3025818,-103.2434921,133.0
2018-10-05 19:58:59.560,-0.1733333333333333,0.029,0.0243333333333333,-0.5916678833333333,0.57859235,9.1594111,-159333.33333333334,-172333.33333333334,-478666.6666666667,97397.48128,37.28,0.0,2.510549068,12.78985977,-123.0404892,10.36499977,-286.78703310000003,-102.5690384,134.0
2018-10-05 19:58:59.600,-0.1896666666666666,0.03,0.0196666666666666,-0.5851301166666667,0.6080123000000001,9.1397978,-156666.66666666666,-171666.66666666666,-480333.3333333333,97395.40812,37.28,0.0,2.510549068,12.78985977,-123.0404892,10.30000019,-278.2714844,-101.8945847,135.0
2018-10-05 19:58:59.640,-0.206,0.031,0.015,-0.57859235,0.63743225,9.1201845,-154000.0,-171000.0,-482000.0,97393.33496,37.28,0.0,2.1703162785,12.062277315,-123.02326965,10.30000019,-278.2714844,-101.8945847,135.0
2018-10-05 19:58:59.680,-0.2165,0.0355,-0.0064999999999999,-0.55897905,0.67665885,9.1397978,-152000.0,-166500.0,-483000.0,97392.13562,37.28,0.0,2.00019988375,11.6984860875,-123.014659875,10.244999885,-278.2714844,-101.2249985,136.0
2018-10-05 19:58:59.720,-0.227,0.04,-0.028,-0.53936575,0.71588545,9.1594111,-150000.0,-162000.0,-484000.0,97390.93628,37.28,0.0,1.830083489,11.33469486,-123.0060501,10.18999958,-278.2714844,-100.5554123,137.0
2018-10-05 19:58:59.760,-0.2465,0.048,-0.0345,-0.5687857000000001,0.71588545,9.252574275,-148000.0,-157000.0,-487500.0,97389.907835,37.28,0.0,1.830083489,11.33469486,-123.0060501,10.13499975,-269.0859833,-99.892852785,137.5
2018-10-05 19:58:59.800,-0.266,0.056,-0.041,-0.59820565,0.71588545,9.34573745,-146000.0,-152000.0,-491000.0,97388.87939,37.28,0.0,1.830083489,11.33469486,-123.0060501,10.07999992,-259.9004822,-99.23029327,138.0
2018-10-05 19:58:59.840,-0.2483333333333333,0.0616666666666666,-0.0563333333333333,-0.5753234666666667,0.6930032666666667,8.937127033333333,-142000.0,-147333.33333333334,-491333.3333333333,97388.80615,37.28,0.0,1.830083489,11.33469486,-123.0060501,10.07999992,-259.9004822,-99.23029327,138.0
2018-10-05 19:58:59.880,-0.2306666666666666,0.0673333333333333,-0.0716666666666666,-0.5524412833333333,0.6701210833333333,8.528516616666668,-138000.0,-142666.66666666666,-491666.6666666667,97388.73291,37.28,0.0,1.830083489,11.33469486,-123.0060501,10.0349998455,-259.9004822,-98.564228055,139.0
2018-10-05 19:58:59.920,-0.213,0.073,-0.087,-0.5295591,0.6472389,8.1199062,-134000.0,-138000.0,-492000.0,97388.65967,37.28,0.0,1.830083489,11.33469486,-123.0060501,9.989999771,-259.9004822,-97.89816284,140.0
2018-10-05 19:58:59.960,-0.204,0.075,-0.0916666666666666,-0.5197524499999999,0.6407011333333333,7.9989575166666675,-135666.66666666666,-136333.33333333334,-494666.6666666667,97387.99642,37.28,0.0,1.830083489,11.33469486,-123.0060501,9.967499733,-254.076103225,-97.5668869,140.5
2018-10-05 19:59:00.000,-0.195,0.077,-0.0963333333333333,-0.5099458,0.6341633666666666,7.878008833333333,-137333.33333333334,-134666.66666666666,-497333.3333333333,97387.33317,37.28,0.0,1.830083489,11.33469486,-123.0060501,9.944999695,-248.25172425,-97.23561096,141.0
2018-10-05 19:59:00.040,-0.186,0.079,-0.101,-0.50013915,0.6276256,7.75706015,-139000.0,-133000.0,-500000.0,97386.66992,37.28,0.0,1.830083489,11.33469486,-123.0060501,9.899999619,-236.6029663,-96.57305908,142.0
2018-10-05 19:59:00.080,-0.1615,0.074,-0.1195,-0.524655775,0.63743225,7.85512665,-133500.0,-129500.0,-502000.0,97385.75134,37.275000000000006,0.0,0.918002151,8.876568793,-122.33693695,9.869999886,-236.6029663,-95.91862106,143.0
2018-10-05 19:59:00.120,-0.137,0.069,-0.138,-0.5491724,0.6472389,7.95319315,-128000.0,-126000.0,-504000.0,97384.83276,37.27,0.0,0.005920813,6.418442726,-121.6678238,9.840000153,-236.6029663,-95.26418304,144.0
2018-10-05 19:59:00.160,-0.1276666666666666,0.069,-0.145,-0.5328279833333334,0.5589790499999999,7.9433865,-130666.66666666669,-126666.66666666669,-506333.3333333333,97384.75545,37.27,0.0,0.005920813,6.418442726,-121.6678238,9.840000153,-236.6029663,-95.26418304,144.0
2018-10-05 19:59:00.200,-0.1183333333333333,0.069,-0.152,-0.5164835666666666,0.4707192,7.93357985,-133333.33333333334,-127333.33333333331,-508666.6666666667,97384.67814,37.27,0.0,0.005920813,6.418442726,-121.6678238,9.800000191,-221.999939,-93.96233368,145.0
2018-10-05 19:59:00.240,-0.109,0.069,-0.159,-0.50013915,0.38245935,7.9237732,-136000.0,-128000.0,-511000.0,97384.60083,37.27,0.0,0.005920813,6.418442726,-121.6678238,9.800000191,-221.999939,-93.96233368,145.0
2018-10-05 19:59:00.280,-0.07575,0.0635,-0.14675,-0.4927841625,0.308909475,8.041453,-132750.0,-126250.0,-512000.0,97384.6725475,37.27,0.0,0.005920813,6.418442726,-121.6678238,9.789999962,-221.999939,-93.307899475,146.0
2018-10-05 19:59:00.320,-0.0424999999999999,0.058,-0.1345,-0.485429175,0.2353596,8.1591328,-129500.0,-124500.0,-513000.0,97384.744265,37.27,0.0,0.005920813,6.418442726,-121.6678238,9.779999733,-221.999939,-92.65346527,147.0
2018-10-05 19:59:00.360,-0.0092499999999999,0.0525,-0.12225,-0.4780741874999999,0.161809725,8.276812600000001,-126250.0,-122750.0,-514000.0,97384.8159825,37.27,0.0,0.005920813,6.418442726,-121.6678238,9.783333142666669,-217.4920451,-92.2206014,147.66666666666666
2018-10-05 19:59:00.400,0.024,0.047,-0.11,-0.4707192,0.08825985,8.3944924,-123000.0,-121000.0,-515000.0,97384.8877,37.27,0.0,0.005920813,6.418442726,-121.6678238,9.786666552333331,-212.9841512,-91.78773753,148.33333333333334
2018-10-05 19:59:00.440,0.066,0.039,-0.096,-0.55897905,0.00980665,8.9044382,-123000.0,-121000.0,-515000.0,97384.8877,37.27,0.0,0.005920813,6.418442726,-121.6678238,9.789999962,-208.4762573,-91.35487366,149.0
2018-10-05 19:59:00.480,0.073,0.0246666666666666,-0.0623333333333333,-0.5524412833333333,0.0,9.126722266666668,-119333.33333333331,-121666.66666666669,-513666.6666666667,97383.53882,37.27,0.0,-1.849078655,5.538477421,-118.7598343,9.799999714,-208.4762573,-90.705574035,150.0
2018-10-05 19:59:00.520,0.08,0.0103333333333333,-0.0286666666666666,-0.5459035166666667,-0.00980665,9.349006333333334,-115666.66666666669,-122333.33333333331,-512333.3333333333,97382.18994,37.27,0.0,-1.849078655,5.538477421,-118.7598343,9.813333193666669,-206.61722816666665,-90.05970255333334,150.66666666666666
2018-10-05 19:59:00.560,0.087,-0.004,0.005,-0.53936575,-0.0196133,9.5712904,-112000.0,-123000.0,-511000.0,97380.84106,37.27,0.0,-1.849078655,5.538477421,-118.7598343,9.826666673333332,-204.7581990333333,-89.41383107166666,151.33333333333334
2018-10-05 19:59:00.600,0.0665,-0.014,0.019,-0.544269075,0.053936575,9.85568325,-112500.0,-126000.0,-512000.0,97382.617185,37.27,0.0,-1.849078655,5.538477421,-118.7598343,9.840000153,-202.8991699,-88.76795959,152.0
2018-10-05 19:59:00.640,0.046,-0.024,0.033,-0.5491724,0.12748645,10.1400761,-113000.0,-129000.0,-513000.0,97384.39331,37.27,0.0,-1.849078655,5.538477421,-118.7598343,9.840000153,-202.8991699,-88.76795959,152.0
2018-10-05 19:59:00.680,0.0216666666666666,-0.0236666666666666,0.0423333333333333,-0.5360968666666667,0.2059396499999999,10.127000566666666,-114000.0,-131333.33333333334,-512333.3333333333,97384.50724333333,37.27,0.0,-1.849078655,5.538477421,-118.7598343,9.840000153,-202.8991699,-88.76795959,152.0
2018-10-05 19:59:00.720,-0.0026666666666666,-0.0233333333333333,0.0516666666666666,-0.5230213333333333,0.28439285,10.113925033333334,-115000.0,-133666.66666666666,-511666.6666666667,97384.62117666668,37.27,0.0,-1.849078655,5.538477421,-118.7598343,9.869999886,-202.8991699,-87.4828949,154.0
2018-10-05 19:59:00.760,-0.027,-0.023,0.061,-0.5099458,0.36284605,10.1008495,-116000.0,-136000.0,-511000.0,97384.73511,37.27,0.0,-1.849078655,5.538477421,-118.7598343,9.869999886,-202.8991699,-87.4828949,154.0
2018-10-05 19:59:00.800,-0.0303333333333333,-0.0226666666666666,0.0516666666666666,-0.50013915,0.3791904666666666,10.113925033333334,-118000.0,-135000.0,-510666.6666666667,97383.91927333332,37.27,0.0,-1.849078655,5.538477421,-118.7598343,9.869999886,-202.8991699,-87.4828949,154.0
2018-10-05 19:59:00.840,-0.0336666666666666,-0.0223333333333333,0.0423333333333333,-0.4903325,0.3955348833333333,10.127000566666666,-120000.0,-134000.0,-510333.3333333333,97383.10343666666,37.27,0.0,-1.606148958,6.366995811,-119.2095032,9.899999619,-193.2214661,-86.22162628,156.0
2018-10-05 19:59:00.880,-0.037,-0.022,0.033,-0.48052585,0.4118793,10.1400761,-122000.0,-133000.0,-510000.0,97382.2876,37.27,0.0,-1.606148958,6.366995811,-119.2095032,9.929999352,-193.2214661,-84.95386505,158.0
2018-10-05 19:59:00.920,-0.0495,-0.0225,0.0215,-0.426589275,0.30400615,10.105752825,-124000.0,-132000.0,-511500.0,97381.851195,37.265,0.0,-1.606148958,6.366995811,-119.2095032,9.929999352,-193.2214661,-84.95386505,158.0
2018-10-05 19:59:00.960,-0.062,-0.023,0.01,-0.3726527,0.196133,10.07142955,-126000.0,-131000.0,-513000.0,97381.41479,37.26,0.0,-1.606148958,6.366995811,-119.2095032,9.944999695,-186.69166565,-84.31998443500001,158.5
2018-10-05 19:59:01.000,-0.0355,-0.0225,0.0245,-0.3775560249999999,0.3383294249999999,10.11065615,-121000.0,-130000.0,-511000.0,97383.642575,37.265,0.0,-1.606148958,6.366995811,-119.2095032,9.960000038,-180.1618652,-83.68610382,159.0
2018-10-05 19:59:01.040,-0.009,-0.022,0.039,-0.38245935,0.48052585,10.14988275,-116000.0,-129000.0,-509000.0,97385.87036,37.27,0.0,-1.606148958,6.366995811,-119.2095032,9.960000038,-180.1618652,-83.68610382,159.0
2018-10-05 19:59:01.080,-0.0259999999999999,-0.018,0.0245,-0.3775560249999999,0.53936575,10.086139525,-114000.0,-127500.0,-508500.0,97385.986325,37.265,0.0,-1.606148958,6.366995811,-119.2095032,9.960000038,-180.1618652,-83.68610382,159.0
2018-10-05 19:59:01.120,-0.043,-0.014,0.01,-0.3726527,0.59820565,10.0223963,-112000.0,-126000.0,-508000.0,97386.10229,37.26,0.0,-1.606148958,6.366995811,-119.2095032,9.979999542,-180.1618652,-82.43186188,161.0
2018-10-05 19:59:01.160,-0.0483333333333333,-0.0103333333333333,-0.0003333333333333,-0.3465016333333333,0.5557101666666667,10.07142955,-112666.66666666669,-125333.33333333331,-508000.0,97385.78287333332,37.26,0.0,-1.4870104789999998,6.1459882255,-119.3621025,9.9849996565,-175.6700592,-81.81313324,162.0
2018-10-05 19:59:01.200,-0.0536666666666666,-0.0066666666666666,-0.0106666666666666,-0.3203505666666666,0.5132146833333333,10.1204628,-113333.33333333331,-124666.66666666669,-508000.0,97385.46345666666,37.26,0.0,-1.367872,5.92498064,-119.5147018,9.989999771,-171.1782532,-81.1944046,163.0
2018-10-05 19:59:01.240,-0.059,-0.003,-0.021,-0.2941995,0.4707192,10.16949605,-114000.0,-124000.0,-508000.0,97385.14404,37.26,0.0,-1.367872,5.92498064,-119.5147018,10.0000000005,-171.1782532,-80.567287445,164.0
2018-10-05 19:59:01.280,-0.031,0.002,-0.0236666666666666,-0.2974683833333333,0.4543747833333333,9.9243298,-118000.0,-125666.66666666669,-509333.3333333333,97384.66593333334,37.26,0.0,-1.367872,5.92498064,-119.5147018,10.01000023,-171.1782532,-79.94017029,165.0
2018-10-05 19:59:01.320,-0.003,0.007,-0.0263333333333333,-0.3007372666666666,0.4380303666666666,9.67916355,-122000.0,-127333.33333333331,-510666.6666666667,97384.18782666666,37.26,0.0,-1.367872,5.92498064,-119.5147018,10.01000023,-171.1782532,-79.94017029,165.0
2018-10-05 19:59:01.360,0.025,0.012,-0.029,-0.30400615,0.42168595,9.4339973,-126000.0,-129000.0,-512000.0,97383.70972,37.26,0.0,-1.367872,5.92498064,-119.5147018,10.01999998,-169.3430939,-79.318187715,165.5
2018-10-05 19:59:01.400,0.0095,0.0034999999999999,-0.034,-0.32361945,0.40207265,9.73800345,-119500.0,-126500.0,-510500.0,97384.539795,37.26,0.0,-1.367872,5.92498064,-119.5147018,10.02999973,-167.5079346,-78.69620514,166.0
2018-10-05 19:59:01.440,-0.006,-0.005,-0.039,-0.34323275,0.38245935,10.0420096,-113000.0,-124000.0,-509000.0,97385.36987,37.26,0.0,-1.367872,5.92498064,-119.5147018,10.034999845,-167.5079346,-78.07585144000001,167.0
2018-10-05 19:59:01.480,-0.009,-0.0004999999999999,-0.0245,-0.3138128,0.397169325,9.860586575,-114500.0,-124500.0,-509000.0,97385.128785,37.26,0.0,-1.367872,5.92498064,-119.5147018,10.03999996,-167.5079346,-77.45549774,168.0
2018-10-05 19:59:01.520,-0.012,0.004,-0.01,-0.28439285,0.4118793,9.67916355,-116000.0,-125000.0,-509000.0,97384.8877,37.26,0.0,-1.367872,5.92498064,-119.5147018,10.03999996,-167.5079346,-77.45549774,168.0
2018-10-05 19:59:01.560,-0.0366666666666666,0.0026666666666666,-0.009,-0.30400615,0.3661149333333333,9.666088016666668,-117666.66666666669,-125666.66666666669,-510666.6666666667,97384.56421333332,37.25666666666667,0.0,-1.564075589,5.625074863,-118.9430313,10.05999947,-159.0928955,-76.21154022,170.0
2018-10-05 19:59:01.600,-0.0613333333333333,0.0013333333333333,-0.008,-0.32361945,0.3203505666666666,9.653012483333333,-119333.33333333331,-126333.33333333331,-512333.3333333333,97384.24072666669,37.25333333333333,0.0,-1.564075589,5.625074863,-118.9430313,10.05999947,-159.0928955,-76.21154022,170.0
2018-10-05 19:59:01.640,-0.086,-8.57e-19,-0.007,-0.34323275,0.2745862,9.63993695,-121000.0,-127000.0,-514000.0,97383.91724,37.25,0.0,-1.564075589,5.625074863,-118.9430313,10.05999947,-159.0928955,-76.21154022,170.0
2018-10-05 19:59:01.680,-0.076,0.0009999999999999,-0.0063333333333333,-0.3301572166666666,0.3301572166666666,9.58109705,-117000.0,-124666.66666666669,-513333.3333333333,97383.31095666668,37.25,0.0,-1.564075589,5.625074863,-118.9430313,10.09000015,-159.0928955,-74.98110199,171.0
2018-10-05 19:59:01.720,-0.066,0.0019999999999999,-0.0056666666666666,-0.3170816833333333,0.3857282333333333,9.52225715,-113000.0,-122333.33333333331,-512666.6666666667,97382.70467333333,37.25,0.0,-1.564075589,5.625074863,-118.9430313,10.09000015,-159.0928955,-74.98110199,171.0
2018-10-05 19:59:01.760,-0.056,0.003,-0.005,-0.30400615,0.44129925,9.46341725,-109000.0,-120000.0,-512000.0,97382.09839,37.25,0.0,-1.564075589,5.625074863,-118.9430313,10.10500002,-155.5519104,-74.369400025,172.0
2018-10-05 19:59:01.800,-0.0443333333333333,-0.0029999999999999,-0.0093333333333333,-0.2974683833333333,0.3988037666666666,9.568021516666668,-116000.0,-121666.66666666669,-514000.0,97381.80542,37.25,0.0,-1.564075589,5.625074863,-118.9430313,10.11999989,-152.0109253,-73.75769806,173.0
2018-10-05 19:59:01.840,-0.0326666666666666,-0.0089999999999999,-0.0136666666666666,-0.2909306166666666,0.3563082833333333,9.672625783333332,-123000.0,-123333.33333333331,-516000.0,97381.51245,37.25,0.0,-1.564075589,5.625074863,-118.9430313,10.11999989,-152.0109253,-73.75769806,173.0
2018-10-05 19:59:01.880,-0.021,-0.015,-0.018,-0.28439285,0.3138128,9.77723005,-130000.0,-125000.0,-518000.0,97381.21948,37.25,0.0,-1.564075589,5.625074863,-118.9430313,10.11999989,-152.0109253,-73.75769806,173.0
2018-10-05 19:59:01.920,-0.033,-0.03,-0.027,-0.28439285,0.34323275,9.6497436,-119000.0,-118000.0,-515000.0,97387.87842,37.25,0.0,-1.564075589,5.625074863,-118.9430313,10.14999962,-152.0109253,-72.53051758,175.0
2018-10-05 19:59:01.960,-0.049,-0.0343333333333333,-0.0186666666666666,-0.2811239666666666,0.30400615,9.6301303,-119666.66666666669,-118666.66666666669,-515333.3333333333,97386.54582,37.25,0.0,-1.564075589,5.625074863,-118.9430313,10.164999485,-149.47348025,-71.915298465,176.0
2018-10-05 19:59:02.000,-0.065,-0.0386666666666666,-0.0103333333333333,-0.2778550833333333,0.26477955,9.610517,-120333.33333333331,-119333.33333333331,-515666.6666666667,97385.21322,37.25,0.0,-1.564075589,5.625074863,-118.9430313,10.17999935,-146.9360352,-71.30007935,177.0
2018-10-05 19:59:02.040,-0.081,-0.043,-0.002,-0.2745862,0.22555295,9.5909037,-121000.0,-120000.0,-516000.0,97383.88062,37.25,0.0,-1.564075589,5.625074863,-118.9430313,10.17999935,-146.9360352,-71.30007935,177.0
2018-10-05 19:59:02.080,-0.0915,-0.0475,0.006,-0.24516625,0.289296175,9.939039775,-125000.0,-119000.0,-517000.0,97384.869385,37.25,0.0,-1.374588847,4.35196209,-118.4138184,10.21999931,-146.9360352,-70.07992554,178.0
2018-10-05 19:59:02.120,-0.102,-0.052,0.014,-0.2157463,0.3530394,10.28717585,-129000.0,-118000.0,-518000.0,97385.85815,37.25,0.0,-1.374588847,4.35196209,-118.4138184,10.21999931,-146.9360352,-70.07992554,178.0
2018-10-05 19:59:02.160,-0.1285,-0.054,0.01075,-0.2034879875,0.3554910625,10.4808571875,-129750.0,-116750.0,-518250.0,97386.108395,37.25,0.0,-1.374588847,4.35196209,-118.4138184,10.21999931,-146.9360352,-70.07992554,178.0
2018-10-05 19:59:02.200,-0.155,-0.0559999999999999,0.0075,-0.191229675,0.357942725,10.674538525,-130500.0,-115500.0,-518500.0,97386.35864,37.25,0.0,-1.374588847,4.35196209,-118.4138184,10.23999977,-144.5488892,-69.471473695,179.0
2018-10-05 19:59:02.240,-0.1815,-0.0579999999999999,0.0042499999999999,-0.1789713625,0.3603943874999999,10.8682198625,-131250.0,-114250.0,-518750.0,97386.608885,37.25,0.0,-1.374588847,4.35196209,-118.4138184,10.26000023,-142.1617432,-68.86302185,180.0
2018-10-05 19:59:02.280,-0.208,-0.06,0.001,-0.16671305,0.36284605,11.0619012,-132000.0,-113000.0,-519000.0,97386.85913,37.25,0.0,-1.374588847,4.35196209,-118.4138184,10.28999996,-142.1617432,-67.64611816,182.0
2018-10-05 19:59:02.320,-0.1425,-0.049,0.011,-0.1569064,0.3530394,10.65982855,-129000.0,-108500.0,-518000.0,97386.972045,37.25,0.0,-1.374588847,4.35196209,-118.4138184,10.28999996,-142.1617432,-67.64611816,182.0
2018-10-05 19:59:02.360,-0.077,-0.038,0.021,-0.14709975,0.34323275,10.2577559,-126000.0,-104000.0,-517000.0,97387.08496,37.25,0.0,-1.1507791875,3.773854554,-118.4426861,10.299999714999998,-134.92917634999998,-67.042797085,183.0
2018-10-05 19:59:02.400,-0.0605,-0.0424999999999999,0.0289999999999999,-0.161809725,0.328522775,10.399952325,-132000.0,-103000.0,-520000.0,97385.440065,37.25,0.0,-0.926969528,3.195747018,-118.4715538,10.30999947,-127.6966095,-66.43947601,184.0
2018-10-05 19:59:02.440,-0.044,-0.047,0.037,-0.1765197,0.3138128,10.54214875,-138000.0,-102000.0,-523000.0,97383.79517,37.25,0.0,-0.7031598685,2.6176394819999995,-118.5004215,10.30999947,-127.6966095,-66.43947601,184.0
2018-10-05 19:59:02.480,-0.0325,-0.0465,0.0355,-0.142196425,0.436395925,10.762798375,-130500.0,-97000.0,-520500.0,97387.07886,37.25,0.0,-0.479350209,2.039531946,-118.5292892,10.30999947,-127.6966095,-66.43947601,184.0
2018-10-05 19:59:02.520,-0.021,-0.046,0.034,-0.10787315,0.55897905,10.983448,-123000.0,-92000.0,-518000.0,97390.36255,37.25,0.0,-0.479350209,2.039531946,-118.5292892,10.32999992,-127.6966095,-65.22907257,185.0
2018-10-05 19:59:02.560,-0.041,-0.034,0.0306666666666666,-0.1013353833333333,0.5132146833333333,10.823272716666668,-125333.33333333331,-91666.66666666669,-518333.3333333333,97389.08691333332,37.25,0.0,-0.479350209,2.039531946,-118.5292892,10.339999675,-129.68549345,-64.62223816,186.0
2018-10-05 19:59:02.600,-0.061,-0.022,0.0273333333333333,-0.0947976166666666,0.4674503166666666,10.663097433333332,-127666.66666666669,-91333.33333333331,-518666.6666666667,97387.81127666667,37.25,0.0,-0.479350209,2.039531946,-118.5292892,10.34999943,-131.6743774,-64.01540375,187.0
2018-10-05 19:59:02.640,-0.081,-0.01,0.024,-0.08825985,0.42168595,10.50292215,-130000.0,-91000.0,-519000.0,97386.53564,37.25,0.0,-0.479350209,2.039531946,-118.5292892,10.34999943,-131.6743774,-63.411823275,188.0
2018-10-05 19:59:02.680,-0.0836666666666666,-0.0069999999999999,0.0213333333333333,-0.1013353833333333,0.4380303666666666,10.52253545,-129666.66666666669,-90333.33333333331,-519333.3333333333,97388.63321666668,37.25,0.0,-0.479350209,2.039531946,-118.5292892,10.34999943,-131.6743774,-62.8082428,189.0
2018-10-05 19:59:02.720,-0.0863333333333333,-0.0039999999999999,0.0186666666666666,-0.1144109166666666,0.4543747833333333,10.54214875,-129333.33333333331,-89666.66666666667,-519666.6666666667,97390.73079333334,37.25,0.0,-0.479350209,2.039531946,-118.5292892,10.34999943,-131.6743774,-62.8082428,189.0
