time,field.angular_velocity.x,field.angular_velocity.y,field.angular_velocity.z,field.linear_acceleration.x,field.linear_acceleration.y,field.linear_acceleration.z,field.magnetic_field.x,field.magnetic_field.y,field.magnetic_field.z,field.fluid_pressure,field.temperature,field.airspeed,field.measured.pitch,field.measured.roll,field.measured.yaw,field.alt_error,field.aspd_error,field.xtrack_error,field.wp_dist
2018-10-05 19:31:57.480,0.204,-0.169,0.142,0.5099458,-0.4314926,11.26784085,538000.0,-27000.0,-91000.0,97216.63818,43.48,0.0,7.046188831,-38.02124023,-80.78569794,-64.70999908,-2307.731201,0.0,278.0
2018-10-05 19:31:57.520,0.204,-0.169,0.142,0.5099458,-0.4314926,11.26784085,538000.0,-27000.0,-91000.0,97216.63818,43.48,0.0,7.046188831,-38.02124023,-80.78569794,-64.70999908,-2307.731201,0.0,278.0
2018-10-05 19:31:57.560,0.2345,-0.1635,0.174,0.593302325,-0.32361945,12.95458465,542000.0,-34500.0,-95000.0,97213.62915,43.48,0.0,7.046188831,-38.02124023,-80.78569794,-64.70999908,-2307.731201,0.0,278.0
2018-10-05 19:31:57.600,0.265,-0.158,0.206,0.67665885,-0.2157463,14.64132845,546000.0,-42000.0,-99000.0,97210.62012,43.48,0.0,7.046188831,-38.02124023,-80.78569794,-65.05999756,-2307.731201,0.0,276.0
2018-10-05 19:31:57.640,0.3,-0.139,0.1903333333333333,0.5949367666666667,-0.38245935,12.735569466666666,540333.3333333334,-44333.333333333336,-98666.66666666669,97209.81445666667,43.47666666666667,0.0,7.046188831,-38.02124023,-80.78569794,-65.05999756,-2307.731201,0.0,276.0
2018-10-05 19:31:57.680,0.335,-0.12,0.1746666666666666,0.5132146833333333,-0.5491724,10.829810483333333,534666.6666666666,-46666.66666666666,-98333.33333333331,97209.00879333333,43.47333333333333,0.0,7.046188831,-38.02124023,-80.78569794,-65.41999817,-2289.932617,0.0,0.0
2018-10-05 19:31:57.720,0.37,-0.101,0.159,0.4314926,-0.71588545,8.9240515,529000.0,-49000.0,-98000.0,97208.20313,43.47,0.0,7.046188831,-38.02124023,-80.78569794,-32.8499990855,-2289.932617,-21.12421608,0.5
2018-10-05 19:31:57.760,0.4054999999999999,-0.0925,0.1855,0.392266,-0.809048625,8.997601374999999,533000.0,-60500.0,-101000.0,97205.108645,43.465,0.0,7.046188831,-38.02124023,-80.78569794,-0.280000001,-2289.932617,-42.24843216,1.0
2018-10-05 19:31:57.800,0.441,-0.084,0.212,0.3530394,-0.9022118,9.07115125,537000.0,-72000.0,-104000.0,97202.01416,43.46,0.0,6.8293533325,-34.175128935,-83.29047012500001,-0.36250000425,-1912.44772325,-41.7368726725,1.5
2018-10-05 19:31:57.840,0.7934999999999999,-0.057,0.2205,-0.0245166249999999,-0.71588545,9.2378643,447500.0,-51000.0,-165000.0,97197.161865,43.455,0.0,6.612517834,-30.32901764,-85.79524231,-0.4450000075,-1534.9628295,-41.225313185000005,2.0
2018-10-05 19:31:57.880,1.146,-0.03,0.229,-0.40207265,-0.5295591,9.40457735,358000.0,-30000.0,-226000.0,97192.30957,43.45,0.0,6.612517834,-30.32901764,-85.79524231,-0.5275000107500001,-1157.47793575,-40.7137536975,2.5
2018-10-05 19:31:57.920,1.16275,-0.0287499999999999,0.2235,-0.50013915,-0.3702010375,10.399952325,317750.0,-27250.0,-260000.0,97190.4815675,43.447500000000005,0.0,6.612517834,-30.32901764,-85.79524231,-0.610000014,-779.993042,-40.20219421,3.0
2018-10-05 19:31:57.960,1.1795,-0.0275,0.218,-0.59820565,-0.210842975,11.3953273,277500.0,-24500.0,-294000.0,97188.653565,43.445,0.0,6.612517834,-30.32901764,-85.79524231,-0.7700000105,-774.6965332,-39.15608406,4.0
2018-10-05 19:31:58.000,1.19625,-0.02625,0.2125,-0.69627215,-0.0514849124999999,12.390702275,237250.0,-21750.0,-328000.0,97186.8255625,43.4425,0.0,6.612517834,-30.32901764,-85.79524231,-0.930000007,-769.4000244,-38.10997391,5.0
2018-10-05 19:31:58.040,1.213,-0.025,0.207,-0.79433865,0.10787315,13.38607725,197000.0,-19000.0,-362000.0,97184.99756,43.44,0.0,6.612517834,-30.32901764,-85.79524231,-0.930000007,-769.4000244,-38.10997391,5.0
2018-10-05 19:31:58.080,1.2805,0.0165,0.1605,-0.926728425,0.0539365750000006,12.027856225,163500.0,-38500.0,-380000.0,97184.35364,43.44,0.0,6.612517834,-30.32901764,-85.79524231,-1.0949999985,-769.4000244,-37.08122826,6.0
2018-10-05 19:31:58.120,1.348,0.058,0.114,-1.0591182,1.31e-15,10.6696352,130000.0,-58000.0,-398000.0,97183.70972,43.44,0.0,6.612517834,-30.32901764,-85.79524231,-1.25999999,-769.4000244,-36.05248261,7.0
2018-10-05 19:31:58.160,1.3376666666666668,0.074,0.1106666666666666,-1.0918070333333332,0.0817220833333342,9.71839015,125666.66666666669,-66000.0,-401333.3333333333,97180.25106,43.43666666666667,0.0,6.612517834,-30.32901764,-85.79524231,-1.25999999,-769.4000244,-36.05248261,7.0
2018-10-05 19:31:58.200,1.3273333333333333,0.09,0.1073333333333333,-1.124495866666667,0.1634441666666671,8.7671451,121333.33333333331,-74000.0,-404666.6666666667,97176.7924,43.43333333333333,0.0,6.612517834,-30.32901764,-85.79524231,-1.5174999532500002,-762.717147825,-34.5337896375,8.5
2018-10-05 19:31:58.240,1.317,0.106,0.104,-1.1571847,0.24516625,7.81590005,117000.0,-82000.0,-408000.0,97173.33374,43.43,0.0,6.612517834,-30.32901764,-85.79524231,-1.7749999165,-756.0342712500001,-33.015096665,10.0
2018-10-05 19:31:58.280,1.052,0.083,0.054,-1.2552512,0.588399,8.2768126,90000.0,-146000.0,-415000.0,97167.17529,43.43,0.0,6.612517834,-30.32901764,-85.79524231,-1.949999928,-742.6685181,-32.01331711,11.0
2018-10-05 19:31:58.320,1.0305,0.08375,0.0207499999999999,-1.2773161625,0.5369140875,8.0929379125,96000.0,-157500.0,-409000.0,97166.3528425,43.4275,0.0,4.132202625,3.01641798,-90.28909302,-1.949999928,-742.6685181,-32.01331711,11.0
2018-10-05 19:31:58.360,1.009,0.0844999999999999,-0.0125,-1.299381125,0.485429175,7.909063225,102000.0,-169000.0,-403000.0,97165.530395,43.425,0.0,4.132202625,3.01641798,-90.28909302,-2.1149999495,-742.6685181,-31.015687945000003,12.0
2018-10-05 19:31:58.400,0.9875,0.0852499999999999,-0.04575,-1.3214460875,0.4339442624999999,7.725188537499999,108000.0,-180500.0,-397000.0,97164.7079475,43.4225,0.0,4.132202625,3.01641798,-90.28909302,-2.279999971,-742.6685181,-30.01805878,13.0
2018-10-05 19:31:58.440,0.966,0.086,-0.079,-1.34351105,0.38245935,7.54131385,114000.0,-192000.0,-391000.0,97163.8855,43.42,0.0,4.132202625,3.01641798,-90.28909302,-2.279999971,-742.6685181,-30.01805878,13.0
2018-10-05 19:31:58.480,0.875,0.0595,-0.103,-1.3140911000000002,0.446202575,9.085861225,108000.0,-215000.0,-385500.0,97157.128905,43.415,0.0,4.132202625,3.01641798,-90.28909302,-2.599999905,-699.3760986,-28.06235886,15.0
2018-10-05 19:31:58.520,0.784,0.033,-0.127,-1.28467115,0.5099458,10.6304086,102000.0,-238000.0,-380000.0,97150.37231,43.41,0.0,4.132202625,3.01641798,-90.28909302,-2.909999847,-699.3760986,-26.12225151,17.0
2018-10-05 19:31:58.560,0.694,0.052,-0.141,-1.2552512,0.4511059,9.5124505,114500.0,-253000.0,-362500.0,97149.298095,43.405,0.0,4.132202625,3.01641798,-90.28909302,-2.909999847,-699.3760986,-26.12225151,17.0
2018-10-05 19:31:58.600,0.604,0.071,-0.155,-1.22583125,0.392266,8.3944924,127000.0,-268000.0,-345000.0,97148.22388,43.4,0.0,4.132202625,3.01641798,-90.28909302,-2.909999847,-699.3760986,-26.12225151,17.0
2018-10-05 19:31:58.640,0.638,0.0576666666666666,-0.1606666666666666,-1.202949066666667,0.4086104166666666,8.724649616666667,130000.0,-279666.6666666667,-339000.0,97147.22697,43.4,0.0,4.132202625,3.01641798,-90.28909302,-2.909999847,-699.3760986,-26.12225151,17.0
2018-10-05 19:31:58.680,0.6719999999999999,0.0443333333333333,-0.1663333333333333,-1.1800668833333332,0.4249548333333333,9.054806833333334,133000.0,-291333.3333333333,-333000.0,97146.23006,43.4,0.0,3.075092077,11.787931205,-89.56575775499999,-3.064999938,-681.22357175,-25.149095535,18.0
2018-10-05 19:31:58.720,0.706,0.031,-0.172,-1.1571847,0.44129925,9.38496405,136000.0,-303000.0,-327000.0,97145.23315,43.4,0.0,2.017981529,20.55944443,-88.84242249,-3.220000029,-663.0710449,-24.17593956,19.0
2018-10-05 19:31:58.760,0.7075,0.0375,-0.18,-1.12776475,0.4952358249999999,9.948846425,144000.0,-313000.0,-315000.0,97142.736815,43.395,0.0,2.017981529,20.55944443,-88.84242249,-3.370000005,-643.5493469,-23.223039625,20.0
2018-10-05 19:31:58.800,0.709,0.044,-0.188,-1.0983448,0.5491724,10.5127288,152000.0,-323000.0,-303000.0,97140.24048,43.39,0.0,2.017981529,20.55944443,-88.84242249,-3.519999981,-624.0276489,-22.27013969,21.0
2018-10-05 19:31:58.840,0.6085,0.064,-0.1995,-1.0787315,0.4903325,9.429093975,158500.0,-334000.0,-290500.0,97140.670775,43.385000000000005,0.0,2.017981529,20.55944443,-88.84242249,-3.664999962,-624.0276489,-21.30958843,22.0
2018-10-05 19:31:58.880,0.508,0.084,-0.211,-1.0591182,0.4314926,8.34545915,165000.0,-345000.0,-278000.0,97141.10107,43.38,0.0,2.017981529,20.55944443,-88.84242249,-3.809999943,-624.0276489,-20.34903717,23.0
2018-10-05 19:31:58.920,0.502,0.076,-0.21,-1.06892485,0.4511059,7.962999799999999,170666.66666666666,-350666.6666666667,-270666.6666666667,97139.7054,43.376666666666665,0.0,2.017981529,20.55944443,-88.84242249,-3.809999943,-624.0276489,-20.34903717,23.0
2018-10-05 19:31:58.960,0.496,0.068,-0.209,-1.0787315,0.4707192,7.58054045,176333.33333333334,-356333.3333333333,-263333.3333333333,97138.30973,43.373333333333335,0.0,2.017981529,20.55944443,-88.84242249,-4.099999905,-624.0276489,-18.43296814,25.0
2018-10-05 19:31:59.000,0.49,0.06,-0.208,-1.08853815,0.4903325,7.1980811,182000.0,-362000.0,-256000.0,97136.91406,43.37,0.0,2.017981529,20.55944443,-88.84242249,-4.099999905,-624.0276489,-18.43296814,25.0
2018-10-05 19:31:59.040,0.4659999999999999,0.045,-0.217,-1.103248125,0.505042475,7.81590005,183000.0,-371500.0,-249500.0,97134.939575,43.37,0.0,2.017981529,20.55944443,-88.84242249,-4.099999905,-624.0276489,-18.43296814,25.0
2018-10-05 19:31:59.080,0.442,0.03,-0.226,-1.1179581,0.51975245,8.433719,184000.0,-381000.0,-243000.0,97132.96509,43.37,0.0,2.017981529,20.55944443,-88.84242249,-4.349999905,-599.6896973,-16.51432037,27.0
2018-10-05 19:31:59.120,0.3716666666666667,0.026,-0.2273333333333333,-1.124495866666667,0.5066769166666667,8.4533323,186666.66666666663,-383333.3333333333,-237000.0,97132.80233,43.36666666666667,0.0,-1.792930245,35.94232178,-85.39916992,-4.349999905,-599.6896973,-16.51432037,27.0
2018-10-05 19:31:59.160,0.3013333333333333,0.022,-0.2286666666666666,-1.1310336333333333,0.4936013833333333,8.472945600000001,189333.3333333333,-385666.6666666667,-231000.0,97132.63957,43.36333333333333,0.0,-1.792930245,35.94232178,-85.39916992,-4.4649999145,-599.6896973,-15.62457752,28.0
2018-10-05 19:31:59.200,0.231,0.018,-0.23,-1.1375714,0.48052585,8.4925589,192000.0,-388000.0,-225000.0,97132.47681,43.36,0.0,-1.792930245,35.94232178,-85.39916992,-4.579999924,-599.6896973,-14.73483467,29.0
2018-10-05 19:31:59.240,0.208,0.0133333333333333,-0.2343333333333333,-1.14737805,0.4576436666666666,8.211434933333333,195666.66666666663,-392000.0,-222333.3333333333,97132.27742666668,43.35666666666667,0.0,-1.792930245,35.94232178,-85.39916992,-4.769999981,-571.6386719,-12.84230423,31.0
2018-10-05 19:31:59.280,0.185,0.0086666666666666,-0.2386666666666666,-1.1571847,0.4347614833333333,7.930310966666667,199333.3333333333,-396000.0,-219666.66666666663,97132.07804333331,43.35333333333333,0.0,-1.792930245,35.94232178,-85.39916992,-4.769999981,-571.6386719,-12.84230423,31.0
2018-10-05 19:31:59.320,0.162,0.004,-0.243,-1.16699135,0.4118793,7.649187,203000.0,-400000.0,-217000.0,97131.87866,43.35,0.0,-1.792930245,35.94232178,-85.39916992,-4.823333263333333,-571.6386719,-12.2068189,31.666666666666668
2018-10-05 19:31:59.360,0.1689999999999999,-0.0055,-0.244,-1.181701325,0.436395925,7.497183925,209500.0,-401500.0,-211500.0,97131.87866,43.35,0.0,-1.792930245,35.94232178,-85.39916992,-4.876666545666667,-571.6386719,-11.57133357,32.333333333333336
2018-10-05 19:31:59.400,0.176,-0.015,-0.245,-1.1964113,0.46091255,7.34518085,216000.0,-403000.0,-206000.0,97131.87866,43.35,0.0,-1.792930245,35.94232178,-85.39916992,-4.929999828,-571.6386719,-10.93584824,33.0
2018-10-05 19:31:59.440,0.188,-0.0209999999999999,-0.2485,-1.240541225,0.5491724,7.75706015,228000.0,-404500.0,-198500.0,97131.41174,43.345,0.0,-1.792930245,35.94232178,-85.39916992,-4.984999895,-563.07525635,-10.005229952,33.5
2018-10-05 19:31:59.480,0.2,-0.027,-0.252,-1.28467115,0.63743225,8.16893945,240000.0,-406000.0,-191000.0,97130.94482,43.34,0.0,-3.413725674,38.33313179,-83.666080475,-5.0124999285,-558.7935485749999,-9.539920808000002,33.75
2018-10-05 19:31:59.520,0.17,-0.036,-0.2546666666666666,-1.2748645,0.6145500666666667,8.182014983333334,237000.0,-408333.3333333333,-190666.66666666663,97131.09537333332,43.336666666666666,0.0,-5.034521103,40.7239418,-81.93299103,-5.039999962,-554.5118408,-9.074611664,34.0
2018-10-05 19:31:59.560,0.14,-0.045,-0.2573333333333333,-1.26505785,0.5916678833333333,8.195090516666667,234000.0,-410666.6666666667,-190333.3333333333,97131.24592666668,43.333333333333336,0.0,-5.034521103,40.7239418,-81.93299103,-5.079999923999999,-554.5118408,-8.1364364625,35.0
2018-10-05 19:31:59.600,0.11,-0.054,-0.26,-1.2552512,0.5687857,8.20816605,231000.0,-413000.0,-190000.0,97131.39648,43.33,0.0,-5.034521103,40.7239418,-81.93299103,-5.119999886,-554.5118408,-7.198261261,36.0
2018-10-05 19:31:59.640,0.0565,-0.066,-0.269,-1.211121275,0.544269075,8.085582925,239000.0,-413000.0,-183000.0,97131.405635,43.33,0.0,-5.034521103,40.7239418,-81.93299103,-5.139999866,-541.4257202,-5.323371887,38.0
2018-10-05 19:31:59.680,0.003,-0.078,-0.278,-1.16699135,0.51975245,7.9629998,247000.0,-413000.0,-176000.0,97131.41479,43.33,0.0,-5.034521103,40.7239418,-81.93299103,-5.139999866,-541.4257202,-4.698541005333333,38.66666666666666
2018-10-05 19:31:59.720,-0.0043333333333333,-0.0786666666666666,-0.2823333333333333,-1.1604535833333334,0.6210878333333334,8.16893945,252666.66666666663,-411333.3333333333,-176000.0,97131.32730666666,43.32666666666667,0.0,-5.034521103,40.7239418,-81.93299103,-5.139999866,-541.4257202,-4.073710123666666,39.333333333333336
2018-10-05 19:31:59.760,-0.0116666666666666,-0.0793333333333333,-0.2866666666666667,-1.1539158166666663,0.7224232166666666,8.374879100000001,258333.3333333333,-409666.6666666667,-176000.0,97131.23982333334,43.32333333333333,0.0,-5.034521103,40.7239418,-81.93299103,-5.139999866,-541.4257202,-3.448879242,40.0
2018-10-05 19:31:59.800,-0.019,-0.08,-0.291,-1.14737805,0.8237586,8.58081875,264000.0,-408000.0,-176000.0,97131.15234,43.32,0.0,-5.034521103,40.7239418,-81.93299103,-5.139999866,-541.4257202,-3.448879242,40.0
2018-10-05 19:31:59.840,-0.01,-0.081,-0.298,-1.211121275,0.7060788,8.105196225,264500.0,-411000.0,-177500.0,97133.328245,43.32,0.0,-5.034521103,40.7239418,-81.93299103,-5.109999895,-535.1873474,-2.5143146515,41.0
2018-10-05 19:31:59.880,-0.001,-0.082,-0.305,-1.2748645,0.588399,7.6295737,265000.0,-414000.0,-179000.0,97135.50415,43.32,0.0,-5.034521103,40.7239418,-81.93299103,-5.079999924,-528.9489746,-1.579750061,42.0
2018-10-05 19:31:59.920,-0.003,-0.0973333333333333,-0.306,-1.2127557166666667,0.5851301166666667,7.564196033333333,273333.3333333333,-410000.0,-176000.0,97134.99349,43.31666666666667,0.0,-8.190023422,42.21490097,-76.55020142,-5.079999924,-528.9489746,-1.579750061,42.0
2018-10-05 19:31:59.960,-0.005,-0.1126666666666666,-0.307,-1.1506469333333331,0.5818612333333333,7.498818366666667,281666.6666666667,-406000.0,-173000.0,97134.48283,43.31333333333333,0.0,-8.190023422,42.21490097,-76.55020142,-5.0,-528.9489746,0.290424347,44.0
2018-10-05 19:32:00.000,-0.007,-0.128,-0.308,-1.08853815,0.57859235,7.4334407,290000.0,-402000.0,-170000.0,97133.97217,43.31,0.0,-8.190023422,42.21490097,-76.55020142,-5.0,-528.9489746,0.290424347,44.0
2018-10-05 19:32:00.040,-0.5285000000000001,-0.1485,-0.2329999999999999,-1.20621795,0.6864655,9.4536106,287000.0,-410500.0,-176500.0,97134.048465,43.305,0.0,-8.190023422,42.21490097,-76.55020142,-4.9299998285,-523.2472534000001,1.212156296,45.0
2018-10-05 19:32:00.080,-1.05,-0.169,-0.158,-1.32389775,0.79433865,11.4737805,284000.0,-419000.0,-183000.0,97134.12476,43.3,0.0,-8.190023422,42.21490097,-76.55020142,-4.859999657,-517.5455322,2.133888245,46.0
2018-10-05 19:32:00.120,-1.21775,-0.16225,-0.136,-1.2944778,0.838468575,11.5301687375,286250.0,-412750.0,-187500.0,97135.2844275,43.3,0.0,-8.190023422,42.21490097,-76.55020142,-4.859999657,-517.5455322,2.133888245,46.0
2018-10-05 19:32:00.160,-1.3855,-0.1555,-0.114,-1.26505785,0.8825985000000001,11.586556975,288500.0,-406500.0,-192000.0,97136.444095,43.3,0.0,-8.190023422,42.21490097,-76.55020142,-4.7849998475,-517.5455322,3.0687446595,47.0
2018-10-05 19:32:00.200,-1.55325,-0.14875,-0.092,-1.2356379,0.926728425,11.6429452125,290750.0,-400250.0,-196500.0,97137.6037625,43.3,0.0,-8.190023422,42.21490097,-76.55020142,-4.710000038,-517.5455322,4.003601074,48.0
2018-10-05 19:32:00.240,-1.721,-0.142,-0.07,-1.20621795,0.97085835,11.69933345,293000.0,-394000.0,-201000.0,97138.76343,43.3,0.0,-8.190023422,42.21490097,-76.55020142,-4.625,-513.6573944,4.9330177305,48.5
2018-10-05 19:32:00.280,-1.92,-0.024,-0.095,-1.22583125,1.08853815,12.2975391,289000.0,-348000.0,-261000.0,97143.32886,43.29,0.0,-8.190023422,42.21490097,-76.55020142,-4.582499981,-511.7133255,5.39772605875,48.75
2018-10-05 19:32:00.320,-1.7976666666666663,0.009,-0.1093333333333333,-1.2519823166666666,1.0427737833333333,11.692795683333332,281333.3333333333,-325666.6666666667,-282000.0,97143.70320666666,43.28666666666667,0.0,-8.190023422,42.21490097,-76.55020142,-4.539999962,-509.7692566,5.862434387,49.0
2018-10-05 19:32:00.360,-1.6753333333333331,0.042,-0.1236666666666666,-1.2781333833333333,0.9970094166666666,11.088052266666669,273666.6666666667,-303333.3333333333,-303000.0,97144.07755333334,43.28333333333333,0.0,-9.10912323,19.43408012,-71.36338806,-4.400000095,-509.7692566,7.741413116,51.0
2018-10-05 19:32:00.400,-1.553,0.075,-0.138,-1.30428445,0.95124505,10.48330885,266000.0,-281000.0,-324000.0,97144.4519,43.28,0.0,-9.10912323,19.43408012,-71.36338806,-4.3299999235,-511.7986603000001,8.688386916999999,52.0
2018-10-05 19:32:00.440,-1.4886666666666666,0.0726666666666666,-0.142,-1.3467799333333332,0.8466407833333334,10.14988275,259666.66666666663,-255666.66666666663,-343000.0,97145.53832666666,43.27666666666667,0.0,-9.10912323,19.43408012,-71.36338806,-4.259999752,-513.828064,9.635360718,53.0
2018-10-05 19:32:00.480,-1.4243333333333337,0.0703333333333333,-0.146,-1.3892754166666668,0.7420365166666667,9.81645665,253333.3333333333,-230333.3333333333,-362000.0,97146.62475333334,43.27333333333333,0.0,-9.10912323,19.43408012,-71.36338806,-4.259999752,-513.828064,9.635360718,53.0
2018-10-05 19:32:00.520,-1.36,0.068,-0.15,-1.4317709,0.63743225,9.48303055,247000.0,-205000.0,-381000.0,97147.71118,43.27,0.0,-9.10912323,19.43408012,-71.36338806,-4.259999752,-513.828064,9.635360718,53.0
2018-10-05 19:32:00.560,-1.264,0.054,-0.146,-1.4513842,0.5295591,9.497740525,243500.0,-173500.0,-392500.0,97146.957395,43.27,0.0,-9.10912323,19.43408012,-71.36338806,-4.139999866,-529.8709717,11.51594925,55.0
2018-10-05 19:32:00.600,-1.168,0.04,-0.142,-1.4709975,0.42168595,9.5124505,240000.0,-142000.0,-404000.0,97146.20361,43.27,0.0,-9.10912323,19.43408012,-71.36338806,-4.139999866,-529.8709717,11.51594925,55.0
2018-10-05 19:32:00.640,-1.0395,0.0175,-0.121,-1.3925443,0.201036325,9.831166625,231500.0,-118000.0,-418500.0,97148.034665,43.265,0.0,-9.10912323,19.43408012,-71.36338806,-4.139999866,-529.8709717,11.51594925,55.0
2018-10-05 19:32:00.680,-0.911,-0.005,-0.1,-1.3140911,-0.0196133,10.14988275,223000.0,-94000.0,-433000.0,97149.86572,43.26,0.0,-9.10912323,19.43408012,-71.36338806,-4.0,-529.8709717,13.41968536,57.0
2018-10-05 19:32:00.720,-0.8176666666666667,-0.0066666666666666,-0.0666666666666666,-1.3369732833333332,-0.0359577166666666,9.564752633333333,221666.66666666663,-81333.33333333333,-437333.3333333333,97150.24820666669,43.25666666666667,0.0,-9.10912323,19.43408012,-71.36338806,-3.9249999525,-529.8709717,14.370399475,58.0
2018-10-05 19:32:00.760,-0.7243333333333334,-0.0083333333333333,-0.0333333333333333,-1.359855466666667,-0.0523021333333333,8.979622516666668,220333.3333333333,-68666.66666666667,-441666.6666666667,97150.63069333333,43.25333333333333,0.0,-9.10912323,19.43408012,-71.36338806,-3.849999905,-529.8709717,15.32111359,59.0
2018-10-05 19:32:00.800,-0.631,-0.01,1.22e-18,-1.38273765,-0.06864655,8.3944924,219000.0,-56000.0,-446000.0,97151.01318,43.25,0.0,-9.7975955,1.5179052350000006,-69.72384262,-3.849999905,-529.8709717,15.32111359,59.0
2018-10-05 19:32:00.840,-0.618,-0.0166666666666666,0.026,-1.4186953666666666,-0.0523021333333333,8.446794533333334,218333.3333333333,-47000.0,-444666.6666666667,97151.79443,43.25,0.0,-10.48606777,-16.39826965,-68.08429718,-3.849999905,-529.8709717,15.32111359,59.0
2018-10-05 19:32:00.880,-0.605,-0.0233333333333333,0.052,-1.454653083333333,-0.0359577166666666,8.499096666666667,217666.66666666663,-38000.0,-443333.3333333333,97152.57568,43.25,0.0,-10.48606777,-16.39826965,-68.08429718,-3.679999828,-534.4623413,17.23210907,61.0
2018-10-05 19:32:00.920,-0.592,-0.03,0.078,-1.4906108,-0.0196133,8.5513988,217000.0,-29000.0,-442000.0,97153.35693,43.25,0.0,-10.48606777,-16.39826965,-68.08429718,-3.679999828,-534.4623413,17.23210907,61.0
2018-10-05 19:32:00.960,-0.5465,-0.05,0.1134999999999999,-1.475900825,-0.063743225,8.5317855,223000.0,-14500.000000000027,-437500.0,97154.41284,43.245000000000005,0.0,-10.48606777,-16.39826965,-68.08429718,-3.594999909,-534.4623413,18.16431427,62.0
2018-10-05 19:32:01.000,-0.501,-0.07,0.149,-1.46119085,-0.10787315,8.5121722,229000.0,-5.3e-11,-433000.0,97155.46875,43.24,0.0,-10.48606777,-16.39826965,-68.08429718,-3.50999999,-534.4623413,19.09651947,63.0
2018-10-05 19:32:01.040,-0.5006666666666667,-0.0773333333333333,0.1679999999999999,-1.4350397833333333,-0.0424954833333333,8.950202566666666,227000.0,5666.666666666632,-432000.0,97156.20320666669,43.236666666666665,0.0,-10.48606777,-16.39826965,-68.08429718,-3.289999962,-536.0084229,21.02716827,65.0
2018-10-05 19:32:01.080,-0.5003333333333333,-0.0846666666666666,0.187,-1.4088887166666666,0.0228821833333333,9.388232933333336,225000.0,11333.333333333318,-431000.0,97156.93766333332,43.23333333333333,0.0,-10.48606777,-16.39826965,-68.08429718,-3.289999962,-536.0084229,21.02716827,65.0
2018-10-05 19:32:01.120,-0.5,-0.092,0.206,-1.38273765,0.08825985,9.8262633,223000.0,17000.0,-430000.0,97157.67212,43.23,0.0,-10.48606777,-16.39826965,-68.08429718,-3.1799999475,-536.0084229,21.970687865,65.5
2018-10-05 19:32:01.160,-0.4745,-0.1055,0.2165,-1.4219642499999998,0.112776475,9.522257150000002,222500.0,20500.0,-427500.0,97161.169435,43.23,0.0,-10.48606777,-16.39826965,-68.08429718,-3.069999933,-536.0084229,22.91420746,66.0
2018-10-05 19:32:01.200,-0.449,-0.119,0.227,-1.46119085,0.1372931,9.218251,222000.0,24000.0,-425000.0,97164.66675,43.23,0.0,-10.48606777,-16.39826965,-68.08429718,-3.069999933,-536.0084229,22.91420746,66.0
2018-10-05 19:32:01.240,-0.4639999999999999,-0.122,0.2285,-1.397447625,0.12748645,9.20844435,230000.0,38500.0,-420000.0,97165.386965,43.225,0.0,-10.48606777,-16.39826965,-68.08429718,-2.819999933,-528.5953369,24.81561279,68.0
2018-10-05 19:32:01.280,-0.479,-0.125,0.23,-1.3337044,0.1176798,9.1986377,238000.0,53000.0,-415000.0,97166.10718,43.22,0.0,-10.48606777,-16.39826965,-68.08429718,-2.819999933,-528.5953369,24.81561279,68.0
2018-10-05 19:32:01.320,-0.4366666666666666,-0.1353333333333333,0.2286666666666666,-1.3108222166666668,0.1013353833333333,9.574559283333334,238000.0,55666.66666666666,-410333.3333333333,97167.60457666666,43.22,0.0,-10.72147846,-29.67405128,-73.44911957,-2.819999933,-528.5953369,24.81561279,68.0
2018-10-05 19:32:01.360,-0.3943333333333333,-0.1456666666666666,0.2273333333333333,-1.2879400333333333,0.0849909666666666,9.950480866666666,238000.0,58333.333333333336,-405666.6666666667,97169.10197333334,43.22,0.0,-10.72147846,-29.67405128,-73.44911957,-2.689999938,-528.5953369,25.779483795,69.0
2018-10-05 19:32:01.400,-0.352,-0.156,0.226,-1.26505785,0.06864655,10.32640245,238000.0,61000.0,-401000.0,97170.59937,43.22,0.0,-10.72147846,-29.67405128,-73.44911957,-2.559999943,-528.5953369,26.7433548,70.0
2018-10-05 19:32:01.440,-0.301,-0.159,0.2304999999999999,-1.260154525,0.053936575,10.3362091,241000.0,69000.0,-397500.0,97173.385625,43.215,0.0,-10.72147846,-29.67405128,-73.44911957,-2.559999943,-528.5953369,26.7433548,70.0
2018-10-05 19:32:01.480,-0.25,-0.162,0.235,-1.2552512,0.0392266,10.34601575,244000.0,77000.0,-394000.0,97176.17188,43.21,0.0,-10.72147846,-29.67405128,-73.44911957,-2.269999981,-527.1608276,28.6418457,72.0
2018-10-05 19:32:01.520,-0.2323333333333333,-0.171,0.238,-1.2683267333333332,0.0032688833333333,10.440813366666667,243333.3333333333,77000.0,-393333.3333333333,97177.02433666668,43.20666666666667,0.0,-10.72147846,-29.67405128,-73.44911957,-2.1249999405,-527.1608276,29.58213043,73.0
2018-10-05 19:32:01.560,-0.2146666666666666,-0.18,0.241,-1.281402266666667,-0.0326888333333333,10.535610983333331,242666.66666666663,77000.0,-392666.6666666667,97177.87679333331,43.20333333333333,0.0,-10.72147846,-29.67405128,-73.44911957,-1.9799999,-527.1608276,30.52241516,74.0
2018-10-05 19:32:01.600,-0.197,-0.189,0.244,-1.2944778,-0.06864655,10.6304086,242000.0,77000.0,-392000.0,97178.72925,43.2,0.0,-10.70944214,-31.66441059,-75.917304995,-1.9799999,-527.1608276,30.52241516,74.0
2018-10-05 19:32:01.640,-0.2086666666666666,-0.1993333333333333,0.249,-1.2617889666666666,-0.0261510666666666,10.715399566666669,249333.3333333333,77666.66666666667,-387333.3333333333,97181.06079333334,43.2,0.0,-10.69740582,-33.6547699,-78.38549042,-1.9799999,-527.1608276,30.52241516,74.0
2018-10-05 19:32:01.680,-0.2203333333333333,-0.2096666666666666,0.254,-1.2291001333333331,0.0163444166666666,10.800390533333331,256666.66666666663,78333.33333333333,-382666.6666666667,97183.39233666669,43.2,0.0,-10.69740582,-33.6547699,-78.38549042,-1.659999967,-528.9111938,32.42138672,76.0
2018-10-05 19:32:01.720,-0.232,-0.22,0.259,-1.1964113,0.0588399,10.8853815,264000.0,79000.0,-378000.0,97185.72388,43.2,0.0,-10.69740582,-33.6547699,-78.38549042,-1.659999967,-528.9111938,32.42138672,76.0
2018-10-05 19:32:01.760,-0.2295,-0.249,0.2695,-1.18660465,0.08825985,11.821916575,271500.0,80500.0,-371000.0,97187.554935,43.195,0.0,-10.69740582,-33.6547699,-78.38549042,-1.4949999455,-528.9111938,33.35790634,77.0
2018-10-05 19:32:01.800,-0.227,-0.278,0.28,-1.176798,0.1176798,12.75845165,279000.0,82000.0,-364000.0,97189.38599,43.19,0.0,-10.69740582,-33.6547699,-78.38549042,-1.329999924,-528.9111938,34.29442596,78.0
2018-10-05 19:32:01.840,-0.204,-0.2856666666666667,0.28,-1.1441091666666667,0.1405619833333333,12.921895816666666,280333.3333333333,83666.66666666667,-362333.3333333333,97191.63208333332,43.19,0.0,-10.69740582,-33.6547699,-78.38549042,-1.329999924,-528.9111938,34.29442596,78.0
2018-10-05 19:32:01.880,-0.181,-0.2933333333333333,0.28,-1.1114203333333332,0.1634441666666666,13.085339983333334,281666.6666666667,85333.33333333333,-360666.6666666667,97193.87817666668,43.19,0.0,-10.69740582,-33.6547699,-78.38549042,-0.98999995,-535.4242554,36.18618011,80.0
2018-10-05 19:32:01.920,-0.158,-0.301,0.28,-1.0787315,0.18632635,13.24878415,283000.0,87000.0,-359000.0,97196.12427,43.19,0.0,-10.69740582,-33.6547699,-78.38549042,-0.98999995,-535.4242554,36.18618011,80.0
2018-10-05 19:32:01.960,-0.1765,-0.31,0.2795,-1.01008495,0.220649625,13.533177,285000.0,86000.0,-350000.0,97198.443605,43.185,0.0,-10.69740582,-33.6547699,-78.38549042,-0.8249999585,-535.4242554,37.10780334,81.0
2018-10-05 19:32:02.000,-0.195,-0.319,0.279,-0.9414384,0.2549729,13.81756985,287000.0,85000.0,-341000.0,97200.76294,43.18,0.0,-10.69740582,-33.6547699,-78.38549042,-0.659999967,-535.4242554,38.02942657,82.0
2018-10-05 19:32:02.040,-0.1795,-0.318,0.275,-0.89240515,0.220649625,14.1019627,286000.0,80500.0,-348000.0,97201.516725,43.175,0.0,-9.604535103,-36.61763,-87.01912689,-0.659999967,-535.4242554,38.02942657,82.0
2018-10-05 19:32:02.080,-0.164,-0.317,0.271,-0.8433719,0.18632635,14.38635555,285000.0,76000.0,-355000.0,97202.27051,43.17,0.0,-9.604535103,-36.61763,-87.01912689,-0.319999993,-535.7911987,39.89338684,83.0
2018-10-05 19:32:02.120,-0.146,-0.3206666666666666,0.2723333333333333,-0.8401030166666666,0.20593965,14.500766466666668,281333.3333333333,79000.0,-350666.6666666667,97203.88183666668,43.17,0.0,-9.604535103,-36.61763,-87.01912689,-0.319999993,-535.7911987,39.89338684,83.0
2018-10-05 19:32:02.160,-0.128,-0.3243333333333333,0.2736666666666666,-0.8368341333333333,0.22555295,14.615177383333332,277666.6666666667,82000.0,-346333.3333333333,97205.49316333332,43.17,0.0,-9.604535103,-36.61763,-87.01912689,0.0,-535.7911987,41.71481323,85.0
2018-10-05 19:32:02.200,-0.11,-0.328,0.275,-0.83356525,0.24516625,14.7295883,274000.0,85000.0,-342000.0,97207.10449,43.17,0.0,-9.604535103,-36.61763,-87.01912689,0.0,-535.7911987,41.71481323,85.0
2018-10-05 19:32:02.240,-0.13125,-0.3365,0.2735,-0.7453054,0.2917478375,15.52392695,278250.0,81750.0,-336000.0,97209.5901475,43.1675,0.0,-9.604535103,-36.61763,-87.01912689,0.0,-535.7911987,41.71481323,85.0
2018-10-05 19:32:02.280,-0.1525,-0.345,0.272,-0.65704555,0.338329425,16.3182656,282500.0,78500.0,-330000.0,97212.075805,43.165,0.0,-9.604535103,-36.61763,-87.01912689,0.2066666683333333,-541.2156372,42.93520100666667,86.33333333333333
2018-10-05 19:32:02.320,-0.17375,-0.3535,0.2705,-0.5687857000000001,0.3849110125,17.11260425,286750.0,75250.0,-324000.0,97214.5614625,43.1625,0.0,-9.604535103,-36.61763,-87.01912689,0.4133333366666666,-546.6400757,44.15558878333333,87.66666666666667
2018-10-05 19:32:02.360,-0.195,-0.362,0.269,-0.48052585,0.4314926,17.9069429,291000.0,72000.0,-318000.0,97217.04712,43.16,0.0,-9.604535103,-36.61763,-87.01912689,0.620000005,-552.0645142,45.37597656,89.0
2018-10-05 19:32:02.400,-0.2255,-0.354,0.2675,-0.4952358249999999,0.44129925,17.813779725,291000.0,72000.0,-318000.0,97217.04712,43.16,0.0,-7.888000965,-38.23796463,-95.54542542,0.620000005,-552.0645142,45.37597656,89.0
2018-10-05 19:32:02.440,-0.256,-0.346,0.266,-0.5099458,0.4511059,17.72061655,291000.0,72000.0,-318000.0,97217.04712,43.16,0.0,-7.888000965,-38.23796463,-95.54542542,0.879999995,-552.0645142,47.15734863,91.0
2018-10-05 19:32:02.480,-0.155,-0.322,0.251,-0.65704555,0.44129925,15.6318001,294000.0,80000.0,-304000.0,97222.02759,43.15,0.0,-7.888000965,-38.23796463,-95.54542542,0.879999995,-552.0645142,47.15734863,91.0
2018-10-05 19:32:02.520,-0.1173333333333333,-0.3243333333333333,0.234,-0.6145500666666667,0.3759215833333333,15.517389183333332,290333.3333333333,79000.0,-306000.0,97222.21883333332,43.14666666666667,0.0,-7.888000965,-38.23796463,-95.54542542,0.879999995,-552.0645142,47.15734863,91.0
2018-10-05 19:32:02.560,-0.0796666666666666,-0.3266666666666666,0.217,-0.5720545833333333,0.3105439166666667,15.402978266666668,286666.6666666667,78000.0,-308000.0,97222.41007666668,43.14333333333333,0.0,-7.888000965,-38.23796463,-95.54542542,1.120000005,-552.0645142,48.91523743,92.0
2018-10-05 19:32:02.600,-0.042,-0.329,0.2,-0.5295591,0.24516625,15.28856735,283000.0,77000.0,-310000.0,97222.60132,43.14,0.0,-7.888000965,-38.23796463,-95.54542542,1.2350000145000002,-565.17993165,49.78444672,93.0
2018-10-05 19:32:02.640,-0.1119999999999999,-0.3399999999999999,0.2115,-0.55897905,0.093163175,14.66094175,284000.0,71500.0,-308500.0,97226.67847,43.14,0.0,-7.888000965,-38.23796463,-95.54542542,1.350000024,-578.2953491,50.65365601,94.0
2018-10-05 19:32:02.680,-0.182,-0.351,0.223,-0.588399,-0.0588399,14.03331615,285000.0,66000.0,-307000.0,97230.75562,43.14,0.0,-7.888000965,-38.23796463,-95.54542542,1.350000024,-578.2953491,50.65365601,94.0
2018-10-05 19:32:02.720,-0.131,-0.3603333333333333,0.2363333333333333,-0.5491724,-0.0228821833333333,14.461539866666666,281000.0,68000.0,-300666.6666666667,97229.65495,43.13666666666667,0.0,-6.013138294,-40.1733017,-103.2197342,1.350000024,-578.2953491,50.65365601,94.0
2018-10-05 19:32:02.760,-0.08,-0.3696666666666666,0.2496666666666666,-0.5099458,0.0130755333333333,14.889763583333334,277000.0,70000.0,-294333.3333333333,97228.55428,43.13333333333333,0.0,-6.013138294,-40.1733017,-103.2197342,1.4549999835,-578.2953491,51.510849,95.0
2018-10-05 19:32:02.800,-0.029,-0.379,0.263,-0.4707192,0.04903325,15.3179873,273000.0,72000.0,-288000.0,97227.45361,43.13,0.0,-6.013138294,-40.1733017,-103.2197342,1.559999943,-578.2953491,52.36804199,96.0
2018-10-05 19:32:02.840,0.0283333333333333,-0.373,0.271,-0.4314926,-0.0130755333333333,15.3179873,282000.0,74666.66666666667,-289666.6666666667,97232.52563333334,43.13,0.0,-6.013138294,-40.1733017,-103.2197342,1.559999943,-578.2953491,52.36804199,96.0
2018-10-05 19:32:02.880,0.0856666666666666,-0.367,0.2789999999999999,-0.392266,-0.0751843166666666,15.3179873,291000.0,77333.33333333333,-291333.3333333333,97237.59765666666,43.13,0.0,-6.013138294,-40.1733017,-103.2197342,1.769999981,-600.9821167,54.04113007,98.0
2018-10-05 19:32:02.920,0.143,-0.361,0.287,-0.3530394,-0.1372931,15.3179873,300000.0,80000.0,-293000.0,97242.66968,43.13,0.0,-6.013138294,-40.1733017,-103.2197342,1.869999945,-604.943573,54.84723282,98.5
2018-10-05 19:32:02.960,0.027,-0.357,0.311,-0.392266,-0.22555295,14.91591465,284000.0,63000.0,-251000.0,97243.45093,43.12,0.0,-6.013138294,-40.1733017,-103.2197342,1.969999909,-608.9050293,55.65333557,99.0
2018-10-05 19:32:03.000,0.0163333333333333,-0.3623333333333333,0.3233333333333333,-0.3661149333333333,-0.2484351333333333,15.036863333333333,283000.0,62333.333333333336,-263000.0,97244.06738333334,43.11666666666667,0.0,-6.013138294,-40.1733017,-103.2197342,1.969999909,-608.9050293,55.65333557,99.0
2018-10-05 19:32:03.040,0.0056666666666666,-0.3676666666666666,0.3356666666666666,-0.3399638666666666,-0.2713173166666667,15.157812016666666,282000.0,61666.66666666666,-275000.0,97244.68383666666,43.11333333333333,0.0,-4.594071388,-38.98321152,-111.4397354,2.149999857,-608.9050293,57.26139832,101.0
2018-10-05 19:32:03.080,-0.005,-0.373,0.348,-0.3138128,-0.2941995,15.2787607,281000.0,61000.0,-287000.0,97245.30029,43.11,0.0,-4.594071388,-38.98321152,-111.4397354,2.149999857,-608.9050293,57.26139832,101.0
2018-10-05 19:32:03.120,-0.0185,-0.376,0.3585,-0.3138128,-0.102969825,15.36702055,286500.0,64500.0,-287000.0,97244.67163,43.11,0.0,-4.594071388,-38.98321152,-111.4397354,2.149999857,-608.9050293,57.26139832,101.0
2018-10-05 19:32:03.160,-0.032,-0.379,0.369,-0.3138128,0.08825985,15.4552804,292000.0,68000.0,-287000.0,97244.04297,43.11,0.0,-4.594071388,-38.98321152,-111.4397354,2.329999924,-650.6809082,58.84579468,102.0
2018-10-05 19:32:03.200,-0.0763333333333333,-0.3853333333333333,0.369,-0.2745862,0.1536375166666666,15.805050916666666,291666.6666666667,68666.66666666667,-270000.0,97245.18432666668,43.10666666666667,0.0,-4.594071388,-38.98321152,-111.4397354,2.329999924,-650.6809082,58.84579468,102.0
2018-10-05 19:32:03.240,-0.1206666666666666,-0.3916666666666666,0.369,-0.2353596,0.2190151833333333,16.154821433333332,291333.3333333333,69333.33333333333,-253000.0,97246.32568333331,43.10333333333333,0.0,-4.594071388,-38.98321152,-111.4397354,2.329999924,-650.6809082,58.84579468,102.0
2018-10-05 19:32:03.280,-0.165,-0.398,0.369,-0.196133,0.28439285,16.50459195,291000.0,70000.0,-236000.0,97247.46704,43.1,0.0,-4.594071388,-38.98321152,-111.4397354,2.480000019,-650.6809082,60.3757782,104.0
2018-10-05 19:32:03.320,-0.0963333333333333,-0.3843333333333333,0.3546666666666667,-0.1503686333333333,0.3105439166666666,16.118863716666667,269666.6666666667,70333.33333333333,-237000.0,97248.54736333332,43.09666666666667,0.0,-4.594071388,-38.98321152,-111.4397354,2.5499999525000003,-652.8295287999999,61.114608765,104.5
2018-10-05 19:32:03.360,-0.0276666666666666,-0.3706666666666666,0.3403333333333333,-0.1046042666666666,0.3366949833333333,15.733135483333331,248333.3333333333,70666.66666666667,-238000.0,97249.62768666667,43.09333333333333,0.0,-4.594071388,-38.98321152,-111.4397354,2.619999886,-654.9781494,61.85343933,105.0
2018-10-05 19:32:03.400,0.041,-0.357,0.326,-0.0588399,0.36284605,15.34740725,227000.0,71000.0,-239000.0,97250.70801,43.09,0.0,-4.594071388,-38.98321152,-111.4397354,2.619999886,-654.9781494,61.85343933,105.0
2018-10-05 19:32:03.440,-0.039,-0.3675,0.317,-0.093163175,0.406975975,15.5141203,228000.0,65000.0,-236000.0,97252.25525,43.09,0.0,-4.594071388,-38.98321152,-111.4397354,2.619999886,-654.9781494,61.85343933,105.0
2018-10-05 19:32:03.480,-0.119,-0.378,0.308,-0.12748645,0.4511059,15.68083335,229000.0,59000.0,-233000.0,97253.80249,43.09,0.0,-4.594071388,-38.98321152,-111.4397354,2.74000001,-654.9781494,63.28094482,107.0
2018-10-05 19:32:03.520,-0.154,-0.3703333333333333,0.3023333333333333,-0.1340242166666666,0.44129925,15.814857566666667,230666.66666666663,58333.333333333336,-225666.66666666663,97254.05477,43.086666666666666,0.0,-3.208454371,-39.3443985,-124.4202805,2.839999914,-659.4161987,64.67727661,108.0
2018-10-05 19:32:03.560,-0.189,-0.3626666666666666,0.2966666666666666,-0.1405619833333333,0.4314926,15.948881783333334,232333.3333333333,57666.66666666666,-218333.3333333333,97254.30705,43.083333333333336,0.0,-3.208454371,-39.3443985,-124.4202805,2.839999914,-659.4161987,64.67727661,108.0
2018-10-05 19:32:03.600,-0.224,-0.355,0.291,-0.14709975,0.42168595,16.082906,234000.0,57000.0,-211000.0,97254.55933,43.08,0.0,-3.208454371,-39.3443985,-124.4202805,2.839999914,-659.4161987,64.67727661,108.0
2018-10-05 19:32:03.640,-0.2025,-0.3575,0.278,-0.102969825,0.406975975,15.724963275,222500.0,64500.0,-213000.0,97255.352785,43.08,0.0,-3.208454371,-39.3443985,-124.4202805,2.884999871,-659.4161987,65.332775115,109.0
2018-10-05 19:32:03.680,-0.181,-0.36,0.265,-0.0588399,0.392266,15.36702055,211000.0,72000.0,-215000.0,97256.14624,43.08,0.0,-3.208454371,-39.3443985,-124.4202805,2.929999828,-659.4161987,65.98827362,110.0
2018-10-05 19:32:03.720,-0.157,-0.3666666666666666,0.255,0.0032688833333333,0.3334261,15.360482783333334,222666.66666666663,72666.66666666667,-202333.3333333333,97255.97737666666,43.07666666666667,0.0,-3.208454371,-39.3443985,-124.4202805,3.0,-659.4161987,67.26430511,111.0
2018-10-05 19:32:03.760,-0.133,-0.3733333333333333,0.245,0.0653776666666666,0.2745862,15.353945016666666,234333.3333333333,73333.33333333333,-189666.66666666663,97255.80851333334,43.07333333333333,0.0,-3.208454371,-39.3443985,-124.4202805,3.0,-659.4161987,67.26430511,111.0
2018-10-05 19:32:03.800,-0.109,-0.38,0.235,0.12748645,0.2157463,15.34740725,246000.0,74000.0,-177000.0,97255.63965,43.07,0.0,-3.208454371,-39.3443985,-124.4202805,3.0299999715,-656.0314025499999,67.866680145,111.5
2018-10-05 19:32:03.840,-0.0875,-0.3805,0.2415,0.132389775,0.12748645,15.56315355,276500.0,76500.0,-177500.0,97256.063845,43.065,0.0,-3.208454371,-39.3443985,-124.4202805,3.059999943,-652.6466064,68.46905518,112.0
2018-10-05 19:32:03.880,-0.066,-0.381,0.248,0.1372931,0.0392266,15.77889985,307000.0,79000.0,-178000.0,97256.48804,43.06,0.0,-3.208454371,-39.3443985,-124.4202805,3.0766665936666664,-652.6466064,68.84547424666667,112.33333333333331
2018-10-05 19:32:03.920,-0.009,-0.3873333333333333,0.259,0.1732508166666666,0.00980665,16.19077915,286000.0,77666.66666666667,-183000.0,97255.17375,43.06,0.0,-3.208454371,-39.3443985,-124.4202805,3.093333244333333,-652.6466064,69.22189331333333,112.66666666666669
2018-10-05 19:32:03.960,0.0479999999999999,-0.3936666666666666,0.27,0.2092085333333333,-0.0196133,16.60265845,265000.0,76333.33333333333,-188000.0,97253.85946,43.06,0.0,-3.208454371,-39.3443985,-124.4202805,3.109999895,-652.6466064,69.59831238,113.0
2018-10-05 19:32:04.000,0.105,-0.4,0.281,0.24516625,-0.04903325,17.01453775,244000.0,75000.0,-193000.0,97252.54517,43.06,0.0,-0.787345171,-42.33759308,-136.713913,3.109999895,-652.6466064,69.59831238,113.0
2018-10-05 19:32:04.040,0.054,-0.39,0.312,0.201036325,-0.142196425,16.274135675,245500.0,73500.0,-170000.0,97254.623415,43.055,0.0,-0.787345171,-42.33759308,-136.713913,3.1199998855,-651.7509155,70.13587189,113.5
2018-10-05 19:32:04.080,0.003,-0.38,0.343,0.1569064,-0.2353596,15.5337336,247000.0,72000.0,-147000.0,97256.70166,43.05,0.0,-0.787345171,-42.33759308,-136.713913,3.12499988075,-651.3030700500001,70.404651645,113.75
2018-10-05 19:32:04.120,0.0785,-0.3934999999999999,0.3575,0.08825985,0.12748645,16.17116585,248000.0,70500.0,-164000.0,97258.48999,43.05,0.0,-0.787345171,-42.33759308,-136.713913,3.129999876,-650.8552246,70.6734314,114.0
2018-10-05 19:32:04.160,0.154,-0.407,0.372,0.0196133,0.4903325,16.8085981,249000.0,69000.0,-181000.0,97260.27832,43.05,0.0,-0.787345171,-42.33759308,-136.713913,3.129999876,-650.8552246,71.69081116,115.0
2018-10-05 19:32:04.200,0.0776666666666666,-0.4033333333333333,0.3553333333333333,0.0751843166666666,0.5459035166666667,16.53074301666667,246000.0,74333.33333333333,-174000.0,97259.17358333334,43.04666666666667,0.0,-0.787345171,-42.33759308,-136.713913,3.129999876,-650.8552246,71.69081116,115.0
2018-10-05 19:32:04.240,0.0013333333333333,-0.3996666666666666,0.3386666666666666,0.1307553333333333,0.6014745333333333,16.252887933333334,243000.0,79666.66666666667,-167000.0,97258.06884666666,43.04333333333333,0.0,-0.787345171,-42.33759308,-136.713913,3.1149998905,-634.11520385,72.15216827500001,115.5
2018-10-05 19:32:04.280,-0.075,-0.396,0.322,0.18632635,0.65704555,15.97503285,240000.0,85000.0,-160000.0,97256.96411,43.04,0.0,-0.787345171,-42.33759308,-136.713913,3.099999905,-617.3751831,72.61352539,116.0
2018-10-05 19:32:04.320,-0.1109999999999999,-0.3843333333333333,0.2993333333333333,0.1699819333333333,0.7322298666666667,15.844277516666669,224333.3333333333,81666.66666666667,-162666.66666666666,97257.71281,43.03666666666667,0.0,-0.787345171,-42.33759308,-136.713913,3.099999905,-617.3751831,72.61352539,116.0
2018-10-05 19:32:04.360,-0.147,-0.3726666666666666,0.2766666666666666,0.1536375166666666,0.8074141833333333,15.713522183333334,208666.66666666663,78333.33333333333,-165333.33333333334,97258.46151,43.03333333333333,0.0,-0.787345171,-42.33759308,-136.713913,3.059999943,-616.7385254,73.48109436,117.0
2018-10-05 19:32:04.400,-0.183,-0.361,0.254,0.1372931,0.8825985,15.58276685,193000.0,75000.0,-168000.0,97259.21021,43.03,0.0,0.547732174,-41.6428299,-148.8006287,3.059999943,-616.7385254,73.48109436,117.0
2018-10-05 19:32:04.440,-0.1245,-0.3349999999999999,0.2215,0.093163175,0.8237585999999999,14.9649479,191000.0,94500.0,-160000.0,97257.482915,43.03,0.0,0.547732174,-41.6428299,-148.8006287,2.99000001,-616.7385254,74.28633881,118.0
2018-10-05 19:32:04.480,-0.066,-0.309,0.189,0.04903325,0.7649187,14.34712895,189000.0,114000.0,-152000.0,97255.75562,43.03,0.0,0.547732174,-41.6428299,-148.8006287,2.99000001,-616.7385254,74.28633881,118.0
2018-10-05 19:32:04.520,-0.0836666666666666,-0.3106666666666666,0.1806666666666666,0.0065377666666666,0.4837947333333333,14.203298083333332,180000.0,109333.33333333331,-162333.33333333334,97256.35986666668,43.02666666666667,0.0,0.547732174,-41.6428299,-148.8006287,2.99000001,-616.7385254,74.28633881,118.0
2018-10-05 19:32:04.560,-0.1013333333333333,-0.3123333333333333,0.1723333333333333,-0.0359577166666666,0.2026707666666666,14.059467216666668,171000.0,104666.66666666669,-172666.66666666666,97256.96411333334,43.02333333333333,0.0,0.547732174,-41.6428299,-148.8006287,2.9599999190000004,-609.4673157,74.6602211,118.5
2018-10-05 19:32:04.600,-0.119,-0.314,0.164,-0.0784532,-0.0784532,13.91563635,162000.0,100000.0,-183000.0,97257.56836,43.02,0.0,0.547732174,-41.6428299,-148.8006287,2.929999828,-602.196106,75.03410339,119.0
2018-10-05 19:32:04.640,-0.094,-0.3226666666666666,0.1826666666666666,-0.0392266,-0.1111420333333333,14.115038233333332,163666.66666666666,108000.0,-169000.0,97257.66805,43.02,0.0,0.547732174,-41.6428299,-148.8006287,2.8949998615,-602.196106,75.371162415,119.0
2018-10-05 19:32:04.680,-0.069,-0.3313333333333333,0.2013333333333333,0.0,-0.1438308666666666,14.314440116666669,165333.33333333334,116000.0,-155000.0,97257.76774,43.02,0.0,0.547732174,-41.6428299,-148.8006287,2.87749987825,-602.196106,75.5396919275,119.0
2018-10-05 19:32:04.720,-0.044,-0.34,0.22,0.0392266,-0.1765197,14.513842,167000.0,124000.0,-141000.0,97257.86743,43.02,0.0,0.547732174,-41.6428299,-148.8006287,2.859999895,-602.196106,75.70822144,119.0
2018-10-05 19:32:04.760,-0.0255,-0.3485,0.246,0.093163175,-0.250069575,14.646231775,182500.0,112500.0,-140000.0,97254.99878,43.015,0.0,2.582811594,-43.62392426,-157.0259094,2.789999962,-593.3891602,76.32706451,120.0
2018-10-05 19:32:04.800,-0.007,-0.357,0.272,0.14709975,-0.32361945,14.77862155,198000.0,101000.0,-139000.0,97252.13013,43.01,0.0,2.582811594,-43.62392426,-157.0259094,2.789999962,-593.3891602,76.32706451,120.0
2018-10-05 19:32:04.840,-0.0559999999999999,-0.3565,0.2835,0.1176798,-0.4314926,14.83746145,193000.0,112500.0,-131000.0,97254.031375,43.005,0.0,2.582811594,-43.62392426,-157.0259094,2.720000029,-593.3891602,76.89196777,120.0
2018-10-05 19:32:04.880,-0.105,-0.356,0.295,0.08825985,-0.53936575,14.89630135,188000.0,124000.0,-123000.0,97255.93262,43.0,0.0,2.582811594,-43.62392426,-157.0259094,2.720000029,-593.3891602,76.89196777,120.0
2018-10-05 19:32:04.920,-0.0155,-0.37,0.3305,0.1863263499999999,-0.81395195,15.34740725,181000.0,129500.0,-110000.0,97256.173705,43.0,0.0,2.582811594,-43.62392426,-157.0259094,2.720000029,-593.3891602,76.89196777,120.0
2018-10-05 19:32:04.960,0.074,-0.384,0.366,0.28439285,-1.08853815,15.79851315,174000.0,135000.0,-97000.0,97256.41479,43.0,0.0,2.582811594,-43.62392426,-157.0259094,2.639999866,-593.3891602,77.38533783,121.0
2018-10-05 19:32:05.000,0.0356666666666666,-0.3803333333333333,0.4053333333333333,0.2255529499999999,-0.7322298666666667,16.001183916666665,162333.33333333334,132000.0,-103666.66666666669,97255.12288,42.99666666666667,0.0,2.582811594,-43.62392426,-157.0259094,2.639999866,-593.3891602,77.38533783,121.0
2018-10-05 19:32:05.040,-0.0026666666666666,-0.3766666666666666,0.4446666666666666,0.1667130499999999,-0.3759215833333333,16.203854683333333,150666.66666666666,129000.0,-110333.33333333331,97253.83097,42.99333333333333,0.0,2.582811594,-43.62392426,-157.0259094,2.589999914,-619.7207642000001,77.606098175,121.0
2018-10-05 19:32:05.080,-0.041,-0.373,0.484,0.10787315,-0.0196133,16.40652545,139000.0,126000.0,-117000.0,97252.53906,42.99,0.0,2.582811594,-43.62392426,-157.0259094,2.536666552,-623.4537353666667,77.7971344,121.33333333333331
2018-10-05 19:32:05.120,-0.0223333333333333,-0.3683333333333333,0.471,0.16671305,0.0947976166666666,16.0240661,151000.0,134000.0,-112000.0,97251.89412333332,42.99,0.0,2.582811594,-43.62392426,-157.0259094,2.48333319,-627.1867065333333,77.988170625,121.66666666666669
2018-10-05 19:32:05.160,-0.0036666666666666,-0.3636666666666666,0.458,0.2255529499999999,0.2092085333333333,15.64160675,163000.0,142000.0,-107000.0,97251.24918666668,42.99,0.0,2.582811594,-43.62392426,-157.0259094,2.429999828,-630.9196777,78.17920685,122.0
2018-10-05 19:32:05.200,0.015,-0.359,0.445,0.28439285,0.32361945,15.2591474,175000.0,150000.0,-102000.0,97250.60425,42.99,0.0,2.275052905,-43.90174866,-164.07458494999997,2.36499989,-630.9196777,78.32640076,122.0
2018-10-05 19:32:05.240,-0.0036666666666666,-0.349,0.422,0.2353595999999999,0.3857282333333333,14.9257213,149000.0,154000.0,-106333.33333333331,97249.51172,42.986666666666665,0.0,1.967294216,-44.17957306,-171.1232605,2.299999952,-630.9196777,78.47359467,122.0
2018-10-05 19:32:05.280,-0.0223333333333333,-0.339,0.399,0.1863263499999999,0.4478370166666666,14.5922952,123000.0,158000.0,-110666.66666666669,97248.41919,42.98333333333333,0.0,1.967294216,-44.17957306,-171.1232605,2.2566665806666664,-626.998291,78.54513804333334,122.0
2018-10-05 19:32:05.320,-0.041,-0.329,0.376,0.1372931,0.5099458,14.2588691,97000.0,162000.0,-115000.0,97247.32666,42.98,0.0,1.967294216,-44.17957306,-171.1232605,2.2133332093333333,-623.0769043,78.61668141666667,122.0
2018-10-05 19:32:05.360,-0.07,-0.324,0.3345,0.112776475,0.5344624250000001,14.361838925,127500.0,168000.0,-116500.0,97245.62378,42.98,0.0,1.967294216,-44.17957306,-171.1232605,2.169999838,-619.1555176,78.68822479,122.0
2018-10-05 19:32:05.400,-0.099,-0.319,0.293,0.08825985,0.55897905,14.46480875,158000.0,174000.0,-118000.0,97243.9209,42.98,0.0,1.967294216,-44.17957306,-171.1232605,2.169999838,-619.1555176,78.68822479,122.0
2018-10-05 19:32:05.440,-0.088,-0.32,0.2674999999999999,0.122583125,0.392266,14.4157755,128500.0,172500.0,-105500.0,97245.306395,42.975,0.0,1.967294216,-44.17957306,-171.1232605,2.029999971,-619.1555176,78.82749176,122.0
2018-10-05 19:32:05.480,-0.077,-0.321,0.242,0.1569064,0.22555295,14.36674225,99000.0,171000.0,-93000.0,97246.69189,42.97,0.0,1.967294216,-44.17957306,-171.1232605,2.029999971,-619.1555176,78.82749176,122.0
2018-10-05 19:32:05.520,-0.031,-0.3245,0.24425,0.142196425,0.0416782625,14.322612325,97750.0,177750.0,-94250.0,97245.317075,42.9675,0.0,1.967294216,-44.17957306,-171.1232605,2.029999971,-619.1555176,78.82749176,122.0
2018-10-05 19:32:05.560,0.015,-0.328,0.2465,0.12748645,-0.142196425,14.2784824,96500.0,184500.0,-95500.0,97243.94226,42.965,0.0,1.9694041015,-44.714220045000005,-175.34680939999998,1.969999969,-619.1555176,78.8629303,122.0
2018-10-05 19:32:05.600,0.061,-0.3315,0.24875,0.112776475,-0.3260711125,14.234352475,95250.0,191250.0,-96750.0,97242.567445,42.9625,0.0,1.971513987,-45.24886703,-179.5703583,1.909999967,-619.1555176,78.89836884,122.0
2018-10-05 19:32:05.640,0.107,-0.335,0.251,0.0980665,-0.5099458,14.19022255,94000.0,198000.0,-98000.0,97241.19263,42.96,0.0,1.971513987,-45.24886703,-179.5703583,1.909999967,-619.1555176,78.89836884,122.0
2018-10-05 19:32:05.680,0.221,-0.297,0.343,0.0588399,-0.48052585,14.34712895,121000.0,197000.0,-93000.0,97240.271,42.96,0.0,1.971513987,-45.24886703,-179.5703583,1.769999981,-600.9731445,78.90990448,122.0
2018-10-05 19:32:05.720,0.161,-0.2996666666666666,0.3583333333333333,0.04903325,-0.4641814333333333,14.121576,110666.66666666669,192333.3333333333,-103666.66666666669,97238.19783666666,42.95666666666667,0.0,1.971513987,-45.24886703,-179.5703583,1.769999981,-600.9731445,78.90990448,122.0
2018-10-05 19:32:05.760,0.101,-0.3023333333333333,0.3736666666666667,0.0392266,-0.4478370166666666,13.89602305,100333.33333333331,187666.66666666663,-114333.33333333331,97236.12467333334,42.95333333333333,0.0,1.971513987,-45.24886703,-179.5703583,1.7049999835,-600.9731445,78.884822845,122.0
2018-10-05 19:32:05.800,0.041,-0.305,0.389,0.02941995,-0.4314926,13.6704701,90000.0,183000.0,-125000.0,97234.05151,42.95,0.0,1.971513987,-45.24886703,-179.5703583,1.639999986,-600.9731445,78.85974121,122.0
2018-10-05 19:32:05.840,-0.076,-0.31,0.4235,-0.112776475,-0.26477955,13.037941175,61500.0,186500.0,-128000.0,97236.416625,42.95,0.0,1.884271622,-43.43260193,173.7420197,1.49000001,-589.4260254,78.75572968,122.0
2018-10-05 19:32:05.880,-0.193,-0.315,0.458,-0.2549729,-0.0980665,12.40541225,33000.0,190000.0,-131000.0,97238.78174,42.95,0.0,1.884271622,-43.43260193,173.7420197,1.49000001,-589.4260254,78.75572968,122.0
2018-10-05 19:32:05.920,-0.1555,-0.3,0.44,-0.18632635,0.00980665,11.2384209,30500.0,206500.0,-114000.0,97237.527465,42.945,0.0,1.884271622,-43.43260193,173.7420197,1.49000001,-589.4260254,78.75572968,122.0
2018-10-05 19:32:05.960,-0.118,-0.285,0.422,-0.1176798,0.1176798,10.07142955,28000.0,223000.0,-97000.0,97236.27319,42.94,0.0,1.884271622,-43.43260193,173.7420197,1.339999914,-589.4260254,78.59407806,122.0
2018-10-05 19:32:06.000,-0.0883333333333333,-0.295,0.393,-0.1699819333333333,0.1765197,10.79712165,28666.666666666668,225000.0,-97000.0,97232.62939333334,42.93666666666667,0.0,1.884271622,-43.43260193,173.7420197,1.339999914,-589.4260254,78.59407806,122.0
2018-10-05 19:32:06.040,-0.0586666666666666,-0.305,0.364,-0.2222840666666666,0.2353596,11.52281375,29333.33333333333,227000.0,-97000.0,97228.98559666668,42.93333333333333,0.0,1.884271622,-43.43260193,173.7420197,1.209999919,-548.3129272,78.40111542,122.0
2018-10-05 19:32:06.080,-0.029,-0.315,0.335,-0.2745862,0.2941995,12.24850585,30000.0,229000.0,-97000.0,97225.3418,42.93,0.0,1.6478449605,-43.753825506666665,172.07143151666665,1.1916666031666667,-548.3129272,78.35982895166667,122.0
2018-10-05 19:32:06.120,-0.042,-0.3123333333333333,0.318,-0.3105439166666666,0.2484351333333333,12.068717266666669,36000.0,230333.3333333333,-105666.66666666669,97226.72119333332,42.93,0.0,1.411418299,-44.075049083333326,170.40084333333334,1.1733332873333333,-548.3129272,78.31854248333333,122.0
2018-10-05 19:32:06.160,-0.055,-0.3096666666666666,0.301,-0.3465016333333333,0.2026707666666666,11.888928683333337,42000.0,231666.66666666663,-114333.33333333331,97228.10058666668,42.93,0.0,1.1749916375,-44.39627266,168.73025515,1.1549999715,-548.3129272,78.277256015,122.0
2018-10-05 19:32:06.200,-0.068,-0.307,0.284,-0.38245935,0.1569064,11.7091401,48000.0,233000.0,-123000.0,97229.47998,42.93,0.0,0.465711653,-45.35994339,163.7184906,1.100000024,-548.3129272,78.15339661,122.0
2018-10-05 19:32:06.240,-0.1525,-0.323,0.288,-0.3383294249999999,0.063743225,11.988629625000002,52500.0,237500.0,-116000.0,97228.66211,42.925,0.0,0.465711653,-45.35994339,163.7184906,1.00999999,-538.9514771,77.86982727,121.0
2018-10-05 19:32:06.280,-0.237,-0.339,0.292,-0.2941995,-0.02941995,12.26811915,57000.0,242000.0,-109000.0,97227.84424,42.92,0.0,0.465711653,-45.35994339,163.7184906,1.00999999,-538.9514771,77.86982727,121.0
2018-10-05 19:32:06.320,-0.1186666666666666,-0.339,0.2903333333333333,-0.2549729,-0.0392266,12.578663066666667,50666.66666666666,245000.0,-104000.0,97226.75171,42.91666666666666,0.0,0.465711653,-45.35994339,163.7184906,1.00999999,-538.9514771,77.86982727,121.0
2018-10-05 19:32:06.360,-0.0003333333333333,-0.339,0.2886666666666666,-0.2157463,-0.04903325,12.889206983333333,44333.333333333336,248000.0,-99000.0,97225.65918,42.91333333333333,0.0,0.465711653,-45.35994339,163.7184906,0.930000007,-538.9514771,77.52398682,121.0
2018-10-05 19:32:06.400,0.118,-0.339,0.287,-0.1765197,-0.0588399,13.1997509,38000.0,251000.0,-94000.0,97224.56665,42.91,0.0,0.465711653,-45.35994339,163.7184906,0.930000007,-538.9514771,77.52398682,121.0
2018-10-05 19:32:06.440,0.143,-0.3373333333333334,0.3016666666666666,-0.1176798,-0.0523021333333333,14.020240616666667,43333.333333333336,253666.66666666663,-85666.66666666667,97222.26766,42.91,0.0,0.465711653,-45.35994339,163.7184906,0.9066666563333332,-530.9905192333333,77.39332072333333,121.0
2018-10-05 19:32:06.480,0.168,-0.3356666666666666,0.3163333333333333,-0.0588399,-0.0457643666666666,14.840730333333331,48666.66666666666,256333.3333333333,-77333.33333333333,97219.96867,42.91,0.0,0.465711653,-45.35994339,163.7184906,0.8833333056666667,-523.0295613666667,77.26265462666667,121.0
2018-10-05 19:32:06.520,0.193,-0.334,0.331,0.0,-0.0392266,15.66122005,54000.0,259000.0,-69000.0,97217.66968,42.91,0.0,0.465711653,-45.35994339,163.7184906,0.859999955,-515.0686035,77.13198853,121.0
2018-10-05 19:32:06.560,0.1505,-0.3265,0.345,0.044129925,-0.083356525,15.3964405,69500.0,253000.0,-69500.0,97221.102905,42.905,0.0,0.574049354,-45.0585556,153.9836731,0.789999962,-515.0686035,76.66377258,120.0
2018-10-05 19:32:06.600,0.108,-0.319,0.359,0.08825985,-0.12748645,15.13166095,85000.0,247000.0,-70000.0,97224.53613,42.9,0.0,0.574049354,-45.0585556,153.9836731,0.744999975,-504.69158935,76.39865875000001,120.0
2018-10-05 19:32:06.640,0.0015,-0.3339999999999999,0.3745,0.044129925,-0.08825985,14.95514125,74000.0,254000.0,-80000.0,97223.38562,42.895,0.0,0.574049354,-45.0585556,153.9836731,0.699999988,-494.3145752,76.13354492,120.0
2018-10-05 19:32:06.680,-0.105,-0.349,0.39,0.0,-0.04903325,14.77862155,63000.0,261000.0,-90000.0,97222.23511,42.89,0.0,0.574049354,-45.0585556,153.9836731,0.699999988,-494.3145752,76.13354492,120.0
2018-10-05 19:32:06.720,-0.065,-0.3329999999999999,0.383,-0.1765197,0.12748645,14.861978075,61000.0,268500.0,-95500.0,97219.851685,42.89,0.0,0.574049354,-45.0585556,153.9836731,0.699999988,-494.3145752,76.13354492,120.0
2018-10-05 19:32:06.760,-0.025,-0.317,0.376,-0.3530394,0.30400615,14.9453346,59000.0,276000.0,-101000.0,97217.46826,42.89,0.0,0.574049354,-45.0585556,153.9836731,0.599999964,-494.3145752,75.51478577,119.0
2018-10-05 19:32:06.800,0.0103333333333333,-0.3153333333333333,0.3553333333333333,-0.3366949833333333,0.4053415333333333,15.007443383333332,59666.66666666666,278666.6666666667,-97666.66666666669,97217.18139666668,42.89,0.0,0.247472439,-44.98605728,149.9746628,0.572499968,-492.0914154,75.346237185,118.75
2018-10-05 19:32:06.840,0.0456666666666666,-0.3136666666666666,0.3346666666666666,-0.3203505666666666,0.5066769166666666,15.069552166666668,60333.333333333336,281333.3333333333,-94333.33333333331,97216.89453333332,42.89,0.0,-0.079104476,-44.91355896,145.9656525,0.544999972,-489.8682556,75.17768860000001,118.5
2018-10-05 19:32:06.880,0.081,-0.312,0.314,-0.30400615,0.6080123,15.13166095,61000.0,284000.0,-91000.0,97216.60767,42.89,0.0,-0.079104476,-44.91355896,145.9656525,0.4866666496666667,-488.3861490666667,74.80656433333334,118.33333333333331
2018-10-05 19:32:06.920,0.0596666666666666,-0.3113333333333333,0.2946666666666667,-0.26477955,0.5851301166666666,15.134929833333334,68333.33333333333,291666.6666666667,-87333.33333333333,97215.86507333332,42.88666666666667,0.0,-0.079104476,-44.91355896,145.9656525,0.4283333273333333,-486.9040425333333,74.43544006666667,118.16666666666669
2018-10-05 19:32:06.960,0.0383333333333333,-0.3106666666666666,0.2753333333333333,-0.2255529499999999,0.5622479333333333,15.138198716666666,75666.66666666667,299333.3333333333,-83666.66666666667,97215.12247666666,42.88333333333333,0.0,-0.079104476,-44.91355896,145.9656525,0.370000005,-485.421936,74.0643158,118.0
2018-10-05 19:32:07.000,0.017,-0.31,0.256,-0.18632635,0.53936575,15.1414676,83000.0,307000.0,-80000.0,97214.37988,42.88,0.0,-0.079104476,-44.91355896,145.9656525,0.370000005,-485.421936,74.0643158,118.0
2018-10-05 19:32:07.040,0.0246666666666666,-0.3053333333333333,0.2413333333333333,-0.1601752833333333,0.5557101666666666,14.83746145,81000.0,308666.6666666667,-73000.0,97215.65348,42.876666666666665,0.0,-0.079104476,-44.91355896,145.9656525,0.370000005,-485.421936,74.0643158,118.0
2018-10-05 19:32:07.080,0.0323333333333333,-0.3006666666666666,0.2266666666666666,-0.1340242166666666,0.5720545833333334,14.5334553,79000.0,310333.3333333333,-66000.0,97216.92708,42.873333333333335,0.0,-0.079104476,-44.91355896,145.9656525,0.305,-473.2846222,73.64714050500001,117.5
2018-10-05 19:32:07.120,0.04,-0.296,0.212,-0.10787315,0.588399,14.22944915,77000.0,312000.0,-59000.0,97218.20068,42.87,0.0,-0.079104476,-44.91355896,145.9656525,0.239999995,-461.1473084,73.22996521,117.0
2018-10-05 19:32:07.160,0.0545,-0.2875,0.1775,-0.1863263499999999,0.583495675,13.50375705,59000.0,316500.0,-58000.0,97215.216065,42.87,0.0,0.456965059,-43.96951294,137.7304535,0.099999994,-461.1473084,72.3196106,116.0
2018-10-05 19:32:07.200,0.069,-0.279,0.143,-0.26477955,0.57859235,12.77806495,41000.0,321000.0,-57000.0,97212.23145,42.87,0.0,0.456965059,-43.96951294,137.7304535,0.099999994,-461.1473084,72.3196106,116.0
2018-10-05 19:32:07.240,0.0896666666666666,-0.2633333333333333,0.1293333333333333,-0.2451662499999999,0.3170816833333333,12.73883835,26666.666666666664,318333.3333333333,-61666.66666666666,97210.66691333332,42.86666666666667,0.0,0.456965059,-43.96951294,137.7304535,0.099999994,-461.1473084,72.3196106,116.0
2018-10-05 19:32:07.280,0.1103333333333333,-0.2476666666666666,0.1156666666666666,-0.22555295,0.0555710166666666,12.69961175,12333.333333333332,315666.6666666667,-66333.33333333333,97209.10237666668,42.86333333333333,0.0,0.456965059,-43.96951294,137.7304535,-0.029999999,-466.2805481,71.33661652,115.0
2018-10-05 19:32:07.320,0.131,-0.232,0.102,-0.20593965,-0.20593965,12.66038515,-2000.0,313000.0,-71000.0,97207.53784,42.86,0.0,0.456965059,-43.96951294,137.7304535,-0.089999995,-466.2805481,70.825172425,114.5
2018-10-05 19:32:07.360,0.09,-0.2215,0.152,-0.220649625,-0.32361945,11.69933345,10500.0,312500.0,-92500.0,97210.409545,42.86,0.0,0.456965059,-43.96951294,137.7304535,-0.149999991,-466.2805481,70.31372833,114.0
