time,field.angular_velocity.x,field.angular_velocity.y,field.angular_velocity.z,field.linear_acceleration.x,field.linear_acceleration.y,field.linear_acceleration.z,field.magnetic_field.x,field.magnetic_field.y,field.magnetic_field.z,field.fluid_pressure,field.temperature,field.airspeed,field.measured.pitch,field.measured.roll,field.measured.yaw,field.alt_error,field.aspd_error,field.xtrack_error,field.wp_dist
2018-10-05 19:56:52.800,0.536,-0.254,0.229,-1.8044236,1.24544455,13.1801376,-184000.0,204000.0,-532000.0,97319.84253,39.83,0.0,-6.09405756,-38.7072258,-134.5668335,0.604999989,-1070.7095335,-36.08397293,7.5
2018-10-05 19:56:52.840,0.52425,-0.267,0.22575,-1.789713625,1.1792496625,13.655760125,-186750.0,199250.0,-534250.0,97321.8261725,39.83,0.0,-6.09405756,-38.7072258,-134.5668335,0.699999988,-1066.875122,-34.87319565,9.0
2018-10-05 19:56:52.880,0.5125,-0.28,0.2225,-1.77500365,1.113054775,14.13138265,-189500.0,194500.0,-536500.0,97323.809815,39.83,0.0,-6.09405756,-38.7072258,-134.5668335,0.7849999965,-1066.875122,-33.666088105,10.0
2018-10-05 19:56:52.920,0.50075,-0.293,0.21925,-1.760293675,1.0468598875,14.607005175,-192250.0,189750.0,-538750.0,97325.7934575,39.83,0.0,-6.09405756,-38.7072258,-134.5668335,0.870000005,-1066.875122,-32.45898056,11.0
2018-10-05 19:56:52.960,0.489,-0.306,0.216,-1.7455837,0.980665,15.0826277,-195000.0,185000.0,-541000.0,97327.7771,39.83,0.0,-6.09405756,-38.7072258,-134.5668335,0.870000005,-1066.875122,-32.45898056,11.0
2018-10-05 19:56:53.000,0.5036666666666667,-0.31,0.218,-1.6867438,1.0558493166666667,15.795244266666666,-200666.66666666663,170333.33333333334,-542666.6666666666,97327.21964666666,39.82666666666667,0.0,-6.09405756,-38.7072258,-134.5668335,1.0,-1032.515869,-30.08484268,14.0
2018-10-05 19:56:53.040,0.5183333333333333,-0.314,0.22,-1.6279039,1.1310336333333333,16.507860833333332,-206333.3333333333,155666.66666666666,-544333.3333333334,97326.66219333334,39.82333333333333,0.0,-3.756761551,-25.86024666,-142.1260529,1.0,-1032.515869,-30.08484268,14.0
2018-10-05 19:56:53.080,0.533,-0.318,0.222,-1.569064,1.20621795,17.2204774,-212000.0,141000.0,-546000.0,97326.10474,39.82,0.0,-3.756761551,-25.86024666,-142.1260529,1.0450000165,-1032.515869,-28.90280628,15.0
2018-10-05 19:56:53.120,0.523,-0.305,0.2095,-1.554354025,1.299381125,17.333253875,-212000.0,141000.0,-546000.0,97326.10474,39.82,0.0,-3.756761551,-25.86024666,-142.1260529,1.090000033,-1032.515869,-27.72076988,16.0
2018-10-05 19:56:53.160,0.513,-0.292,0.197,-1.53964405,1.3925443,17.44603035,-212000.0,141000.0,-546000.0,97326.10474,39.82,0.0,-3.756761551,-25.86024666,-142.1260529,1.105000019,-1023.808075,48.47043706,17.0
2018-10-05 19:56:53.200,0.5085,-0.277,0.186,-1.52003075,1.407254275,17.499966925000003,-237500.0,126000.0,-547000.0,97328.35083,39.82,0.0,-3.756761551,-25.86024666,-142.1260529,1.120000005,-1015.100281,124.661644,18.0
2018-10-05 19:56:53.240,0.504,-0.262,0.175,-1.50041745,1.42196425,17.5539035,-263000.0,111000.0,-548000.0,97330.59692,39.82,0.0,-3.756761551,-25.86024666,-142.1260529,1.120000005,-1015.100281,124.661644,18.0
2018-10-05 19:56:53.280,0.018,-0.2245,0.2105,-1.4709975000000002,1.456287525,16.6516917,-263500.0,102000.0,-548500.0,97329.0863,39.82,0.0,-1.13517952,-18.32700348,-146.2523804,1.059999943,-916.1003418,126.1248398,21.0
2018-10-05 19:56:53.320,-0.468,-0.187,0.246,-1.44157755,1.4906108,15.7494799,-264000.0,93000.0,-549000.0,97327.57568,39.82,0.0,-1.13517952,-18.32700348,-146.2523804,1.059999943,-916.1003418,126.1248398,21.0
2018-10-05 19:56:53.360,-0.5347500000000001,-0.156,0.2375,-1.466094175,1.446480875,15.3890855125,-259500.0,94500.0,-549250.0,97327.53906,39.8175,0.0,-1.13517952,-18.32700348,-146.2523804,0.9999999705,-902.5221863,126.8141785,22.0
2018-10-05 19:56:53.400,-0.6015,-0.125,0.2289999999999999,-1.4906108,1.40235095,15.028691125000002,-255000.0,96000.0,-549500.0,97327.50244,39.815,0.0,-1.13517952,-18.32700348,-146.2523804,0.939999998,-888.9440308,127.5035172,23.0
2018-10-05 19:56:53.440,-0.66825,-0.094,0.2205,-1.515127425,1.358221025,14.6682967375,-250500.0,97500.0,-549750.0,97327.46582,39.8125,0.0,-1.13517952,-18.32700348,-146.2523804,0.939999998,-888.9440308,127.5035172,23.0
2018-10-05 19:56:53.480,-0.735,-0.063,0.212,-1.53964405,1.3140911,14.30790235,-246000.0,99000.0,-550000.0,97327.4292,39.81,0.0,-1.13517952,-18.32700348,-146.2523804,0.939999998,-888.9440308,127.5035172,23.0
2018-10-05 19:56:53.520,-0.6955,-0.052,0.2,-1.5494507,1.446480875,13.606726875,-240000.0,118500.0,-537500.0,97324.172975,39.805,0.0,-1.13517952,-18.32700348,-146.2523804,0.769999981,-888.9440308,128.8484039,25.0
2018-10-05 19:56:53.560,-0.656,-0.041,0.188,-1.55925735,1.57887065,12.9055514,-234000.0,138000.0,-525000.0,97320.91675,39.8,0.0,-1.13517952,-18.32700348,-146.2523804,0.674999982,-870.25421145,129.47011565,26.0
2018-10-05 19:56:53.600,-0.6005,-0.0215,0.1265,-1.642613875,1.5102241,12.675095125,-235000.0,152000.0,-523500.0,97321.03882,39.8,0.0,-1.13517952,-18.32700348,-146.2523804,0.579999983,-851.5643921,130.0918274,27.0
2018-10-05 19:56:53.640,-0.545,-0.002,0.065,-1.7259704,1.44157755,12.44463885,-236000.0,166000.0,-522000.0,97321.16089,39.8,0.0,-0.622657061,-28.43767357,-150.8514557,0.579999983,-851.5643921,130.0918274,27.0
2018-10-05 19:56:53.680,-0.4665,-0.0045,0.03,-1.789713625,1.0787315,11.145257725,-229500.0,182500.0,-517000.0,97319.415285,39.8,0.0,-0.622657061,-28.43767357,-150.8514557,0.4799999889999999,-851.5643921,130.6924286,28.5
2018-10-05 19:56:53.720,-0.388,-0.007,-0.005,-1.85345685,0.71588545,9.8458766,-223000.0,199000.0,-512000.0,97317.66968,39.8,0.0,-0.622657061,-28.43767357,-150.8514557,0.379999995,-851.5643921,131.2930298,30.0
2018-10-05 19:56:53.760,-0.36825,-0.01725,-0.00325,-1.868166825,0.7060788,9.988073025,-225000.0,203500.0,-511000.0,97316.419985,39.7975,0.0,-0.622657061,-28.43767357,-150.8514557,0.2899999915,-836.48376465,131.8513565,31.0
2018-10-05 19:56:53.800,-0.3485,-0.0275,-0.0015,-1.8828768,0.69627215,10.13026945,-227000.0,208000.0,-510000.0,97315.17029,39.795,0.0,-0.622657061,-28.43767357,-150.8514557,0.199999988,-821.4031372,132.4096832,32.0
2018-10-05 19:56:53.840,-0.32875,-0.03775,0.00025,-1.897586775,0.6864655000000001,10.272465875,-229000.0,212500.0,-509000.0,97313.920595,39.7925,0.0,-0.622657061,-28.43767357,-150.8514557,0.199999988,-821.4031372,132.4096832,32.0
2018-10-05 19:56:53.880,-0.309,-0.048,0.002,-1.91229675,0.67665885,10.4146623,-231000.0,217000.0,-508000.0,97312.6709,39.79,0.0,-0.622657061,-28.43767357,-150.8514557,0.199999988,-821.4031372,132.4096832,32.0
2018-10-05 19:56:53.920,-0.359,-0.012,-0.004,-1.8632635,0.53936575,10.20872265,-237000.0,228000.0,-500000.0,97309.77173,39.79,0.0,-0.622657061,-28.43767357,-150.8514557,0.029999999,-821.4031372,133.4841003,34.0
2018-10-05 19:56:53.960,-0.316,-0.0013333333333333,-0.005,-1.8959523333333328,0.4445681333333333,9.662819133333334,-240000.0,232000.0,-500666.6666666667,97310.61605,39.79,0.0,-0.5558564815,-32.247511865,-150.99219515,-0.04,-804.9322204499999,153.44023894999998,35.0
2018-10-05 19:56:54.000,-0.273,0.0093333333333333,-0.006,-1.9286411666666667,0.3497705166666667,9.116915616666668,-243000.0,236000.0,-501333.3333333333,97311.46037,39.79,0.0,-0.489055902,-36.05735016,-151.1329346,-0.109999999,-788.4613037,173.3963776,36.0
2018-10-05 19:56:54.040,-0.23,0.02,-0.007,-1.96133,0.2549729,8.5710121,-246000.0,240000.0,-502000.0,97312.30469,39.79,0.0,-0.489055902,-36.05735016,-151.1329346,-0.109999999,-788.4613037,173.3963776,36.0
2018-10-05 19:56:54.080,0.2313333333333333,0.0253333333333333,-0.0443333333333333,-2.0201699,0.0457643666666666,8.50236555,-253000.0,243000.0,-501666.6666666667,97309.89583666666,39.78666666666667,0.0,-0.489055902,-36.05735016,-151.1329346,-0.209999993,-787.4613037,175.5179291,38.0
2018-10-05 19:56:54.120,0.6926666666666667,0.0306666666666666,-0.0816666666666666,-2.0790098,-0.1634441666666666,8.433719,-260000.0,246000.0,-501333.3333333333,97307.48698333334,39.78333333333333,0.0,-0.489055902,-36.05735016,-151.1329346,-0.209999993,-787.4613037,175.5179291,38.0
2018-10-05 19:56:54.160,1.154,0.036,-0.119,-2.1378497,-0.3726527,8.36507245,-267000.0,249000.0,-501000.0,97305.07813,39.78,0.0,-0.489055902,-36.05735016,-151.1329346,-0.209999993,-787.4613037,175.5179291,38.0
2018-10-05 19:56:54.200,1.565,0.066,-0.142,-2.093719775,-0.7011754750000001,8.948568125,-267000.0,237000.0,-506000.0,97304.19922,39.78,0.0,-0.489055902,-36.05735016,-151.1329346,-0.289999992,-762.4488525,177.6244965,40.0
2018-10-05 19:56:54.240,1.976,0.096,-0.165,-2.04958985,-1.02969825,9.5320638,-267000.0,225000.0,-511000.0,97303.32031,39.78,0.0,-0.4728272854999999,-28.992832185,-150.26527405000002,-0.319999993,-762.4488525,178.66812134999998,41.0
2018-10-05 19:56:54.280,2.017,0.152,-0.112,-2.04958985,-1.191507975,9.48303055,-259000.0,188000.0,-520000.0,97302.511595,39.775000000000006,0.0,-0.456598669,-21.92831421,-149.3976135,-0.349999994,-762.4488525,179.7117462,42.0
2018-10-05 19:56:54.320,2.058,0.208,-0.059,-2.04958985,-1.3533177,9.4339973,-251000.0,151000.0,-529000.0,97301.70288,39.77,0.0,-0.456598669,-21.92831421,-149.3976135,-0.349999994,-762.4488525,179.7117462,42.0
2018-10-05 19:56:54.360,1.91,0.2316666666666666,0.0383333333333333,-2.0463209666666664,-1.2160246,9.329393033333334,-240333.3333333333,119333.33333333331,-532666.6666666666,97301.87988333331,39.77,0.0,-0.456598669,-21.92831421,-149.3976135,-0.349999994,-762.4488525,179.7117462,42.0
2018-10-05 19:56:54.400,1.762,0.2553333333333333,0.1356666666666666,-2.043052083333333,-1.0787315,9.224788766666666,-229666.66666666663,87666.66666666666,-536333.3333333334,97302.05688666669,39.77,0.0,-0.456598669,-21.92831421,-149.3976135,-0.349999994,-762.4488525,179.7117462,42.0
2018-10-05 19:56:54.440,1.614,0.279,0.233,-2.0397832,-0.9414384,9.1201845,-219000.0,56000.0,-540000.0,97302.23389,39.77,0.0,-0.456598669,-21.92831421,-149.3976135,-0.399999976,-727.552002,181.7845306,44.0
2018-10-05 19:56:54.480,1.4860000000000002,0.2675,0.2705,-2.025073225,-0.818855275,8.615142025,-209000.0,15500.0,-537500.0,97301.101685,39.765,0.0,-0.456598669,-21.92831421,-149.3976135,-0.399999976,-727.552002,181.7845306,44.0
2018-10-05 19:56:54.520,1.358,0.256,0.308,-2.01036325,-0.69627215,8.11009955,-199000.0,-25000.0,-535000.0,97299.96948,39.76,0.0,-0.456598669,-21.92831421,-149.3976135,-0.469999999,-727.552002,183.8443604,46.0
2018-10-05 19:56:54.560,1.282,0.24075,0.31325,-2.0373315375,-0.593302325,7.761963475,-193500.0,-42500.0,-529750.0,97299.9176,39.76,0.0,-0.456598669,-21.92831421,-149.3976135,-0.469999999,-727.552002,183.8443604,46.0
2018-10-05 19:56:54.600,1.206,0.2255,0.3185,-2.064299825,-0.4903324999999999,7.4138274,-188000.0,-60000.0,-524500.0,97299.86572,39.76,0.0,-0.456598669,-21.92831421,-149.3976135,-0.469999999,-727.552002,183.8443604,46.0
2018-10-05 19:56:54.640,1.13,0.21025,0.32375,-2.0912681125,-0.387362675,7.065691325,-182500.0,-77500.0,-519250.0,97299.81384,39.76,0.0,-5.029158592,11.44957066,-152.2093353,-0.519999981,-704.3754883,185.8950653,48.0
2018-10-05 19:56:54.680,1.054,0.195,0.329,-2.1182364,-0.28439285,6.71755525,-177000.0,-95000.0,-514000.0,97299.76196,39.76,0.0,-5.029158592,11.44957066,-152.2093353,-0.519999981,-704.3754883,185.8950653,48.0
2018-10-05 19:56:54.720,0.903,0.163,0.312,-1.96133,0.10787315,6.22722275,-161000.0,-142000.0,-491000.0,97298.94409,39.75,0.0,-5.029158592,11.44957066,-152.2093353,-0.560000002,-704.3754883,187.9424896,50.0
2018-10-05 19:56:54.760,0.8135,0.135,0.2615,-1.9809433,0.308909475,6.4846473125,-156750.0,-151000.0,-486750.0,97298.62213,39.75,0.0,-5.029158592,11.44957066,-152.2093353,-0.560000002,-704.3754883,187.9424896,50.0
2018-10-05 19:56:54.800,0.724,0.107,0.211,-2.0005566,0.5099458,6.742071875000001,-152500.0,-160000.0,-482500.0,97298.30017,39.75,0.0,-5.029158592,11.44957066,-152.2093353,-0.560000002,-704.3754883,187.9424896,50.0
2018-10-05 19:56:54.840,0.6345000000000001,0.0789999999999999,0.1604999999999999,-2.0201699,0.710982125,6.9994964375,-148250.0,-169000.0,-478250.0,97297.97821,39.75,0.0,-5.029158592,11.44957066,-152.2093353,-0.560000002,-677.7637329,189.9673157,52.0
2018-10-05 19:56:54.880,0.545,0.051,0.11,-2.0397832,0.91201845,7.256921,-144000.0,-178000.0,-474000.0,97297.65625,39.75,0.0,-5.029158592,11.44957066,-152.2093353,-0.519999981,-677.7637329,192.0023193,54.0
2018-10-05 19:56:54.920,0.468,0.041,-0.049,-1.97113665,0.784532,7.75706015,-141000.0,-200000.0,-454000.0,97297.33276,39.75,0.0,-5.029158592,11.44957066,-152.2093353,-0.519999981,-677.7637329,192.0023193,54.0
2018-10-05 19:56:54.960,0.4193333333333333,0.043,-0.0866666666666666,-1.9645988833333332,0.784532,7.6688003,-137666.66666666666,-204666.66666666663,-448000.0,97298.9034,39.74666666666667,0.0,-5.3658823965,15.594580892499998,-153.34463117500002,-0.5049999805000001,-669.3688201750001,192.511199925,54.5
2018-10-05 19:56:55.000,0.3706666666666667,0.045,-0.1243333333333333,-1.9580611166666664,0.784532,7.58054045,-134333.33333333334,-209333.3333333333,-442000.0,97300.47404,39.74333333333333,0.0,-5.702606201,19.739591125,-154.47992705,-0.48999998,-660.9739074500001,193.02008055,55.0
2018-10-05 19:56:55.040,0.322,0.047,-0.162,-1.95152335,0.784532,7.4922806,-131000.0,-214000.0,-436000.0,97302.04468,39.74,0.0,-6.0393300055,23.8846013575,-155.615222925,-0.4749999795,-652.578994725,193.528961175,55.5
2018-10-05 19:56:55.080,0.3076666666666667,0.0383333333333333,-0.182,-1.9580611166666664,0.7812631166666667,7.740715733333333,-132000.0,-222333.3333333333,-433333.3333333333,97302.72013333334,39.736666666666665,0.0,-6.37605381,28.02961159,-156.7505188,-0.459999979,-644.184082,194.0378418,56.0
2018-10-05 19:56:55.120,0.2933333333333333,0.0296666666666666,-0.202,-1.9645988833333332,0.7779942333333333,7.989150866666667,-133000.0,-230666.66666666663,-430666.6666666667,97303.39558666668,39.73333333333333,0.0,-6.37605381,28.02961159,-156.7505188,-0.359999985,-644.184082,196.0652618,58.0
2018-10-05 19:56:55.160,0.279,0.021,-0.222,-1.97113665,0.77472535,8.237586,-134000.0,-239000.0,-428000.0,97304.07104,39.73,0.0,-6.37605381,28.02961159,-156.7505188,-0.29999999,-638.0453795999999,197.0770721,59.0
2018-10-05 19:56:55.200,0.202,0.006,-0.2465,-1.9221034,0.681562175,8.369975775,-126000.0,-244500.0,-422500.0,97304.3457,39.73,0.0,-6.37605381,28.02961159,-156.7505188,-0.239999995,-631.9066772,198.0888824,60.0
2018-10-05 19:56:55.240,0.125,-0.009,-0.271,-1.87307015,0.588399,8.50236555,-118000.0,-250000.0,-417000.0,97304.62036,39.73,0.0,-6.37605381,28.02961159,-156.7505188,-0.239999995,-631.9066772,198.0888824,60.0
2018-10-05 19:56:55.280,0.152,-0.0274999999999999,-0.2895,-1.907393425,0.44129925,8.6886919,-114500.0,-255000.0,-414000.0,97307.07092,39.73,0.0,-6.37605381,28.02961159,-156.7505188,-0.239999995,-631.9066772,198.0888824,60.0
2018-10-05 19:56:55.320,0.179,-0.046,-0.308,-1.9417167,0.2941995,8.87501825,-111000.0,-260000.0,-411000.0,97309.52148,39.73,0.0,-6.37605381,28.02961159,-156.7505188,-0.089999996,-631.9066772,200.1183624,62.0
2018-10-05 19:56:55.360,0.262,-0.06,-0.29425,-1.9024901,0.2525212375,9.2256059875,-109250.0,-263500.0,-410250.0,97310.4354825,39.7275,0.0,-9.056200027,32.86889648,-153.1623688,-0.089999996,-631.9066772,200.1183624,62.0
2018-10-05 19:56:55.400,0.345,-0.074,-0.2804999999999999,-1.8632635,0.210842975,9.576193725,-107500.0,-267000.0,-409500.0,97311.349485,39.725,0.0,-9.056200027,32.86889648,-153.1623688,0.079999998,-611.9390259,202.1440582,65.0
2018-10-05 19:56:55.440,0.428,-0.088,-0.26675,-1.8240369,0.1691647125,9.9267814625,-105750.0,-270500.0,-408750.0,97312.2634875,39.7225,0.0,-9.056200027,32.86889648,-153.1623688,0.1799999995,-611.9390259,203.1646576,66.0
2018-10-05 19:56:55.480,0.511,-0.102,-0.253,-1.7848103,0.12748645,10.2773692,-104000.0,-274000.0,-408000.0,97313.17749,39.72,0.0,-9.056200027,32.86889648,-153.1623688,0.280000001,-611.9390259,204.185257,67.0
2018-10-05 19:56:55.520,0.41,-0.086,-0.225,-1.7455837,0.14709975,9.414384,-86000.0,-289000.0,-391000.0,97315.08179,39.72,0.0,-9.056200027,32.86889648,-153.1623688,0.280000001,-611.9390259,204.185257,67.0
2018-10-05 19:56:55.560,0.3345,-0.1144999999999999,-0.2065,-1.73577705,0.220649625,10.07142955,-76500.0,-294500.0,-381000.0,97316.064455,39.72,0.0,-9.056200027,32.86889648,-153.1623688,0.280000001,-611.9390259,204.185257,67.0
2018-10-05 19:56:55.600,0.259,-0.143,-0.188,-1.7259704,0.2941995,10.7284751,-67000.0,-300000.0,-371000.0,97317.04712,39.72,0.0,-9.056200027,32.86889648,-153.1623688,0.48999998,-611.9390259,206.2092133,69.0
2018-10-05 19:56:55.640,0.20925,-0.15275,-0.1805,-1.691647125,0.3652977125,10.998157975000002,-73250.0,-305500.0,-368250.0,97319.2550675,39.7175,0.0,-9.056200027,32.86889648,-153.1623688,0.48999998,-611.9390259,206.2092133,69.0
2018-10-05 19:56:55.680,0.1595,-0.1624999999999999,-0.173,-1.65732385,0.436395925,11.26784085,-79500.0,-311000.0,-365500.0,97321.463015,39.715,0.0,-9.056200027,32.86889648,-153.1623688,0.48999998,-611.9390259,206.2092133,69.0
2018-10-05 19:56:55.720,0.10975,-0.17225,-0.1655,-1.623000575,0.5074941374999999,11.537523725,-85750.0,-316500.0,-362750.0,97323.6709625,39.7125,0.0,-10.53497982,40.67625046,-147.9545136,0.729999959,-595.7750244,208.2400818,71.0
2018-10-05 19:56:55.760,0.06,-0.182,-0.158,-1.5886773,0.57859235,11.8072066,-92000.0,-322000.0,-360000.0,97325.87891,39.71,0.0,-10.53497982,40.67625046,-147.9545136,0.849999964,-591.5848694,209.2538681,72.0
2018-10-05 19:56:55.800,0.108,-0.1815,-0.185,-1.6082906,0.691368825,11.5130071,-87000.0,-322000.0,-356000.0,97325.84534,39.71,0.0,-10.53497982,40.67625046,-147.9545136,0.969999969,-587.3947144,210.2676544,73.0
2018-10-05 19:56:55.840,0.156,-0.181,-0.212,-1.6279039,0.8041453,11.2188076,-82000.0,-322000.0,-352000.0,97325.81177,39.71,0.0,-10.53497982,40.67625046,-147.9545136,1.0533333223333332,-587.3947144,210.9474131,73.66666666666667
2018-10-05 19:56:55.880,0.129,-0.1915,-0.2334999999999999,-1.55925735,0.8776951749999999,11.792496625,-81500.0,-326500.0,-349000.0,97328.048705,39.705,0.0,-10.53497982,40.67625046,-147.9545136,1.1366666756666666,-587.3947144,211.6271718,74.33333333333333
2018-10-05 19:56:55.920,0.102,-0.202,-0.255,-1.4906108,0.95124505,12.36618565,-81000.0,-331000.0,-346000.0,97330.28564,39.7,0.0,-10.53497982,40.67625046,-147.9545136,1.220000029,-587.3947144,212.3069305,75.0
2018-10-05 19:56:55.960,0.0813333333333333,-0.2143333333333333,-0.2703333333333333,-1.4677286166666668,0.7191543333333333,12.134094933333332,-81333.33333333333,-333333.3333333333,-343666.6666666667,97332.03531666666,39.7,0.0,-10.53497982,40.67625046,-147.9545136,1.350000024,-588.73403935,213.32736205,76.0
2018-10-05 19:56:56.000,0.0606666666666666,-0.2266666666666666,-0.2856666666666667,-1.4448464333333333,0.4870636166666667,11.902004216666668,-81666.66666666667,-335666.6666666667,-341333.3333333333,97333.78499333332,39.7,0.0,-10.53497982,40.67625046,-147.9545136,1.480000019,-590.0733643,214.3477936,77.0
2018-10-05 19:56:56.040,0.04,-0.239,-0.301,-1.42196425,0.2549729,11.6699135,-82000.0,-338000.0,-339000.0,97335.53467,39.7,0.0,-10.53497982,40.67625046,-147.9545136,1.480000019,-590.0733643,214.3477936,77.0
2018-10-05 19:56:56.080,0.0945,-0.2405,-0.2714999999999999,-1.377834325,0.2157463,12.057276175,-66000.0,-334500.0,-334500.0,97340.145875,39.7,0.0,-10.53497982,40.67625046,-147.9545136,1.75,-590.0733643,216.3955383,79.0
2018-10-05 19:56:56.120,0.149,-0.242,-0.242,-1.3337044,0.1765197,12.44463885,-50000.0,-331000.0,-330000.0,97344.75708,39.7,0.0,-10.53497982,40.67625046,-147.9545136,1.75,-590.0733643,216.3955383,79.0
2018-10-05 19:56:56.160,0.1523333333333333,-0.2606666666666666,-0.229,-1.3140911,0.3007372666666666,12.7878716,-49666.66666666666,-333000.0,-328333.3333333333,97346.38672,39.696666666666665,0.0,-10.53497982,40.67625046,-147.9545136,1.8899999855,-583.8192749,217.41104125,80.0
2018-10-05 19:56:56.200,0.1556666666666666,-0.2793333333333333,-0.216,-1.2944778,0.4249548333333333,13.13110435,-49333.333333333336,-335000.0,-326666.6666666667,97348.01636,39.693333333333335,0.0,-10.53497982,40.67625046,-147.9545136,2.029999971,-577.5651855,218.4265442,81.0
2018-10-05 19:56:56.240,0.159,-0.298,-0.203,-1.2748645,0.5491724,13.4743371,-49000.0,-337000.0,-325000.0,97349.646,39.69,0.0,-10.81904411,43.34856033,-138.1087952,2.029999971,-577.5651855,218.4265442,81.0
2018-10-05 19:56:56.280,0.1335,-0.3035,-0.2135,-1.2160246,0.5491724,13.79795655,-50500.0,-341500.0,-321000.0,97351.876835,39.69,0.0,-10.81904411,43.34856033,-138.1087952,2.329999924,-577.5651855,220.4644623,83.0
2018-10-05 19:56:56.320,0.108,-0.309,-0.224,-1.1571847,0.5491724,14.121576,-52000.0,-346000.0,-317000.0,97354.10767,39.69,0.0,-10.81904411,43.34856033,-138.1087952,2.329999924,-577.5651855,220.4644623,83.0
2018-10-05 19:56:56.360,0.1159999999999999,-0.308,-0.2255,-1.14737805,0.5982056499999999,14.0038962,-45500.0,-346000.0,-312000.0,97354.202275,39.685,0.0,-10.81904411,43.34856033,-138.1087952,2.4024999145,-576.64093015,220.96868135,83.5
2018-10-05 19:56:56.400,0.124,-0.307,-0.227,-1.1375714,0.6472389,13.8862164,-39000.0,-346000.0,-307000.0,97354.29688,39.68,0.0,-10.81904411,43.34856033,-138.1087952,2.474999905,-575.7166748,221.4729004,84.0
2018-10-05 19:56:56.440,0.1,-0.30725,-0.2355,-1.1449263875,0.7109821249999999,13.675373425,-40250.0,-347750.0,-305750.0,97355.1544225,39.68,0.0,-10.81904411,43.34856033,-138.1087952,2.623333216,-575.1005045666666,222.4775441666667,85.0
2018-10-05 19:56:56.480,0.076,-0.3075,-0.244,-1.1522813749999998,0.77472535,13.46453045,-41500.0,-349500.0,-304500.0,97356.011965,39.68,0.0,-10.81904411,43.34856033,-138.1087952,2.771666527,-574.4843343333333,223.4821879333333,86.0
2018-10-05 19:56:56.520,0.0519999999999999,-0.3077499999999999,-0.2525,-1.1596363625,0.838468575,13.253687475,-42750.0,-351250.0,-303250.0,97356.8695075,39.68,0.0,-10.81904411,43.34856033,-138.1087952,2.919999838,-573.8681641,224.4868317,87.0
2018-10-05 19:56:56.560,0.028,-0.308,-0.261,-1.16699135,0.9022118,13.0428445,-44000.0,-353000.0,-302000.0,97357.72705,39.68,0.0,-10.3276352865,44.09113121,-134.67765045,2.99499988575,-575.87069705,224.98401645,87.5
2018-10-05 19:56:56.600,0.054,-0.3085,-0.295,-1.12776475,0.81395195,12.655481825,-43500.0,-355000.0,-300500.0,97363.05237,39.675,0.0,-9.836226463,44.83370209,-131.2465057,3.0699999335,-577.8732299999999,225.4812012,88.0
2018-10-05 19:56:56.640,0.08,-0.309,-0.329,-1.08853815,0.7256921,12.26811915,-43000.0,-357000.0,-299000.0,97368.37769,39.67,0.0,-9.836226463,44.83370209,-131.2465057,3.220000029,-581.8782959,226.4755707,89.0
2018-10-05 19:56:56.680,0.057,-0.3299999999999999,-0.317,-1.04931155,0.6766588499999999,13.126201025,-39500.0,-359000.0,-296000.0,97371.356205,39.67,0.0,-9.836226463,44.83370209,-131.2465057,3.370000005,-581.8782959,227.46185305,90.0
2018-10-05 19:56:56.720,0.034,-0.351,-0.305,-1.01008495,0.6276256,13.9842829,-36000.0,-361000.0,-293000.0,97374.33472,39.67,0.0,-9.836226463,44.83370209,-131.2465057,3.519999981,-581.8782959,228.4481354,91.0
2018-10-05 19:56:56.760,-0.0133333333333333,-0.3553333333333333,-0.3083333333333333,-0.9414384,0.5818612333333333,14.38635555,-32333.33333333333,-360666.6666666667,-291000.0,97374.00106,39.67,0.0,-9.836226463,44.83370209,-131.2465057,3.519999981,-581.8782959,228.4481354,91.0
2018-10-05 19:56:56.800,-0.0606666666666666,-0.3596666666666666,-0.3116666666666666,-0.8727918499999999,0.5360968666666667,14.7884282,-28666.666666666668,-360333.3333333333,-289000.0,97373.6674,39.67,0.0,-9.836226463,44.83370209,-131.2465057,3.819999933,-580.473877,230.3620605,93.0
2018-10-05 19:56:56.840,-0.108,-0.364,-0.315,-0.8041453,0.4903325,15.19050085,-25000.0,-360000.0,-287000.0,97373.33374,39.67,0.0,-9.7688117025,44.647248270000006,-128.97263525,3.89749997825,-580.473877,230.8436012,93.5
2018-10-05 19:56:56.880,-0.1265,-0.3745,-0.2895,-0.784532,0.5295591,15.940709575,-19500.0,-358500.0,-289000.0,97377.227785,39.665,0.0,-9.701396942,44.46079445,-126.6987648,3.9750000235,-580.473877,231.3251419,94.0
2018-10-05 19:56:56.920,-0.145,-0.385,-0.264,-0.7649187,0.5687857,16.6909183,-14000.0,-357000.0,-291000.0,97381.12183,39.66,0.0,-9.6339821815,44.27434063,-124.42489435,4.19249993525,-580.2336425999999,232.73347855,95.5
2018-10-05 19:56:56.960,-0.099,-0.3863333333333333,-0.264,-0.7681875833333333,0.4707191999999999,16.619002866666666,-20000.0,-359666.6666666667,-295000.0,97383.5022,39.66,0.0,-9.566567421,44.08788681,-122.1510239,4.409999847,-579.9934082,234.1418152,97.0
2018-10-05 19:56:57.000,-0.053,-0.3876666666666666,-0.264,-0.7714564666666667,0.3726526999999999,16.547087433333335,-26000.0,-362333.3333333333,-299000.0,97385.88257,39.66,0.0,-9.566567421,44.08788681,-122.1510239,4.409999847,-579.9934082,234.1418152,97.0
2018-10-05 19:56:57.040,-0.007,-0.389,-0.264,-0.77472535,0.2745862,16.475172,-32000.0,-365000.0,-303000.0,97388.26294,39.66,0.0,-9.566567421,44.08788681,-122.1510239,4.409999847,-579.9934082,234.1418152,97.0
2018-10-05 19:56:57.080,0.0655,-0.392,-0.2195,-0.691368825,0.34323275,16.3378789,-31000.0,-361500.0,-302500.0,97386.254885,39.66,0.0,-9.566567421,44.08788681,-122.1510239,4.5449998375,-579.9934082,235.04920195,98.0
2018-10-05 19:56:57.120,0.138,-0.395,-0.175,-0.6080123,0.4118793,16.2005858,-30000.0,-358000.0,-302000.0,97384.24683,39.66,0.0,-9.566567421,44.08788681,-122.1510239,4.679999828,-579.9934082,235.9565887,99.0
2018-10-05 19:56:57.160,0.113,-0.39775,-0.1682499999999999,-0.6276256,0.53936575,16.4359454,-33000.0,-359250.0,-300750.0,97386.3952675,39.6575,0.0,-9.566567421,44.08788681,-122.1510239,4.679999828,-579.9934082,235.9565887,99.0
2018-10-05 19:56:57.200,0.088,-0.4005,-0.1614999999999999,-0.6472389,0.6668521999999999,16.671305,-36000.0,-360500.0,-299500.0,97388.543705,39.655,0.0,-9.566567421,44.08788681,-122.1510239,4.929999828,-594.1230469,237.7315521,101.0
2018-10-05 19:56:57.240,0.063,-0.40325,-0.15475,-0.6668521999999999,0.7943386499999999,16.9066646,-39000.0,-361750.0,-298250.0,97390.6921425,39.6525,0.0,-9.566567421,44.08788681,-122.1510239,5.034999847,-594.1230469,238.58325195,102.0
2018-10-05 19:56:57.280,0.038,-0.406,-0.148,-0.6864655,0.9218251,17.1420242,-42000.0,-363000.0,-297000.0,97392.84058,39.65,0.0,-9.566567421,44.08788681,-122.1510239,5.139999866,-594.1230469,239.4349518,103.0
2018-10-05 19:56:57.320,0.027,-0.3955,-0.1765,-0.6080123,1.01008495,16.617368425000002,-38500.0,-364000.0,-295000.0,97394.84253,39.65,0.0,-9.566567421,44.08788681,-122.1510239,5.139999866,-594.1230469,239.4349518,103.0
2018-10-05 19:56:57.360,0.016,-0.385,-0.205,-0.5295591,1.0983448,16.09271265,-35000.0,-365000.0,-293000.0,97396.84448,39.65,0.0,-5.867699146,43.83647919,-110.2767181,5.139999866,-594.1230469,239.4349518,103.0
2018-10-05 19:56:57.400,-0.0654999999999999,-0.389,-0.2319999999999999,-0.4903324999999999,1.0591182,16.391815475,-43000.0,-365000.0,-292000.0,97398.64502,39.645,0.0,-5.867699146,43.83647919,-110.2767181,5.339999676,-580.9480591,241.0845337,104.0
2018-10-05 19:56:57.440,-0.147,-0.393,-0.259,-0.4511059,1.0198916,16.6909183,-51000.0,-365000.0,-291000.0,97400.44556,39.64,0.0,-5.867699146,43.83647919,-110.2767181,5.419999838,-580.9480591,241.86846925,105.0
2018-10-05 19:56:57.480,-0.1983333333333333,-0.3883333333333333,-0.2903333333333333,-0.4478370166666666,0.8760607333333333,16.507860833333332,-46333.333333333336,-364000.0,-290000.0,97401.42822333332,39.64,0.0,-5.867699146,43.83647919,-110.2767181,5.5,-580.9480591,242.6524048,106.0
2018-10-05 19:56:57.520,-0.2496666666666666,-0.3836666666666666,-0.3216666666666666,-0.4445681333333333,0.7322298666666667,16.324803366666668,-41666.66666666666,-363000.0,-289000.0,97402.41088666666,39.64,0.0,-5.867699146,43.83647919,-110.2767181,5.5,-580.9480591,242.6524048,106.0
2018-10-05 19:56:57.560,-0.301,-0.379,-0.353,-0.44129925,0.588399,16.1417459,-37000.0,-362000.0,-288000.0,97403.39355,39.64,0.0,-5.867699146,43.83647919,-110.2767181,5.569999933,-583.9284973,243.4094467,107.0
2018-10-05 19:56:57.600,-0.1654999999999999,-0.376,-0.3505,-0.51975245,0.4952358249999999,16.028969425,-23500.0,-360000.0,-293000.0,97402.66418,39.64,0.0,-5.867699146,43.83647919,-110.2767181,5.639999866,-586.9089355,244.1664886,108.0
2018-10-05 19:56:57.640,-0.03,-0.373,-0.348,-0.59820565,0.40207265,15.91619295,-10000.0,-358000.0,-298000.0,97401.93481,39.64,0.0,-5.867699146,43.83647919,-110.2767181,5.639999866,-586.9089355,244.1664886,108.0
2018-10-05 19:56:57.680,0.0063333333333333,-0.3743333333333333,-0.3296666666666666,-0.6112811833333334,0.3955348833333333,15.870428583333332,-13000.0,-357333.3333333333,-299000.0,97401.89005333334,39.63666666666667,0.0,-5.867699146,43.83647919,-110.2767181,5.639999866,-586.9089355,244.1664886,108.0
2018-10-05 19:56:57.720,0.0426666666666666,-0.3756666666666666,-0.3113333333333333,-0.6243567166666667,0.3889971166666666,15.824664216666667,-16000.0,-356666.6666666667,-300000.0,97401.84529666668,39.63333333333333,0.0,-5.867699146,43.83647919,-110.2767181,5.759999752,-586.9089355,245.5940094,110.0
2018-10-05 19:56:57.760,0.079,-0.377,-0.293,-0.63743225,0.38245935,15.77889985,-19000.0,-356000.0,-301000.0,97401.80054,39.63,0.0,-4.237047672,41.53859329,-98.75360107,5.759999752,-586.9089355,245.5940094,110.0
2018-10-05 19:56:57.800,0.0925,-0.3915,-0.2684999999999999,-0.603108975,0.308909475,15.99464615,-16500.0,-357500.0,-298500.0,97402.75879,39.63,0.0,-4.237047672,41.53859329,-98.75360107,5.8049998285,-586.46804805,246.2760544,110.5
2018-10-05 19:56:57.840,0.106,-0.406,-0.244,-0.5687857,0.2353596,16.21039245,-14000.0,-359000.0,-296000.0,97403.71704,39.63,0.0,-4.237047672,41.53859329,-98.75360107,5.849999905,-586.0271606,246.9580994,111.0
2018-10-05 19:56:57.880,0.105,-0.41,-0.2485,-0.55897905,0.36284605,16.274135675,-12000.0,-359000.0,-294000.0,97407.13196,39.63,0.0,-4.237047672,41.53859329,-98.75360107,5.879999875999999,-586.0271606,247.5965958,112.0
2018-10-05 19:56:57.920,0.104,-0.414,-0.253,-0.5491724,0.4903325,16.3378789,-10000.0,-359000.0,-292000.0,97410.54688,39.63,0.0,-4.237047672,41.53859329,-98.75360107,5.909999847,-586.0271606,248.2350922,113.0
2018-10-05 19:56:57.960,0.0923333333333333,-0.4116666666666666,-0.2573333333333333,-0.5426346333333333,0.5426346333333333,16.324803366666668,-7333.333333333334,-360000.0,-290666.6666666667,97410.32511666666,39.626666666666665,0.0,-4.237047672,41.53859329,-98.75360107,5.929999828,-581.8052368,248.8279114,114.0
2018-10-05 19:56:58.000,0.0806666666666666,-0.4093333333333333,-0.2616666666666666,-0.5360968666666667,0.5949367666666666,16.311727833333332,-4666.666666666667,-361000.0,-289333.3333333333,97410.10335333334,39.623333333333335,0.0,-4.237047672,41.53859329,-98.75360107,5.949999809,-577.583313,249.4207306,115.0
2018-10-05 19:56:58.040,0.069,-0.407,-0.266,-0.5295591,0.6472389,16.2986523,-2000.0,-362000.0,-288000.0,97409.88159,39.62,0.0,-4.237047672,41.53859329,-98.75360107,5.949999809,-577.583313,249.4207306,115.0
2018-10-05 19:56:58.080,0.066,-0.396,-0.2845,-0.4756225249999999,0.4854291749999999,16.7889848,-5500.0,-363000.0,-286500.0,97409.76257,39.62,0.0,-4.237047672,41.53859329,-98.75360107,5.960000038,-577.583313,250.5144501,116.0
2018-10-05 19:56:58.120,0.063,-0.385,-0.303,-0.42168595,0.32361945,17.2793173,-9000.0,-364000.0,-285000.0,97409.64355,39.62,0.0,-4.237047672,41.53859329,-98.75360107,5.960000038,-577.583313,250.5144501,116.0
2018-10-05 19:56:58.160,0.0856666666666666,-0.379,-0.289,-0.4118793,0.3791904666666666,17.079915416666665,-5333.333333333334,-364000.0,-283666.6666666667,97409.58658666666,39.61666666666667,0.0,-1.771201015,43.29014587,-88.14797974,5.960000038,-577.583313,250.5144501,116.0
2018-10-05 19:56:58.200,0.1083333333333333,-0.373,-0.275,-0.40207265,0.4347614833333333,16.880513533333332,-1666.666666666667,-364000.0,-282333.3333333333,97409.52962333334,39.61333333333333,0.0,-1.771201015,43.29014587,-88.14797974,5.960000038,-562.0229492,251.5119629,118.0
2018-10-05 19:56:58.240,0.131,-0.367,-0.261,-0.392266,0.4903325,16.68111165,2000.0,-364000.0,-281000.0,97409.47266,39.61,0.0,-1.771201015,43.29014587,-88.14797974,5.9349999425,-562.0229492,251.9553757,118.5
2018-10-05 19:56:58.280,0.1266666666666666,-0.3683333333333333,-0.242,-0.3563082833333333,0.4936013833333333,16.612465099999998,1333.3333333333337,-365333.3333333333,-280333.3333333333,97409.15324,39.61,0.0,-1.771201015,43.29014587,-88.14797974,5.909999847,-562.0229492,252.3987885,119.0
2018-10-05 19:56:58.320,0.1223333333333333,-0.3696666666666666,-0.223,-0.3203505666666666,0.4968702666666666,16.54381855,666.6666666666667,-366666.6666666667,-279666.6666666667,97408.83382,39.61,0.0,-1.771201015,43.29014587,-88.14797974,5.909999847,-562.0229492,252.3987885,119.0
2018-10-05 19:56:58.360,0.118,-0.371,-0.204,-0.28439285,0.50013915,16.475172,0.0,-368000.0,-279000.0,97408.5144,39.61,0.0,-1.771201015,43.29014587,-88.14797974,5.879999875999999,-545.2991333,252.7916794,119.5
2018-10-05 19:56:58.400,0.075,-0.3715,-0.2005,-0.220649625,0.61781895,16.293748975,2000.0,-370500.0,-278500.0,97410.30273,39.61,0.0,-1.771201015,43.29014587,-88.14797974,5.849999905,-528.5753174,253.1845703,120.0
2018-10-05 19:56:58.440,0.032,-0.372,-0.197,-0.1569064,0.73549875,16.11232595,4000.0,-373000.0,-278000.0,97412.09106,39.61,0.0,-1.1658511003333332,43.96623357,-85.59564209333332,5.819999854,-528.5753174,253.40638733333333,120.66666666666669
2018-10-05 19:56:58.480,0.0136666666666666,-0.362,-0.223,-0.1895952333333333,0.8270274833333333,15.85735305,2000.0,-372333.3333333333,-277666.6666666667,97409.28751333334,39.60666666666667,0.0,-0.5605011856666666,44.64232127,-83.04330444666667,5.789999803,-528.5753174,253.6282043666667,121.33333333333331
2018-10-05 19:56:58.520,-0.0046666666666666,-0.352,-0.249,-0.2222840666666666,0.9185562166666666,15.60238015,0.0,-371666.6666666667,-277333.3333333333,97406.48396666668,39.60333333333333,0.0,0.044848729,45.31840897,-80.4909668,5.759999752,-528.5753174,253.8500214,122.0
2018-10-05 19:56:58.560,-0.023,-0.342,-0.275,-0.2549729,1.01008495,15.34740725,-2000.0,-371000.0,-277000.0,97403.68042,39.6,0.0,0.044848729,45.31840897,-80.4909668,5.7099997995,-521.78067015,254.1389542,122.5
2018-10-05 19:56:58.600,-0.017,-0.3395,-0.2945,-0.240262925,0.93163175,15.0434011,2500.0,-371000.0,-276500.0,97407.31201,39.6,0.0,0.044848729,45.31840897,-80.4909668,5.659999847,-514.9860229,254.427887,123.0
2018-10-05 19:56:58.640,-0.011,-0.337,-0.314,-0.22555295,0.85317855,14.73939495,7000.0,-371000.0,-276000.0,97410.9436,39.6,0.0,0.044848729,45.31840897,-80.4909668,5.659999847,-514.9860229,254.427887,123.0
2018-10-05 19:56:58.680,-0.0083333333333333,-0.3303333333333333,-0.3173333333333333,-0.20593965,0.7681875833333334,14.402699966666669,3666.6666666666665,-372666.6666666667,-277000.0,97408.60799,39.6,0.0,0.044848729,45.31840897,-80.4909668,5.659999847,-514.9860229,254.427887,123.0
2018-10-05 19:56:58.720,-0.0056666666666666,-0.3236666666666666,-0.3206666666666666,-0.18632635,0.6831966166666666,14.066004983333332,333.33333333333303,-374333.3333333333,-278000.0,97406.27238,39.6,0.0,0.044848729,45.31840897,-80.4909668,5.539999962,-514.9860229,254.9036713,124.0
2018-10-05 19:56:58.760,-0.003,-0.317,-0.324,-0.16671305,0.59820565,13.72931,-3000.0,-376000.0,-279000.0,97403.93677,39.6,0.0,0.044848729,45.31840897,-80.4909668,5.5099999905,-513.62961575,254.99951175,124.25
2018-10-05 19:56:58.800,0.0035,-0.316,-0.3195,-0.196133,0.514849125,13.71950335,6000.0,-374000.0,-276500.0,97403.561405,39.595,0.0,0.044848729,45.31840897,-80.4909668,5.480000019,-512.2732086,255.0953522,124.5
2018-10-05 19:56:58.840,0.01,-0.315,-0.315,-0.22555295,0.4314926,13.7096967,15000.0,-372000.0,-274000.0,97403.18604,39.59,0.0,0.600498796,45.78541565,-69.83115387,5.420000076,-509.5603943,255.2870331,125.0
2018-10-05 19:56:58.880,0.0065,-0.312,-0.283,-0.2745862,0.436395925,13.72931,18500.0,-371500.0,-272000.0,97404.12598,39.59,0.0,0.600498796,45.78541565,-69.83115387,5.359999895,-509.5603943,255.4298401,125.5
2018-10-05 19:56:58.920,0.003,-0.309,-0.251,-0.32361945,0.44129925,13.7489233,22000.0,-371000.0,-270000.0,97405.06592,39.59,0.0,0.600498796,45.78541565,-69.83115387,5.299999714,-509.5603943,255.5726471,126.0
2018-10-05 19:56:58.960,0.0176666666666666,-0.317,-0.2406666666666666,-0.2680484333333333,0.4576436666666666,14.17060925,27333.33333333333,-369666.6666666667,-269666.6666666667,97403.64787,39.59,0.0,0.600498796,45.78541565,-69.83115387,5.299999714,-509.5603943,255.5726471,126.0
2018-10-05 19:56:59.000,0.0323333333333333,-0.325,-0.2303333333333333,-0.2124774166666666,0.4739880833333333,14.5922952,32666.666666666664,-368333.3333333333,-269333.3333333333,97402.22982,39.59,0.0,0.600498796,45.78541565,-69.83115387,5.170000076,-496.7466431,255.7749939,127.0
2018-10-05 19:56:59.040,0.047,-0.333,-0.22,-0.1569064,0.4903325,15.01398115,38000.0,-367000.0,-269000.0,97400.81177,39.59,0.0,0.600498796,45.78541565,-69.83115387,5.170000076,-496.7466431,255.7749939,127.0
2018-10-05 19:56:59.080,0.052,-0.3333333333333333,-0.2243333333333333,-0.1601752833333333,0.6014745333333333,15.115316533333331,43000.0,-364666.6666666667,-269333.3333333333,97400.32959,39.586666666666666,0.0,0.600498796,45.78541565,-69.83115387,5.170000076,-496.7466431,255.7749939,127.0
2018-10-05 19:56:59.120,0.057,-0.3336666666666666,-0.2286666666666666,-0.1634441666666666,0.7126165666666666,15.216651916666668,48000.0,-362333.3333333333,-269666.6666666667,97399.84741,39.583333333333336,0.0,0.600498796,45.78541565,-69.83115387,5.049999714,-496.7466431,255.8843994,128.0
2018-10-05 19:56:59.160,0.062,-0.334,-0.233,-0.16671305,0.8237586,15.3179873,53000.0,-360000.0,-270000.0,97399.36523,39.58,0.0,0.600498796,45.78541565,-69.83115387,5.049999714,-496.7466431,255.8843994,128.0
2018-10-05 19:56:59.200,0.0114999999999999,-0.3255,-0.261,-0.152003075,0.8482752250000001,14.6707484,47500.0,-365000.0,-272500.0,97397.45178,39.58,0.0,0.600498796,45.78541565,-69.83115387,4.984999895,-487.99095155,255.88806915,128.5
2018-10-05 19:56:59.240,-0.039,-0.317,-0.289,-0.1372931,0.87279185,14.0235095,42000.0,-370000.0,-275000.0,97395.53833,39.58,0.0,0.600498796,45.78541565,-69.83115387,4.920000076,-479.23526,255.8917389,129.0
2018-10-05 19:56:59.280,-0.0515,-0.3065,-0.3199999999999999,-0.1372931,0.85317855,13.48414375,46500.0,-369000.0,-273000.0,97395.7489,39.58,0.0,0.600498796,45.78541565,-69.83115387,4.849999904500001,-479.23526,255.8416977,129.5
2018-10-05 19:56:59.320,-0.064,-0.296,-0.351,-0.1372931,0.83356525,12.944778,51000.0,-368000.0,-271000.0,97395.95947,39.58,0.0,0.600498796,45.78541565,-69.83115387,4.8149998187500005,-479.23526,255.8166771,129.75
2018-10-05 19:56:59.360,-0.0666666666666666,-0.2856666666666667,-0.354,-0.1732508166666666,0.8204897166666667,12.91535805,52666.66666666666,-367666.6666666667,-272666.6666666667,97395.4895,39.57666666666667,0.0,0.600498796,45.78541565,-69.83115387,4.779999733,-479.23526,255.7916565,130.0
2018-10-05 19:56:59.400,-0.0693333333333333,-0.2753333333333333,-0.357,-0.2092085333333333,0.8074141833333334,12.8859381,54333.333333333336,-367333.3333333333,-274333.3333333333,97395.01953,39.57333333333333,0.0,1.371489048,46.62418747,-57.06429291,4.650000095,-467.5031738,255.6174622,131.0
2018-10-05 19:56:59.440,-0.072,-0.265,-0.36,-0.24516625,0.79433865,12.85651815,56000.0,-367000.0,-276000.0,97394.54956,39.57,0.0,1.371489048,46.62418747,-57.06429291,4.650000095,-467.5031738,255.6174622,131.0
2018-10-05 19:56:59.480,-0.0353333333333333,-0.2686666666666666,-0.361,-0.2386284833333333,0.7126165666666667,13.0232312,62333.333333333336,-365666.6666666667,-277666.6666666667,97393.55265333332,39.57,0.0,1.371489048,46.62418747,-57.06429291,4.519999981,-467.5031738,255.3449707,132.0
2018-10-05 19:56:59.520,0.0013333333333333,-0.2723333333333333,-0.362,-0.2320907166666666,0.6308944833333333,13.18994425,68666.66666666667,-364333.3333333333,-279333.3333333333,97392.55574666668,39.57,0.0,1.371489048,46.62418747,-57.06429291,4.519999981,-467.5031738,255.3449707,132.0
2018-10-05 19:56:59.560,0.038,-0.276,-0.363,-0.22555295,0.5491724,13.3566573,75000.0,-363000.0,-281000.0,97391.55884,39.57,0.0,1.371489048,46.62418747,-57.06429291,4.519999981,-467.5031738,255.3449707,132.0
2018-10-05 19:56:59.600,0.0455,-0.2785,-0.354,-0.22555295,0.436395925,13.126201025,87000.0,-359000.0,-282500.0,97390.41443,39.565,0.0,1.371489048,46.62418747,-57.06429291,4.389999866,-460.4116516,254.9978333,132.0
2018-10-05 19:56:59.640,0.053,-0.281,-0.345,-0.22555295,0.32361945,12.89574475,99000.0,-355000.0,-284000.0,97389.27002,39.56,0.0,1.371489048,46.62418747,-57.06429291,4.389999866,-460.4116516,254.9978333,132.0
2018-10-05 19:56:59.680,0.0493333333333333,-0.283,-0.3346666666666666,-0.2386284833333333,0.4118793,13.196482016666668,96000.0,-357000.0,-284666.6666666667,97388.66984,39.56,0.0,0.7086726689999999,46.874061585,-52.83303833,4.3349997995,-460.4116516,254.7775345,132.5
2018-10-05 19:56:59.720,0.0456666666666666,-0.285,-0.3243333333333333,-0.2517040166666666,0.50013915,13.497219283333331,93000.0,-359000.0,-285333.3333333333,97388.06966,39.56,0.0,0.04585629,47.1239357,-48.60178375,4.279999733,-460.4116516,254.5572357,133.0
2018-10-05 19:56:59.760,0.042,-0.287,-0.314,-0.26477955,0.588399,13.79795655,90000.0,-361000.0,-286000.0,97387.46948,39.56,0.0,0.04585629,47.1239357,-48.60178375,4.279999733,-460.4116516,254.5572357,133.0
2018-10-05 19:56:59.800,0.0579999999999999,-0.2845,-0.32,-0.2991028249999999,0.6472389000000001,13.704793375,91000.0,-360500.0,-289500.0,97387.490845,39.555,0.0,0.04585629,47.1239357,-48.60178375,4.170000076,-461.3576965,254.0275269,134.0
2018-10-05 19:56:59.840,0.074,-0.282,-0.326,-0.3334261,0.7060788,13.6116302,92000.0,-360000.0,-293000.0,97387.51221,39.55,0.0,0.04585629,47.1239357,-48.60178375,4.170000076,-461.3576965,254.0275269,134.0
2018-10-05 19:56:59.880,0.064,-0.2815,-0.3315,-0.2941995,0.544269075,13.18994425,99000.0,-358500.0,-292500.0,97384.375,39.55,0.0,0.04585629,47.1239357,-48.60178375,4.059999943,-461.3576965,253.3957062,134.0
2018-10-05 19:56:59.920,0.054,-0.281,-0.337,-0.2549729,0.38245935,12.7682583,106000.0,-357000.0,-292000.0,97381.23779,39.55,0.0,0.04585629,47.1239357,-48.60178375,4.014999986,-463.6270599,253.0422287,134.5
2018-10-05 19:56:59.960,0.0316666666666666,-0.283,-0.326,-0.2288218333333333,0.4314925999999999,12.7682583,104333.33333333331,-357000.0,-291000.0,97382.02718,39.55,0.0,0.04585629,47.1239357,-48.60178375,3.970000029,-465.8964233,252.6887512,135.0
2018-10-05 19:57:00.000,0.0093333333333333,-0.285,-0.315,-0.2026707666666666,0.48052585,12.7682583,102666.66666666669,-357000.0,-290000.0,97382.81657,39.55,0.0,0.04585629,47.1239357,-48.60178375,3.970000029,-465.8964233,252.6887512,135.0
2018-10-05 19:57:00.040,-0.013,-0.287,-0.304,-0.1765197,0.5295591,12.7682583,101000.0,-357000.0,-289000.0,97383.60596,39.55,0.0,0.04585629,47.1239357,-48.60178375,3.970000029,-465.8964233,252.6887512,135.0
2018-10-05 19:57:00.080,-0.013,-0.2845,-0.315,-0.22555295,0.5687857,12.67999845,109500.0,-354000.0,-292500.0,97382.53479,39.545,0.0,-1.115319967,48.41917801,-38.49569702,3.889999866,-465.8964233,251.8878174,135.0
2018-10-05 19:57:00.120,-0.013,-0.282,-0.326,-0.2745862,0.6080123,12.5917386,118000.0,-351000.0,-296000.0,97381.46362,39.54,0.0,-1.115319967,48.41917801,-38.49569702,3.889999866,-465.8964233,251.8878174,135.0
2018-10-05 19:57:00.160,-0.032,-0.285,-0.323,-0.2680484333333333,0.6047434166666666,12.545974233333332,115000.0,-350666.6666666667,-297666.6666666667,97383.27026,39.54,0.0,-1.115319967,48.41917801,-38.49569702,3.889999866,-465.8964233,251.8878174,135.0
2018-10-05 19:57:00.200,-0.051,-0.288,-0.32,-0.2615106666666666,0.6014745333333333,12.500209866666667,112000.0,-350333.3333333333,-299333.3333333333,97385.0769,39.54,0.0,-1.115319967,48.41917801,-38.49569702,3.819999933,-442.1323853,251.0111847,135.0
2018-10-05 19:57:00.240,-0.07,-0.291,-0.317,-0.2549729,0.59820565,12.4544455,109000.0,-350000.0,-301000.0,97386.88354,39.54,0.0,-1.115319967,48.41917801,-38.49569702,3.819999933,-442.1323853,251.0111847,135.0
2018-10-05 19:57:00.280,-0.1056666666666666,-0.2883333333333333,-0.3106666666666666,-0.2386284833333333,0.5557101666666667,12.392336716666668,113333.33333333331,-349000.0,-301666.6666666667,97384.86938,39.54,0.0,-1.115319967,48.41917801,-38.49569702,3.819999933,-442.1323853,251.0111847,135.0
2018-10-05 19:57:00.320,-0.1413333333333333,-0.2856666666666666,-0.3043333333333333,-0.2222840666666666,0.5132146833333333,12.330227933333331,117666.66666666669,-348000.0,-302333.3333333333,97382.85522,39.54,0.0,-1.115319967,48.41917801,-38.49569702,3.75999999,-442.1323853,250.0502625,136.0
2018-10-05 19:57:00.360,-0.177,-0.283,-0.298,-0.20593965,0.4707192,12.26811915,122000.0,-347000.0,-303000.0,97380.84106,39.54,0.0,-1.115319967,48.41917801,-38.49569702,3.7474999425,-447.855529825,249.79015735,136.0
2018-10-05 19:57:00.400,-0.1755,-0.2915,-0.281,-0.171616375,0.44129925,12.606448575,118500.0,-342500.0,-306000.0,97377.71606,39.535,0.0,-1.115319967,48.41917801,-38.49569702,3.734999895,-453.57867435,249.5300522,136.0
2018-10-05 19:57:00.440,-0.174,-0.3,-0.264,-0.1372931,0.4118793,12.944778,115000.0,-338000.0,-309000.0,97374.59106,39.53,0.0,-1.887782574,46.87953949,-30.04497719,3.7099998,-465.0249634,249.0098419,136.0
2018-10-05 19:57:00.480,-0.2185,-0.299,-0.2575,-0.181423025,0.583495675,12.851614825,128500.0,-334500.0,-314000.0,97375.67749,39.53,0.0,-1.887782574,46.87953949,-30.04497719,3.694999814,-465.0249634,248.44239805,136.0
2018-10-05 19:57:00.520,-0.263,-0.298,-0.251,-0.22555295,0.75511205,12.75845165,142000.0,-331000.0,-319000.0,97376.76392,39.53,0.0,-1.887782574,46.87953949,-30.04497719,3.679999828,-465.0249634,247.8749542,136.0
2018-10-05 19:57:00.560,-0.2963333333333333,-0.2926666666666666,-0.253,-0.1994018833333333,0.7224232166666666,12.791140483333333,142000.0,-327000.0,-322666.6666666667,97374.15365,39.53,0.0,-1.887782574,46.87953949,-30.04497719,3.6699998375,-465.0249634,247.27233885,136.5
2018-10-05 19:57:00.600,-0.3296666666666666,-0.2873333333333333,-0.255,-0.1732508166666666,0.6897343833333334,12.823829316666666,142000.0,-323000.0,-326333.3333333333,97371.54338,39.53,0.0,-1.887782574,46.87953949,-30.04497719,3.659999847,-465.0249634,246.6697235,137.0
2018-10-05 19:57:00.640,-0.363,-0.282,-0.257,-0.14709975,0.65704555,12.85651815,142000.0,-319000.0,-330000.0,97368.93311,39.53,0.0,-1.887782574,46.87953949,-30.04497719,3.659999847,-465.0249634,246.6697235,137.0
2018-10-05 19:57:00.680,-0.3894999999999999,-0.268,-0.2694999999999999,-0.2255529499999999,0.784532,12.6701918,146500.0,-313000.0,-338500.0,97372.16492,39.525000000000006,0.0,-1.887782574,46.87953949,-30.04497719,3.6499998565,-466.1390381,246.03840635,137.0
2018-10-05 19:57:00.720,-0.416,-0.254,-0.282,-0.30400615,0.91201845,12.48386545,151000.0,-307000.0,-347000.0,97375.39673,39.52,0.0,-1.887782574,46.87953949,-30.04497719,3.639999866,-467.2531128,245.4070892,137.0
2018-10-05 19:57:00.760,-0.414,-0.25,-0.304,-0.3170816833333333,0.9152873333333332,12.545974233333332,145666.66666666666,-303000.0,-353333.3333333333,97375.09765666666,39.52,0.0,-1.887782574,46.87953949,-30.04497719,3.639999866,-467.2531128,245.4070892,137.0
2018-10-05 19:57:00.800,-0.412,-0.246,-0.3259999999999999,-0.3301572166666666,0.9185562166666666,12.608083016666669,140333.33333333334,-299000.0,-359666.6666666667,97374.79858333332,39.52,0.0,-1.887782574,46.87953949,-30.04497719,3.609999895,-450.9153442,244.0783997,137.0
2018-10-05 19:57:00.840,-0.41,-0.242,-0.348,-0.34323275,0.9218251,12.6701918,135000.0,-295000.0,-366000.0,97374.49951,39.52,0.0,-1.887782574,46.87953949,-30.04497719,3.599999904666667,-450.9153442,243.61332196666663,137.0
2018-10-05 19:57:00.880,-0.4,-0.2259999999999999,-0.351,-0.3726526999999999,0.6325289249999999,12.939874675,144000.0,-285000.0,-374500.0,97372.29309,39.515,0.0,-1.887782574,46.87953949,-30.04497719,3.589999914333333,-450.9153442,243.14824423333332,137.0
2018-10-05 19:57:00.920,-0.39,-0.21,-0.354,-0.40207265,0.34323275,13.20955755,153000.0,-275000.0,-383000.0,97370.08667,39.51,0.0,-1.887782574,46.87953949,-30.04497719,3.579999924,-450.9153442,242.6831665,137.0
2018-10-05 19:57:00.960,-0.4183333333333333,-0.204,-0.319,-0.4314926,0.3661149333333333,12.928433583333334,154666.66666666666,-268666.6666666667,-387000.0,97370.12125666668,39.51,0.0,-1.97185421,37.78188705,-18.97746086,3.579999924,-450.9153442,242.6831665,137.0
2018-10-05 19:57:01.000,-0.4466666666666666,-0.198,-0.284,-0.46091255,0.3889971166666666,12.647309616666666,156333.33333333334,-262333.3333333333,-391000.0,97370.15584333334,39.51,0.0,-1.97185421,37.78188705,-18.97746086,3.549999952,-477.0250244,241.2358856,137.0
2018-10-05 19:57:01.040,-0.475,-0.192,-0.249,-0.4903325,0.4118793,12.36618565,158000.0,-256000.0,-395000.0,97370.19043,39.51,0.0,-1.97185421,37.78188705,-18.97746086,3.549999952,-477.0250244,241.2358856,137.0
2018-10-05 19:57:01.080,-0.507,-0.1895,-0.2525,-0.4903325,0.4903324999999999,12.38579895,161500.0,-246000.0,-403000.0,97367.559815,39.51,0.0,-1.97185421,37.78188705,-18.97746086,3.529999971,-477.0250244,240.4883499,137.0
2018-10-05 19:57:01.120,-0.539,-0.187,-0.256,-0.4903325,0.5687857,12.40541225,165000.0,-236000.0,-411000.0,97364.9292,39.51,0.0,-1.97185421,37.78188705,-18.97746086,3.50999999,-477.0250244,239.7408142,137.0
2018-10-05 19:57:01.160,-0.527,-0.1745,-0.2694999999999999,-0.505042475,0.544269075,12.351475675,159500.0,-225000.0,-423000.0,97369.778445,39.51,0.0,-1.97185421,37.78188705,-18.97746086,3.50999999,-477.0250244,239.7408142,137.0
2018-10-05 19:57:01.200,-0.515,-0.162,-0.283,-0.51975245,0.51975245,12.2975391,154000.0,-214000.0,-435000.0,97374.62769,39.51,0.0,-1.97185421,37.78188705,-18.97746086,3.460000038,-468.197998,238.2028351,137.0
2018-10-05 19:57:01.240,-0.4713333333333333,-0.1543333333333333,-0.2663333333333333,-0.5459035166666667,0.5034080333333334,12.000070716666666,150666.66666666666,-209333.3333333333,-441000.0,97372.57690666668,39.50666666666667,0.0,-1.99456656,29.18757057,-12.75362873,3.460000038,-468.197998,238.2028351,137.0
2018-10-05 19:57:01.280,-0.4276666666666667,-0.1466666666666666,-0.2496666666666666,-0.5720545833333334,0.4870636166666667,11.702602333333331,147333.33333333334,-204666.66666666663,-447000.0,97370.52612333331,39.50333333333333,0.0,-1.99456656,29.18757057,-12.75362873,3.399999857,-468.197998,236.6219177,137.0
2018-10-05 19:57:01.320,-0.384,-0.139,-0.233,-0.59820565,0.4707192,11.40513395,144000.0,-200000.0,-453000.0,97368.47534,39.5,0.0,-1.99456656,29.18757057,-12.75362873,3.399999857,-468.197998,236.6219177,137.0
2018-10-05 19:57:01.360,-0.378,-0.1383333333333333,-0.2223333333333333,-0.6047434166666666,0.4772569666666666,11.460704966666666,141333.33333333334,-192333.3333333333,-456666.6666666667,97368.04199,39.5,0.0,-1.99456656,29.18757057,-12.75362873,3.399999857,-468.197998,236.6219177,137.0
2018-10-05 19:57:01.400,-0.372,-0.1376666666666667,-0.2116666666666666,-0.6112811833333334,0.4837947333333333,11.516275983333331,138666.66666666666,-184666.66666666663,-460333.3333333333,97367.60864,39.5,0.0,-1.99456656,29.18757057,-12.75362873,3.329999924,-473.1513977,235.0120544,137.0
2018-10-05 19:57:01.440,-0.366,-0.137,-0.201,-0.61781895,0.4903325,11.571847,136000.0,-177000.0,-464000.0,97367.17529,39.5,0.0,-1.99456656,29.18757057,-12.75362873,3.294999957,-473.1513977,234.19288635,137.0
2018-10-05 19:57:01.480,-0.4255,-0.111,-0.187,-0.612915625,0.573689025,11.145257725,127500.0,-170000.0,-469500.0,97366.26587,39.5,0.0,-1.99456656,29.18757057,-12.75362873,3.25999999,-473.1513977,233.3737183,137.0
2018-10-05 19:57:01.520,-0.485,-0.085,-0.173,-0.6080123,0.65704555,10.71866845,119000.0,-163000.0,-475000.0,97365.35645,39.5,0.0,-1.99456656,29.18757057,-12.75362873,3.25999999,-473.1513977,233.3737183,137.0
2018-10-05 19:57:01.560,-0.50025,-0.08275,-0.17825,-0.6251739374999999,0.6472389,10.7284751,122000.0,-156750.0,-479000.0,97364.6316575,39.4975,0.0,-1.99456656,29.18757057,-12.75362873,3.2249999045,-473.1513977,232.5424881,137.0
2018-10-05 19:57:01.600,-0.5155000000000001,-0.0805,-0.1835,-0.6423355749999999,0.63743225,10.73828175,125000.0,-150500.0,-483000.0,97363.906865,39.495000000000005,0.0,-1.99456656,29.18757057,-12.75362873,3.189999819,-473.1513977,231.7112579,137.0
2018-10-05 19:57:01.640,-0.53075,-0.07825,-0.18875,-0.6594972125,0.6276256,10.7480884,128000.0,-144250.0,-487000.0,97363.1820725,39.4925,0.0,-1.99456656,29.18757057,-12.75362873,3.189999819,-473.1513977,231.7112579,137.0
2018-10-05 19:57:01.680,-0.546,-0.076,-0.194,-0.67665885,0.61781895,10.75789505,131000.0,-138000.0,-491000.0,97362.45728,39.49,0.0,-1.99456656,29.18757057,-12.75362873,3.119999886,-461.4343567,230.052597,137.0
2018-10-05 19:57:01.720,-0.536,-0.066,-0.211,-0.61781895,0.4511059,10.95402805,120000.0,-113000.0,-495000.0,97360.19897,39.49,0.0,-1.657147646,17.33893204,-6.178474903,3.119999886,-461.4343567,230.052597,137.0
2018-10-05 19:57:01.760,-0.5476666666666666,-0.056,-0.1979999999999999,-0.6210878333333333,0.3726527,10.79712165,116000.0,-106666.66666666669,-497333.3333333333,97361.11856666669,39.486666666666665,0.0,-1.657147646,17.33893204,-6.178474903,3.119999886,-461.4343567,230.052597,137.0
2018-10-05 19:57:01.800,-0.5593333333333333,-0.046,-0.185,-0.6243567166666667,0.2941995,10.64021525,112000.0,-100333.33333333331,-499666.6666666667,97362.03816333332,39.48333333333333,0.0,-1.657147646,17.33893204,-6.178474903,3.039999962,-441.8840332,228.3746033,137.0
2018-10-05 19:57:01.840,-0.571,-0.036,-0.172,-0.6276256,0.2157463,10.48330885,108000.0,-94000.0,-502000.0,97362.95776,39.48,0.0,-1.657147646,17.33893204,-6.178474903,3.039999962,-441.8840332,228.3746033,137.0
2018-10-05 19:57:01.880,-0.522,-0.0385,-0.136,-0.6423355749999999,0.240262925,10.4538889,112000.0,-79500.0,-505000.0,97360.54077,39.48,0.0,-1.657147646,17.33893204,-6.178474903,3.039999962,-441.8840332,228.3746033,137.0
2018-10-05 19:57:01.920,-0.473,-0.041,-0.1,-0.65704555,0.26477955,10.42446895,116000.0,-65000.0,-508000.0,97358.12378,39.48,0.0,-1.657147646,17.33893204,-6.178474903,2.960000038,-441.8840332,226.6821594,137.0
2018-10-05 19:57:01.960,-0.472,-0.038,-0.0813333333333333,-0.65704555,0.3072750333333333,10.3165958,116000.0,-57666.66666666666,-509666.6666666667,97358.76871666666,39.48,0.0,-1.657147646,17.33893204,-6.178474903,2.9375,-438.39782715,226.257835375,137.0
2018-10-05 19:57:02.000,-0.471,-0.035,-0.0626666666666666,-0.65704555,0.3497705166666666,10.20872265,116000.0,-50333.333333333336,-511333.3333333333,97359.41365333334,39.48,0.0,-1.657147646,17.33893204,-6.178474903,2.914999962,-434.9116211,225.83351135,137.0
2018-10-05 19:57:02.040,-0.47,-0.032,-0.044,-0.65704555,0.392266,10.1008495,116000.0,-43000.0,-513000.0,97360.05859,39.48,0.0,-1.6129328015,12.5667703165,-4.8334316015,2.892499924,-431.42541505,225.409187325,137.0
2018-10-05 19:57:02.080,-0.48675,-0.029,-0.04975,-0.6791105125,0.36284605,10.135172775,119750.0,-30500.0,-513500.0,97360.23254,39.4775,0.0,-1.568717957,7.794608593,-3.4883883,2.869999886,-427.939209,224.9848633,137.0
2018-10-05 19:57:02.120,-0.5035000000000001,-0.026,-0.0555,-0.701175475,0.3334261,10.16949605,123500.0,-18000.0,-514000.0,97360.40649,39.475,0.0,-1.568717957,7.794608593,-3.4883883,2.829999924,-427.939209,224.13811495,137.0
2018-10-05 19:57:02.160,-0.52025,-0.023,-0.06125,-0.7232404375,0.30400615,10.203819325,127250.0,-5500.0,-514500.0,97360.58044,39.4725,0.0,-1.568717957,7.794608593,-3.4883883,2.789999962,-427.939209,223.2913666,137.0
2018-10-05 19:57:02.200,-0.537,-0.02,-0.067,-0.7453054,0.2745862,10.2381426,131000.0,7000.0,-515000.0,97360.75439,39.47,0.0,-1.568717957,7.794608593,-3.4883883,2.700000048,-419.1999512,221.6027069,137.0
2018-10-05 19:57:02.240,-0.464,-0.017,-0.068,-0.6864655,0.2353596,10.5519554,131000.0,7000.0,-515000.0,97360.75439,39.47,0.0,-1.568717957,7.794608593,-3.4883883,2.700000048,-419.1999512,221.6027069,137.0
2018-10-05 19:57:02.280,-0.4235,-0.0155,-0.054,-0.6472389,0.201036325,10.586278675,127500.0,17000.0,-518000.0,97358.14514,39.47,0.0,-1.568717957,7.794608593,-3.4883883,2.609999895,-419.1999512,219.9226685,137.0
2018-10-05 19:57:02.320,-0.383,-0.014,-0.04,-0.6080123,0.16671305,10.62060195,124000.0,27000.0,-521000.0,97355.53589,39.47,0.0,-1.568717957,7.794608593,-3.4883883,2.609999895,-419.1999512,219.9226685,137.0
2018-10-05 19:57:02.360,-0.344,-0.006,-0.0266666666666666,-0.5916678833333333,0.1797885833333333,10.329671333333334,119666.66666666669,31000.0,-522000.0,97355.12695333334,39.46666666666667,0.0,-1.568717957,7.794608593,-3.4883883,2.5849999187500003,-413.421966575,219.4970093,137.0
2018-10-05 19:57:02.400,-0.305,0.002,-0.0133333333333333,-0.5753234666666667,0.1928641166666666,10.038740716666666,115333.33333333331,35000.0,-523000.0,97354.71801666668,39.46333333333333,0.0,-1.568717957,7.794608593,-3.4883883,2.5599999425,-407.64398195,219.0713501,137.0
2018-10-05 19:57:02.440,-0.266,0.01,-1.22e-18,-0.55897905,0.20593965,9.7478101,111000.0,39000.0,-524000.0,97354.30908,39.46,0.0,-1.5037302975,3.1684517265,-3.0299943685,2.53499996625,-401.865997325,218.6456909,137.0
2018-10-05 19:57:02.480,-0.2526666666666667,0.0106666666666666,0.0113333333333333,-0.57859235,0.2190151833333333,9.666088016666668,111000.0,44000.0,-523000.0,97353.62955666668,39.46,0.0,-1.438742638,-1.45770514,-2.571600437,2.50999999,-396.0880127,218.2200317,137.0
2018-10-05 19:57:02.520,-0.2393333333333333,0.0113333333333333,0.0226666666666666,-0.59820565,0.2320907166666666,9.584365933333334,111000.0,49000.0,-522000.0,97352.95003333334,39.46,0.0,-1.438742638,-1.45770514,-2.571600437,2.464999914,-396.0880127,217.3869934,137.0
2018-10-05 19:57:02.560,-0.226,0.012,0.034,-0.61781895,0.24516625,9.50264385,111000.0,54000.0,-521000.0,97352.27051,39.46,0.0,-1.438742638,-1.45770514,-2.571600437,2.419999838,-396.0880127,216.5539551,137.0
2018-10-05 19:57:02.600,-0.2304999999999999,0.023,0.0415,-0.63743225,0.338329425,9.389867375,111000.0,58500.0,-522000.0,97350.283815,39.455,0.0,-1.438742638,-1.45770514,-2.571600437,2.329999924,-382.4268188,214.8835602,137.0
2018-10-05 19:57:02.640,-0.235,0.034,0.049,-0.65704555,0.4314926,9.2770909,111000.0,63000.0,-523000.0,97348.29712,39.45,0.0,-1.438742638,-1.45770514,-2.571600437,2.329999924,-382.4268188,214.8835602,137.0
2018-10-05 19:57:02.680,-0.243,0.039,0.044,-0.6439700166666666,0.4674503166666666,9.211713233333333,111333.33333333331,67333.33333333333,-522000.0,97350.74666333334,39.45,0.0,-1.438742638,-1.45770514,-2.571600437,2.25,-382.4268188,213.2314606,138.0
2018-10-05 19:57:02.720,-0.251,0.044,0.039,-0.6308944833333333,0.5034080333333333,9.146335566666666,111666.66666666669,71666.66666666667,-521000.0,97353.19620666666,39.45,0.0,-1.438742638,-1.45770514,-2.571600437,2.25,-382.4268188,213.2314606,138.0
2018-10-05 19:57:02.760,-0.259,0.049,0.034,-0.61781895,0.53936575,9.0809579,112000.0,76000.0,-520000.0,97355.64575,39.45,0.0,-1.438742638,-1.45770514,-2.571600437,2.226666689,-376.4082438,97.15322876666666,138.0
2018-10-05 19:57:02.800,-0.2215,0.0495,0.0305,-0.652142225,0.4560092249999999,9.232960975,112500.0,80000.0,-521000.0,97351.794435,39.45,0.0,-1.438742638,-1.45770514,-2.571600437,2.203333378,-370.3896688,-18.92500306666668,138.0
2018-10-05 19:57:02.840,-0.184,0.05,0.027,-0.6864655,0.3726527,9.38496405,113000.0,84000.0,-522000.0,97347.94312,39.45,0.0,-1.438742638,-1.45770514,-2.571600437,2.180000067,-364.3710938,-135.0032349,138.0
2018-10-05 19:57:02.880,-0.4414999999999999,0.0445,0.04,-0.69627215,0.387362675,9.2770909,99000.0,86500.0,-524500.0,97348.74268,39.445,0.0,-2.249958515,-5.935226917,-3.397239208,2.119999886,-364.3710938,-136.3964081,138.0
2018-10-05 19:57:02.920,-0.699,0.039,0.053,-0.7060788,0.40207265,9.16921775,85000.0,89000.0,-527000.0,97349.54224,39.44,0.0,-2.249958515,-5.935226917,-3.397239208,2.119999886,-364.3710938,-136.3964081,138.0
