time,field.angular_velocity.x,field.angular_velocity.y,field.angular_velocity.z,field.linear_acceleration.x,field.linear_acceleration.y,field.linear_acceleration.z,field.magnetic_field.x,field.magnetic_field.y,field.magnetic_field.z,field.fluid_pressure,field.temperature,field.airspeed,field.measured.pitch,field.measured.roll,field.measured.yaw,field.alt_error,field.aspd_error,field.xtrack_error,field.wp_dist
2018-09-11 18:19:26.520,0.028,-0.003,-0.036,1.04931155,-0.00980665,9.40457735,-32000.0,-85000.0,-491000.0,97553.74756,48.5,0.0,-1.299247026,-0.907938302,-84.42404938,-0.029999999,-417.4713135,-43.13355255,1.0
2018-09-11 18:19:26.560,0.2925,-0.0045,-0.038,0.5736890250000001,0.063743225,8.845598299999999,-28000.0,-89500.0,-492500.0,97553.149415,48.5,0.0,-1.299247026,-0.907938302,-84.42404938,-0.089999996,-534.0879517,-41.09494019,3.0
2018-09-11 18:19:26.600,0.557,-0.006,-0.04,0.0980665,0.1372931,8.28661925,-24000.0,-94000.0,-494000.0,97552.55127,48.5,0.0,-1.299247026,-0.907938302,-84.42404938,-0.089999996,-534.0879517,-41.09494019,3.0
2018-09-11 18:19:26.640,0.6980000000000001,-0.023,-0.0423333333333333,-0.10787315,0.1569064,8.829253883333333,-24666.666666666668,-102666.66666666669,-495000.0,97551.9104,48.49666666666667,0.0,-1.299247026,-0.907938302,-84.42404938,-0.089999996,-534.0879517,-41.09494019,3.0
2018-09-11 18:19:26.680,0.839,-0.04,-0.0446666666666666,-0.3138128,0.1765197,9.371888516666669,-25333.33333333333,-111333.33333333331,-496000.0,97551.26953,48.49333333333333,0.0,-1.299247026,-0.907938302,-84.42404938,-0.1099999955,-534.0879517,-40.06665993,4.0
2018-09-11 18:19:26.720,0.98,-0.057,-0.047,-0.51975245,0.196133,9.91452315,-26000.0,-120000.0,-497000.0,97550.62866,48.49,0.0,-1.299247026,-0.907938302,-84.42404938,-0.129999995,-534.0879517,-39.03837967,5.0
2018-09-11 18:19:26.760,0.9745,-0.0365,-0.038,-0.554075725,0.24516625,9.997879675,-23000.0,-135000.0,-490000.0,97545.184325,48.49,0.0,-1.299247026,-0.907938302,-84.42404938,-0.149999991,-549.4180908,-36.99921799,7.0
2018-09-11 18:19:26.800,0.969,-0.016,-0.029,-0.588399,0.2941995,10.0812362,-20000.0,-150000.0,-483000.0,97539.73999,48.49,0.0,-1.299247026,-0.907938302,-84.42404938,-0.149999991,-549.4180908,-36.99921799,7.0
2018-09-11 18:19:26.840,0.8786666666666666,-0.0196666666666666,-0.0233333333333333,-0.6080123,0.3563082833333333,9.822994416666669,-19000.0,-164333.33333333334,-476000.0,97539.42464333332,48.49,0.0,-1.299247026,-0.907938302,-84.42404938,-0.149999991,-549.4180908,-36.99921799,7.0
2018-09-11 18:19:26.880,0.7883333333333333,-0.0233333333333333,-0.0176666666666666,-0.6276256,0.4184170666666666,9.564752633333333,-18000.0,-178666.66666666666,-469000.0,97539.10929666668,48.49,0.0,-0.965097606,13.7320919,-83.53307343,-0.179999992,-549.4180908,-34.95057678,9.0
2018-09-11 18:19:26.920,0.698,-0.027,-0.012,-0.6472389,0.48052585,9.30651085,-17000.0,-193000.0,-462000.0,97538.79395,48.49,0.0,-0.965097606,13.7320919,-83.53307343,-0.18999999,-550.3678589,-33.938360215,10.0
2018-09-11 18:19:26.960,0.696,-0.0185,-0.028,-0.63743225,0.34323275,9.6497436,-14500.0,-210000.0,-450500.0,97538.699345,48.485,0.0,-0.965097606,13.7320919,-83.53307343,-0.199999988,-551.317627,-32.92614365,11.0
2018-09-11 18:19:27.000,0.694,-0.01,-0.044,-0.6276256,0.20593965,9.99297635,-12000.0,-227000.0,-439000.0,97538.60474,48.48,0.0,-0.965097606,13.7320919,-83.53307343,-0.199999988,-551.317627,-32.92614365,11.0
2018-09-11 18:19:27.040,0.744,0.0063333333333333,-0.0486666666666666,-0.5916678833333333,0.3465016333333333,9.989707466666664,-12666.666666666666,-234666.66666666663,-432333.3333333333,97536.6862,48.47666666666667,0.0,-0.965097606,13.7320919,-83.53307343,-0.199999988,-551.317627,-32.92614365,11.0
2018-09-11 18:19:27.080,0.7939999999999999,0.0226666666666666,-0.0533333333333333,-0.5557101666666667,0.4870636166666666,9.986438583333332,-13333.333333333334,-242333.3333333333,-425666.6666666667,97534.76766,48.47333333333333,0.0,-0.965097606,13.7320919,-83.53307343,-0.229999989,-551.317627,-30.90886307,13.0
2018-09-11 18:19:27.120,0.844,0.039,-0.058,-0.51975245,0.6276256,9.9831697,-14000.0,-250000.0,-419000.0,97532.84912,48.47,0.0,-0.965097606,13.7320919,-83.53307343,-0.229999989,-551.317627,-30.90886307,13.0
2018-09-11 18:19:27.160,0.8059999999999999,0.0059999999999999,-0.075,-0.53936575,0.8172208333333334,10.663097433333332,-10333.333333333334,-259333.3333333333,-410333.3333333333,97532.15332,48.47,0.0,-0.965097606,13.7320919,-83.53307343,-0.229999989,-551.317627,-30.90886307,13.0
2018-09-11 18:19:27.200,0.768,-0.027,-0.092,-0.55897905,1.0068160666666668,11.343025166666669,-6666.666666666667,-268666.6666666667,-401666.6666666667,97531.45752,48.47,0.0,-1.113472134,20.916919705,-83.20980072500001,-0.2399999944999999,-547.1609192000001,-29.90726662,14.0
2018-09-11 18:19:27.240,0.73,-0.06,-0.109,-0.57859235,1.1964113,12.0229529,-3000.0,-278000.0,-393000.0,97530.76172,48.47,0.0,-1.261846662,28.10174751,-82.88652802,-0.25,-543.0042114,-28.90567017,15.0
2018-09-11 18:19:27.280,0.681,-0.106,-0.157,-0.32361945,1.0198916,12.5328987,-1000.0,-306000.0,-356000.0,97534.80835,48.46,0.0,-1.261846662,28.10174751,-82.88652802,-0.280000001,-543.0042114,-26.92516518,17.0
2018-09-11 18:19:27.320,0.54,-0.0895,-0.16475,-0.34323275,0.9218251,11.723850075,2500.0,-311500.0,-349750.0,97535.1257325,48.46,0.0,-1.261846662,28.10174751,-82.88652802,-0.280000001,-543.0042114,-26.92516518,17.0
2018-09-11 18:19:27.360,0.399,-0.073,-0.1725,-0.36284605,0.8237586,10.91480145,6000.0,-317000.0,-343500.0,97535.443115,48.46,0.0,-1.261846662,28.10174751,-82.88652802,-0.299999997,-534.9020996,-25.93214512,18.0
2018-09-11 18:19:27.400,0.258,-0.0564999999999999,-0.18025,-0.38245935,0.7256921000000001,10.105752825,9500.0,-322500.0,-337250.0,97535.7604975,48.46,0.0,-1.261846662,28.10174751,-82.88652802,-0.319999993,-526.7999878,-24.93912506,19.0
2018-09-11 18:19:27.440,0.117,-0.04,-0.188,-0.40207265,0.6276256,9.2967042,13000.0,-328000.0,-331000.0,97536.07788,48.46,0.0,-1.261846662,28.10174751,-82.88652802,-0.344999999,-526.7999878,-23.94691181,20.0
2018-09-11 18:19:27.480,0.115,-0.0325,-0.194,-0.348136075,0.6129156250000001,8.95347145,14500.0,-331500.0,-327500.0,97534.988405,48.455,0.0,-1.261846662,28.10174751,-82.88652802,-0.370000005,-526.7999878,-22.95469856,21.0
2018-09-11 18:19:27.520,0.113,-0.025,-0.2,-0.2941995,0.59820565,8.6102387,16000.0,-335000.0,-324000.0,97533.89893,48.45,0.0,-1.261846662,28.10174751,-82.88652802,-0.370000005,-526.7999878,-22.95469856,21.0
2018-09-11 18:19:27.560,0.133,-0.015,-0.2155,-0.26477955,0.7698220250000001,8.18855275,21500.0,-336000.0,-318500.0,97535.88562,48.45,0.0,-2.211117983,36.82854843,-79.4600296,-0.399999976,-513.414978,-20.9894371,23.0
2018-09-11 18:19:27.600,0.153,-0.005,-0.231,-0.2353596,0.9414384,7.7668668,27000.0,-337000.0,-313000.0,97537.87231,48.45,0.0,-2.211117983,36.82854843,-79.4600296,-0.399999976,-513.414978,-20.9894371,23.0
2018-09-11 18:19:27.640,0.1683333333333333,0.0016666666666666,-0.2426666666666666,-0.20593965,0.8401030166666666,7.750522383333333,29333.33333333333,-338000.0,-311666.6666666667,97537.49796333334,48.446666666666665,0.0,-2.211117983,36.82854843,-79.4600296,-0.399999976,-513.414978,-20.9894371,23.0
2018-09-11 18:19:27.680,0.1836666666666666,0.0083333333333333,-0.2543333333333333,-0.1765197,0.7387676333333334,7.734177966666667,31666.666666666668,-339000.0,-310333.3333333333,97537.12361666666,48.443333333333335,0.0,-2.211117983,36.82854843,-79.4600296,-0.389999986,-513.414978,-19.01730537,25.0
2018-09-11 18:19:27.720,0.199,0.015,-0.266,-0.14709975,0.63743225,7.71783355,34000.0,-340000.0,-309000.0,97536.74927,48.44,0.0,-2.211117983,36.82854843,-79.4600296,-0.379999988,-512.3252105500001,-18.5272169075,25.5
2018-09-11 18:19:27.760,0.2165,-0.039,-0.286,-0.181423025,0.701175475,8.046356325,41500.0,-342500.0,-302500.0,97535.46753,48.44,0.0,-2.211117983,36.82854843,-79.4600296,-0.36999999,-511.2354431,-18.037128445,26.0
2018-09-11 18:19:27.800,0.234,-0.093,-0.306,-0.2157463,0.7649187,8.3748791,49000.0,-345000.0,-296000.0,97534.18579,48.44,0.0,-4.522570133,39.70019913,-76.2350769,-0.349999994,-509.0559082,-17.05695152,27.0
2018-09-11 18:19:27.840,0.2035,-0.059,-0.3085,-0.18632635,0.730595425,8.713208524999999,53000.0,-347000.0,-293000.0,97537.182615,48.435,0.0,-4.522570133,39.70019913,-76.2350769,-0.3099999875,-509.0559082,-16.07139301,28.0
2018-09-11 18:19:27.880,0.173,-0.025,-0.311,-0.1569064,0.69627215,9.05153795,57000.0,-349000.0,-290000.0,97540.17944,48.43,0.0,-4.522570133,39.70019913,-76.2350769,-0.269999981,-509.0559082,-15.0858345,29.0
2018-09-11 18:19:27.920,0.1543333333333333,-0.0476666666666666,-0.3096666666666666,-0.1372931,0.6341633666666666,9.087495666666667,63333.333333333336,-349666.6666666667,-286000.0,97540.15706,48.43,0.0,-4.522570133,39.70019913,-76.2350769,-0.269999981,-509.0559082,-15.0858345,29.0
2018-09-11 18:19:27.960,0.1356666666666666,-0.0703333333333333,-0.3083333333333333,-0.1176798,0.5720545833333334,9.123453383333333,69666.66666666667,-350333.3333333333,-282000.0,97540.13468,48.43,0.0,-4.522570133,39.70019913,-76.2350769,-0.2149999885,-510.83898925,-14.109797475,30.0
2018-09-11 18:19:28.000,0.117,-0.093,-0.307,-0.0980665,0.5099458,9.1594111,76000.0,-351000.0,-278000.0,97540.1123,48.43,0.0,-4.522570133,39.70019913,-76.2350769,-0.159999996,-512.6220703,-13.13376045,31.0
2018-09-11 18:19:28.040,0.1455,-0.1045,-0.301,-0.0588399,0.48052585,8.97308475,79000.0,-349500.0,-277000.0,97541.122435,48.425,0.0,-4.522570133,39.70019913,-76.2350769,-0.159999996,-512.6220703,-13.13376045,31.0
2018-09-11 18:19:28.080,0.174,-0.116,-0.295,-0.0196133,0.4511059,8.7867584,82000.0,-348000.0,-276000.0,97542.13257,48.42,0.0,-4.522570133,39.70019913,-76.2350769,-0.02,-512.6220703,-11.16219711,33.0
2018-09-11 18:19:28.120,0.175,-0.14975,-0.29825,0.0,0.4633642125,9.11037785,85000.0,-348500.0,-274000.0,97542.8298975,48.42,0.0,-4.522570133,39.70019913,-76.2350769,-0.02,-512.6220703,-11.16219711,33.0
2018-09-11 18:19:28.160,0.176,-0.1835,-0.3015,0.0196133,0.475622525,9.4339973,88000.0,-349000.0,-272000.0,97543.527225,48.42,0.0,-4.522570133,39.70019913,-76.2350769,0.159999996,-507.1889954,-9.211818695,35.0
2018-09-11 18:19:28.200,0.177,-0.21725,-0.3047499999999999,0.0392266,0.4878808375,9.75761675,91000.0,-349500.0,-270000.0,97544.2245525,48.42,0.0,-6.1126565930000005,41.504890445,-72.80339813,0.159999996,-507.1889954,-9.211818695,35.0
2018-09-11 18:19:28.240,0.178,-0.251,-0.308,0.0588399,0.50013915,10.0812362,94000.0,-350000.0,-268000.0,97544.92188,48.42,0.0,-7.702743053,43.30958176,-69.37171936,0.159999996,-507.1889954,-9.211818695,35.0
2018-09-11 18:19:28.280,0.1164999999999999,-0.2794999999999999,-0.3135,0.053936575,0.61781895,10.69905515,100500.0,-351500.0,-263500.0,97546.63086,48.415,0.0,-7.702743053,43.30958176,-69.37171936,0.359999985,-507.1889954,-7.248012543,37.0
2018-09-11 18:19:28.320,0.055,-0.308,-0.319,0.04903325,0.73549875,11.3168741,107000.0,-353000.0,-259000.0,97548.33984,48.41,0.0,-7.702743053,43.30958176,-69.37171936,0.359999985,-507.1889954,-7.248012543,37.0
2018-09-11 18:19:28.360,0.1095,-0.325,-0.302,0.122583125,0.573689025,11.5914603,112000.0,-353500.0,-256500.0,97548.028565,48.41,0.0,-7.702743053,43.30958176,-69.37171936,0.4749999795,-509.25579835,-6.278600693,38.0
2018-09-11 18:19:28.400,0.164,-0.342,-0.285,0.196133,0.4118793,11.8660465,117000.0,-354000.0,-254000.0,97547.71729,48.41,0.0,-7.702743053,43.30958176,-69.37171936,0.589999974,-511.3226013,-5.309188843,39.0
2018-09-11 18:19:28.440,0.1176666666666666,-0.3396666666666667,-0.2753333333333333,0.2418973666666666,0.4282237166666666,12.28773245,115000.0,-350666.6666666667,-255333.3333333333,97551.34888,48.406666666666666,0.0,-7.702743053,43.30958176,-69.37171936,0.64999997625,-514.754966725,-4.8214426042500005,39.5
2018-09-11 18:19:28.480,0.0713333333333333,-0.3373333333333334,-0.2656666666666666,0.2876617333333333,0.4445681333333333,12.7094184,113000.0,-347333.3333333333,-256666.66666666663,97554.98047,48.40333333333333,0.0,-7.702743053,43.30958176,-69.37171936,0.7099999785,-518.18733215,-4.3336963655,40.0
2018-09-11 18:19:28.520,0.025,-0.335,-0.256,0.3334261,0.46091255,13.13110435,111000.0,-344000.0,-258000.0,97558.61206,48.4,0.0,-7.702743053,43.30958176,-69.37171936,0.829999983,-525.052063,-3.358203888,41.0
2018-09-11 18:19:28.560,0.0245,-0.364,-0.2485,0.4167826249999999,0.544269075,13.665566775,114000.0,-342500.0,-258000.0,97555.74951,48.4,0.0,-7.4888727665,44.065813065,-64.76870346,0.9549999535,-525.052063,-2.3868350985,41.5
2018-09-11 18:19:28.600,0.024,-0.393,-0.241,0.50013915,0.6276256,14.2000292,117000.0,-341000.0,-258000.0,97552.88696,48.4,0.0,-7.27500248,44.82204437,-60.16568756,1.079999924,-525.052063,-1.415466309,42.0
2018-09-11 18:19:28.640,-0.0095,-0.374,-0.25,0.505042475,0.701175475,14.1608026,117500.0,-340500.0,-255500.0,97553.149415,48.395,0.0,-7.27500248,44.82204437,-60.16568756,1.079999924,-525.052063,-1.415466309,42.0
2018-09-11 18:19:28.680,-0.043,-0.355,-0.259,0.5099458,0.77472535,14.121576,118000.0,-340000.0,-253000.0,97553.41187,48.39,0.0,-7.27500248,44.82204437,-60.16568756,1.329999924,-525.052063,0.530063629,44.0
2018-09-11 18:19:28.720,-0.0025,-0.3582499999999999,-0.2545,0.514849125,0.8335652499999999,14.499132025,118250.0,-337250.0,-256500.0,97558.4701575,48.39,0.0,-7.27500248,44.82204437,-60.16568756,1.329999924,-525.052063,0.530063629,44.0
2018-09-11 18:19:28.760,0.0379999999999999,-0.3615,-0.25,0.5197524499999999,0.89240515,14.876688049999998,118500.0,-334500.0,-260000.0,97563.528445,48.39,0.0,-7.27500248,44.82204437,-60.16568756,1.559999943,-549.2443237,2.421092987,46.0
2018-09-11 18:19:28.800,0.0784999999999999,-0.36475,-0.2455,0.5246557749999999,0.95124505,15.254244075,118750.0,-331750.0,-263500.0,97568.5867325,48.39,0.0,-7.27500248,44.82204437,-60.16568756,1.669999957,-549.2443237,3.3805255890000003,47.0
2018-09-11 18:19:28.840,0.119,-0.368,-0.241,0.5295591,1.01008495,15.6318001,119000.0,-329000.0,-267000.0,97573.64502,48.39,0.0,-7.27500248,44.82204437,-60.16568756,1.779999971,-549.2443237,4.339958191,48.0
2018-09-11 18:19:28.880,0.094,-0.307,-0.237,0.612915625,0.9610517,14.695265025,119000.0,-330500.0,-267000.0,97571.847535,48.39,0.0,-5.787516594,45.03551102,-51.96077728,1.779999971,-549.2443237,4.339958191,48.0
2018-09-11 18:19:28.920,0.069,-0.246,-0.233,0.69627215,0.91201845,13.75872995,119000.0,-332000.0,-267000.0,97570.05005,48.39,0.0,-5.787516594,45.03551102,-51.96077728,1.779999971,-549.2443237,4.339958191,48.0
2018-09-11 18:19:28.960,0.0285,-0.298,-0.256,0.71588545,1.01008495,14.116672675,118500.0,-332000.0,-265000.0,97573.532105,48.385000000000005,0.0,-5.787516594,45.03551102,-51.96077728,1.779999971,-549.2443237,4.339958191,48.0
2018-09-11 18:19:29.000,-0.012,-0.35,-0.279,0.73549875,1.10815145,14.4746154,118000.0,-332000.0,-263000.0,97577.01416,48.38,0.0,-5.787516594,45.03551102,-51.96077728,1.99000001,-542.9227905,6.221881866,50.0
2018-09-11 18:19:29.040,-0.0106666666666666,-0.3453333333333333,-0.292,0.7485742833333333,1.1343025166666667,14.363473366666666,118000.0,-330000.0,-265000.0,97576.76188,48.376666666666665,0.0,-5.787516594,45.03551102,-51.96077728,1.99000001,-542.9227905,6.221881866,50.0
2018-09-11 18:19:29.080,-0.0093333333333333,-0.3406666666666667,-0.305,0.7616498166666666,1.1604535833333334,14.252331333333334,118000.0,-328000.0,-267000.0,97576.5096,48.373333333333335,0.0,-5.787516594,45.03551102,-51.96077728,2.095000029,-542.9227905,7.1649036405,51.0
2018-09-11 18:19:29.120,-0.008,-0.336,-0.318,0.77472535,1.18660465,14.1411893,118000.0,-326000.0,-269000.0,97576.25732,48.37,0.0,-5.787516594,45.03551102,-51.96077728,2.200000048,-542.9227905,8.107925415,52.0
2018-09-11 18:19:29.160,0.029,-0.3555,-0.3315,0.7649187,1.1375714,14.709975,121500.0,-322000.0,-273000.0,97580.70068,48.37,0.0,-5.787516594,45.03551102,-51.96077728,2.294999957,-556.56472775,9.043987274,53.0
2018-09-11 18:19:29.200,0.066,-0.375,-0.345,0.75511205,1.08853815,15.2787607,125000.0,-318000.0,-277000.0,97585.14404,48.37,0.0,-5.666732549500001,44.969942095,-48.115505215,2.3424999115,-563.385696375,9.512018203499998,53.5
2018-09-11 18:19:29.240,0.0805,-0.383,-0.3245,0.77472535,1.014988275,15.823029775,129000.0,-314000.0,-279500.0,97585.29663,48.37,0.0,-5.545948505,44.90437317,-44.27023315,2.389999866,-570.206665,9.980049133,54.0
2018-09-11 18:19:29.280,0.095,-0.391,-0.304,0.79433865,0.9414384,16.36729885,133000.0,-310000.0,-282000.0,97585.44922,48.37,0.0,-5.545948505,44.90437317,-44.27023315,2.579999924,-570.206665,11.81159973,56.0
2018-09-11 18:19:29.320,0.09125,-0.38275,-0.3045,0.8605335375000001,0.956148375,16.0314210875,135250.0,-311000.0,-278500.0,97586.00464,48.3675,0.0,-5.545948505,44.90437317,-44.27023315,2.622499943,-577.7601470750001,12.264538765,56.25
2018-09-11 18:19:29.360,0.0875,-0.3745,-0.305,0.926728425,0.97085835,15.695543325,137500.0,-312000.0,-275000.0,97586.56006,48.365,0.0,-5.545948505,44.90437317,-44.27023315,2.664999962,-585.31362915,12.7174778,56.5
2018-09-11 18:19:29.400,0.08375,-0.3662499999999999,-0.3055,0.9929233125,0.985568325,15.3596655625,139750.0,-313000.0,-271500.0,97587.11548,48.3625,0.0,-5.545948505,44.90437317,-44.27023315,2.707499981,-592.8671112249999,13.170416835,56.75
2018-09-11 18:19:29.440,0.08,-0.358,-0.306,1.0591182,1.0002783,15.0237878,142000.0,-314000.0,-268000.0,97587.6709,48.36,0.0,-5.545948505,44.90437317,-44.27023315,2.75,-600.4205933,13.62335587,57.0
2018-09-11 18:19:29.480,-0.013,-0.347,-0.32,1.18660465,1.0787315,14.9257213,136000.0,-309000.0,-282000.0,97588.50708,48.36,0.0,-5.545948505,44.90437317,-44.27023315,2.919999838,-600.4205933,15.43185425,59.0
2018-09-11 18:19:29.520,-0.0226666666666666,-0.368,-0.3246666666666666,1.1146892166666666,1.0591182,14.791697083333332,139666.66666666666,-307333.3333333333,-279333.3333333333,97588.49690666668,48.35666666666667,0.0,-5.545948505,44.90437317,-44.27023315,2.919999838,-600.4205933,15.43185425,59.0
2018-09-11 18:19:29.560,-0.0323333333333333,-0.3889999999999999,-0.3293333333333333,1.0427737833333333,1.0395049,14.657672866666667,143333.33333333334,-305666.6666666667,-276666.6666666667,97588.48673333332,48.35333333333333,0.0,-5.545948505,44.90437317,-44.27023315,3.069999933,-603.9291382,17.18915558,61.0
2018-09-11 18:19:29.600,-0.042,-0.41,-0.334,0.97085835,1.0198916,14.52364865,147000.0,-304000.0,-274000.0,97588.47656,48.35,0.0,-5.146848439999999,45.34451866,-38.06827831,3.069999933,-603.9291382,17.18915558,61.0
2018-09-11 18:19:29.640,-0.01,-0.395,-0.3445,1.0395049,0.789435325,14.7295883,144500.0,-299000.0,-282000.0,97591.189575,48.35,0.0,-4.747748375,45.78466415,-31.86632347,3.069999933,-603.9291382,17.18915558,61.0
2018-09-11 18:19:29.680,0.022,-0.38,-0.355,1.10815145,0.55897905,14.93552795,142000.0,-294000.0,-290000.0,97593.90259,48.35,0.0,-4.747748375,45.78466415,-31.86632347,3.210000038,-603.9291382,18.94540405,63.0
2018-09-11 18:19:29.720,0.0343333333333333,-0.4113333333333333,-0.3336666666666666,1.0721937333333331,0.5328279833333334,15.429129333333334,142666.66666666666,-292666.6666666667,-291666.6666666667,97593.87207333332,48.34666666666667,0.0,-4.747748375,45.78466415,-31.86632347,3.210000038,-603.9291382,18.94540405,63.0
2018-09-11 18:19:29.760,0.0466666666666666,-0.4426666666666666,-0.3123333333333333,1.0362360166666666,0.5066769166666667,15.922730716666669,143333.33333333334,-291333.3333333333,-293333.3333333333,97593.84155666668,48.34333333333333,0.0,-4.747748375,45.78466415,-31.86632347,3.339999914,-643.729187,20.65660095,65.0
2018-09-11 18:19:29.800,0.059,-0.474,-0.291,1.0002783,0.48052585,16.4163321,144000.0,-290000.0,-295000.0,97593.81104,48.34,0.0,-4.747748375,45.78466415,-31.86632347,3.339999914,-643.729187,20.65660095,65.0
2018-09-11 18:19:29.840,0.0676666666666666,-0.475,-0.2806666666666667,1.10815145,0.5164835666666666,16.8085981,143333.33333333334,-288666.6666666667,-296000.0,97594.80794666668,48.34,0.0,-4.747748375,45.78466415,-31.86632347,3.339999914,-643.729187,20.65660095,65.0
2018-09-11 18:19:29.880,0.0763333333333333,-0.476,-0.2703333333333333,1.2160246,0.5524412833333333,17.2008641,142666.66666666666,-287333.3333333333,-297000.0,97595.80485333332,48.34,0.0,-4.747748375,45.78466415,-31.86632347,3.460000038,-643.729187,22.36155701,66.0
2018-09-11 18:19:29.920,0.085,-0.477,-0.26,1.32389775,0.588399,17.5931301,142000.0,-286000.0,-298000.0,97596.80176,48.34,0.0,-4.747748375,45.78466415,-31.86632347,3.460000038,-643.729187,22.36155701,66.0
2018-09-11 18:19:29.960,0.072,-0.4285,-0.2515,1.269961175,0.681562175,17.62255005,141000.0,-285000.0,-298500.0,97596.725465,48.335,0.0,-4.747748375,45.78466415,-31.86632347,3.559999943,-637.0723877,24.0007782,68.0
2018-09-11 18:19:30.000,0.059,-0.38,-0.243,1.2160246,0.77472535,17.65197,140000.0,-284000.0,-299000.0,97596.64917,48.33,0.0,-3.02445817,46.58654404,-19.64831162,3.559999943,-637.0723877,24.0007782,68.0
2018-09-11 18:19:30.040,0.0046666666666666,-0.45,-0.235,1.3075533333333331,0.8629852,18.21094905,137333.33333333334,-282000.0,-301666.6666666667,97598.19743,48.33,0.0,-3.02445817,46.58654404,-19.64831162,3.5949999095,-637.0723877,24.810718535,68.5
2018-09-11 18:19:30.080,-0.0496666666666666,-0.52,-0.227,1.3990820666666666,0.95124505,18.7699281,134666.66666666666,-280000.0,-304333.3333333333,97599.74569,48.33,0.0,-3.02445817,46.58654404,-19.64831162,3.629999876,-637.0723877,25.62065887,69.0
2018-09-11 18:19:30.120,-0.104,-0.59,-0.219,1.4906108,1.0395049,19.32890715,132000.0,-278000.0,-307000.0,97601.29395,48.33,0.0,-3.02445817,46.58654404,-19.64831162,3.629999876,-637.0723877,25.62065887,69.0
2018-09-11 18:19:30.160,-0.076,-0.588,-0.236,1.42196425,1.191507975,19.417167,129000.0,-276500.0,-307500.0,97599.94812,48.325,0.0,-3.02445817,46.58654404,-19.64831162,3.629999876,-637.0723877,25.62065887,69.0
2018-09-11 18:19:30.200,-0.048,-0.586,-0.253,1.3533177,1.34351105,19.50542685,126000.0,-275000.0,-308000.0,97598.60229,48.32,0.0,-3.02445817,46.58654404,-19.64831162,3.659999847,-660.0811157,27.15483093,71.0
2018-09-11 18:19:30.240,0.0116666666666666,-0.5806666666666667,-0.2666666666666666,1.4317709,1.2094868333333333,19.914037266666668,122333.33333333331,-273000.0,-314000.0,97597.85562666666,48.32,0.0,-3.02445817,46.58654404,-19.64831162,3.656666517,-668.2366129333334,27.65505727,71.66666666666667
2018-09-11 18:19:30.280,0.0713333333333333,-0.5753333333333333,-0.2803333333333333,1.5102241,1.0754626166666668,20.322647683333333,118666.66666666669,-271000.0,-320000.0,97597.10896333332,48.32,0.0,-3.02445817,46.58654404,-19.64831162,3.653333187,-676.3921101666666,28.15528361,72.33333333333333
2018-09-11 18:19:30.320,0.131,-0.57,-0.294,1.5886773,0.9414384,20.7312581,115000.0,-269000.0,-326000.0,97596.3623,48.32,0.0,-3.02445817,46.58654404,-19.64831162,3.649999857,-684.5476074,28.65550995,73.0
2018-09-11 18:19:30.360,0.1065,-0.475,-0.2714999999999999,1.5298374,0.9414384,20.0644059,111000.0,-267000.0,-327500.0,97598.464965,48.315,0.0,-3.02445817,46.58654404,-19.64831162,3.6149998905,-684.5476074,29.367622375,73.5
2018-09-11 18:19:30.400,0.082,-0.38,-0.249,1.4709975,0.9414384,19.3975537,107000.0,-265000.0,-329000.0,97600.56763,48.31,0.0,1.113369823,47.34298325,-6.353206635,3.579999924,-684.5476074,30.0797348,74.0
2018-09-11 18:19:30.440,0.042,-0.401,-0.242,1.4154264833333332,1.0002783,18.943178916666668,104333.33333333331,-264666.6666666667,-330333.3333333333,97597.83529,48.306666666666665,0.0,1.113369823,47.34298325,-6.353206635,3.5249999765,-695.2316284,30.763736725,74.5
2018-09-11 18:19:30.480,0.002,-0.422,-0.235,1.359855466666667,1.0591182,18.48880413333333,101666.66666666669,-264333.3333333333,-331666.6666666667,97595.10295,48.303333333333335,0.0,1.113369823,47.34298325,-6.353206635,3.470000029,-705.9156494,31.44773865,75.0
2018-09-11 18:19:30.520,-0.038,-0.443,-0.228,1.30428445,1.1179581,18.03442935,99000.0,-264000.0,-333000.0,97592.37061,48.3,0.0,1.113369823,47.34298325,-6.353206635,3.470000029,-705.9156494,31.44773865,75.0
2018-09-11 18:19:30.560,-0.1425,-0.452,-0.227,1.28467115,1.24544455,18.264885625,97000.0,-263000.0,-335500.0,97595.41016,48.305,0.0,1.113369823,47.34298325,-6.353206635,3.389999986,-705.9156494,32.078670505,76.0
2018-09-11 18:19:30.600,-0.247,-0.461,-0.226,1.26505785,1.372931,18.4953419,95000.0,-262000.0,-338000.0,97598.44971,48.31,0.0,1.113369823,47.34298325,-6.353206635,3.309999943,-705.9156494,32.70960236,77.0
2018-09-11 18:19:30.640,-0.2045,-0.4355,-0.226,1.220927925,1.38273765,17.91674955,94500.0,-260000.0,-343000.0,97595.339965,48.305,0.0,1.113369823,47.34298325,-6.353206635,3.2199999095,-705.9156494,33.33000946,77.5
2018-09-11 18:19:30.680,-0.162,-0.41,-0.226,1.176798,1.3925443,17.3381572,94000.0,-258000.0,-348000.0,97592.23022,48.3,0.0,1.113369823,47.34298325,-6.353206635,3.129999876,-705.9156494,33.95041656,78.0
2018-09-11 18:19:30.720,-0.16875,-0.40275,-0.2335,1.0811831625,1.36312435,17.146927525000002,91750.0,-255750.0,-352000.0,97592.047115,48.2975,0.0,1.113369823,47.34298325,-6.353206635,3.129999876,-705.9156494,33.95041656,78.0
2018-09-11 18:19:30.760,-0.1755,-0.3954999999999999,-0.241,0.985568325,1.3337044,16.95569785,89500.0,-253500.0,-356000.0,97591.86401,48.295,0.0,1.113369823,47.34298325,-6.353206635,3.129999876,-705.9156494,33.95041656,78.0
2018-09-11 18:19:30.800,-0.18225,-0.38825,-0.2485,0.8899534875,1.30428445,16.764468174999998,87250.0,-251250.0,-360000.0,97591.680905,48.2925,0.0,1.113369823,47.34298325,-6.353206635,2.889999866,-669.1759033,35.09911346,79.0
2018-09-11 18:19:30.840,-0.189,-0.381,-0.256,0.79433865,1.2748645,16.5732385,85000.0,-249000.0,-364000.0,97591.4978,48.29,0.0,2.5548501615,46.238328935,-0.1344058514999995,2.7699998615,-669.1759033,35.6587677,79.5
2018-09-11 18:19:30.880,-0.123,-0.389,-0.262,0.99047165,1.2748645,15.75928655,78000.0,-244000.0,-375000.0,97591.47949,48.29,0.0,3.9963305,45.13367462,6.084394932,2.649999857,-669.1759033,36.21842194,80.0
2018-09-11 18:19:30.920,-0.1306666666666666,-0.3563333333333333,-0.2676666666666666,0.8629852,1.42196425,15.608917916666668,74000.0,-241000.0,-379333.3333333333,97589.68098666666,48.28666666666667,0.0,3.9963305,45.13367462,6.084394932,2.57999986425,-674.8954162499999,36.4812202475,80.25
2018-09-11 18:19:30.960,-0.1383333333333333,-0.3236666666666666,-0.2733333333333334,0.73549875,1.569064,15.458549283333332,70000.0,-238000.0,-383666.6666666667,97587.88248333332,48.28333333333333,0.0,3.9963305,45.13367462,6.084394932,2.5099998715,-680.6149292,36.744018555,80.5
2018-09-11 18:19:31.000,-0.146,-0.291,-0.279,0.6080123,1.71616375,15.30818065,66000.0,-235000.0,-388000.0,97586.08398,48.28,0.0,3.9963305,45.13367462,6.084394932,2.29499989775,-686.3344421500001,37.5187492375,81.25
2018-09-11 18:19:31.040,-0.1426666666666666,-0.2816666666666667,-0.3053333333333333,0.5459035166666666,1.6442483166666666,14.657672866666667,63666.66666666666,-234666.66666666663,-390333.3333333333,97583.71378333333,48.28,0.0,3.9963305,45.13367462,6.084394932,2.079999924,-692.0539551,38.29347992,82.0
2018-09-11 18:19:31.080,-0.1393333333333333,-0.2723333333333333,-0.3316666666666666,0.4837947333333333,1.5723328833333334,14.007165083333334,61333.333333333336,-234333.3333333333,-392666.6666666667,97581.34358666668,48.28,0.0,3.9963305,45.13367462,6.084394932,2.079999924,-692.0539551,38.29347992,82.0
2018-09-11 18:19:31.120,-0.136,-0.263,-0.358,0.42168595,1.50041745,13.3566573,59000.0,-234000.0,-395000.0,97578.97339,48.28,0.0,3.9963305,45.13367462,6.084394932,1.9299999475,-684.3407593,38.778293610000006,82.5
2018-09-11 18:19:31.160,-0.1386666666666666,-0.2553333333333333,-0.3653333333333333,0.3595771666666666,1.3010155666666667,14.039853916666669,58666.66666666666,-229666.66666666663,-399666.6666666667,97578.007,48.27666666666667,0.0,3.9963305,45.13367462,6.084394932,1.779999971,-676.6275635,39.2631073,83.0
2018-09-11 18:19:31.200,-0.1413333333333333,-0.2476666666666666,-0.3726666666666666,0.2974683833333333,1.1016136833333334,14.723050533333334,58333.333333333336,-225333.3333333333,-404333.3333333333,97577.04061,48.27333333333333,0.0,3.94732111725,44.561995505,8.770563959,1.7024999555,-676.6275635,39.5024375925,83.25
2018-09-11 18:19:31.240,-0.144,-0.24,-0.38,0.2353596,0.9022118,15.40624715,58000.0,-221000.0,-409000.0,97576.07422,48.27,0.0,3.8983117345,43.99031639,11.456732986,1.62499994,-676.6275635,39.741767885,83.5
2018-09-11 18:19:31.280,-0.088,-0.2045,-0.376,0.1765197,0.701175475,14.42558215,60500.0,-220500.0,-407500.0,97572.88513,48.27,0.0,3.84930235175,43.418637275,14.142902013,1.5474999244999998,-676.6275635,39.9810981775,83.75
2018-09-11 18:19:31.320,-0.032,-0.169,-0.372,0.1176798,0.50013915,13.44491715,63000.0,-220000.0,-406000.0,97569.69604,48.27,0.0,3.800292969,42.84695816,16.82907104,1.469999909,-676.6275635,40.22042847,84.0
2018-09-11 18:19:31.360,0.0425,-0.214,-0.36,0.0,0.65704555,12.714321725,63500.0,-217500.0,-408500.0,97566.522215,48.27,0.0,3.800292969,42.84695816,16.82907104,1.149999976,-693.4476929,41.11704254,85.0
2018-09-11 18:19:31.400,0.117,-0.259,-0.348,-0.1176798,0.81395195,11.9837263,64000.0,-215000.0,-411000.0,97563.34839,48.27,0.0,3.800292969,42.84695816,16.82907104,1.0433333116666663,-690.2766520333333,41.40893554666667,85.33333333333333
2018-09-11 18:19:31.440,0.124,-0.2826666666666667,-0.3446666666666667,-0.1111420333333333,0.7289609833333334,12.304076866666668,65000.0,-214000.0,-414333.3333333333,97558.84603,48.266666666666666,0.0,3.800292969,42.84695816,16.82907104,0.9366666473333332,-687.1056111666667,41.70082855333333,85.66666666666667
2018-09-11 18:19:31.480,0.131,-0.3063333333333333,-0.3413333333333333,-0.1046042666666666,0.6439700166666666,12.624427433333333,66000.0,-213000.0,-417666.6666666667,97554.34367,48.263333333333335,0.0,3.800292969,42.84695816,16.82907104,0.829999983,-683.9345703,41.99272156,86.0
2018-09-11 18:19:31.520,0.138,-0.33,-0.338,-0.0980665,0.55897905,12.944778,67000.0,-212000.0,-421000.0,97549.84131,48.26,0.0,3.800292969,42.84695816,16.82907104,0.75499998,-683.9345703,42.204227450000005,86.25
2018-09-11 18:19:31.560,0.1255,-0.3335,-0.326,-0.102969825,0.544269075,12.861421475,65000.0,-214000.0,-420000.0,97548.724365,48.26,0.0,3.800292969,42.84695816,16.82907104,0.679999977,-683.9345703,42.41573334,86.5
2018-09-11 18:19:31.600,0.113,-0.337,-0.314,-0.10787315,0.5295591,12.77806495,63000.0,-216000.0,-419000.0,97547.60742,48.26,0.0,3.800292969,42.84695816,16.82907104,0.529999971,-683.9345703,42.83874512,87.0
2018-09-11 18:19:31.640,0.09725,-0.33625,-0.30175,-0.132389775,0.5369140875,12.8540664875,59250.0,-215000.0,-420000.0,97544.5190425,48.2575,0.0,3.800292969,42.84695816,16.82907104,0.219999999,-658.9731445,43.65665436,88.0
2018-09-11 18:19:31.680,0.0815,-0.3355,-0.2895,-0.1569064,0.544269075,12.930068025,55500.0,-214000.0,-421000.0,97541.430665,48.255,0.0,2.957447052,46.0028801,28.73607445,0.219999999,-658.9731445,43.65665436,88.0
2018-09-11 18:19:31.720,0.06575,-0.33475,-0.27725,-0.181423025,0.5516240625,13.0060695625,51750.0,-213000.0,-422000.0,97538.3422875,48.2525,0.0,2.957447052,46.0028801,28.73607445,0.12,-658.9731445,43.91447957333333,88.0
2018-09-11 18:19:31.760,0.05,-0.334,-0.265,-0.20593965,0.55897905,13.0820711,48000.0,-212000.0,-423000.0,97535.25391,48.25,0.0,2.957447052,46.0028801,28.73607445,0.0200000009999999,-658.9731445,44.172304786666665,88.0
2018-09-11 18:19:31.800,0.036,-0.252,-0.2455,-0.22555295,0.8237586,12.81729155,46500.0,-214000.0,-422500.0,97535.25391,48.25,0.0,2.957447052,46.0028801,28.73607445,-0.079999998,-658.9731445,44.43013,88.0
2018-09-11 18:19:31.840,0.022,-0.17,-0.226,-0.24516625,1.08853815,12.552512,45000.0,-216000.0,-422000.0,97535.25391,48.25,0.0,2.957447052,46.0028801,28.73607445,-0.2299999964999999,-658.9731445,44.805717465,88.5
2018-09-11 18:19:31.880,-0.013,-0.107,-0.2295,-0.318716125,1.211121275,11.30706745,42000.0,-217000.0,-422500.0,97536.654665,48.245000000000005,0.0,2.957447052,46.0028801,28.73607445,-0.379999995,-658.9731445,45.18130493,89.0
2018-09-11 18:19:31.920,-0.048,-0.044,-0.233,-0.392266,1.3337044,10.0616229,39000.0,-218000.0,-423000.0,97538.05542,48.24,0.0,2.957447052,46.0028801,28.73607445,-0.379999995,-658.9731445,45.18130493,89.0
2018-09-11 18:19:31.960,-0.0285,-0.099,-0.272,-0.3138128,1.171894675,9.497740525,40000.0,-215000.0,-426500.0,97537.57324,48.235,0.0,2.957447052,46.0028801,28.73607445,-0.669999957,-638.5585938,45.87680054,90.0
2018-09-11 18:19:32.000,-0.009,-0.154,-0.311,-0.2353596,1.01008495,8.93385815,41000.0,-212000.0,-430000.0,97537.09106,48.23,0.0,2.957447052,46.0028801,28.73607445,-0.7566666403333333,-638.5585938,46.11208598,90.0
2018-09-11 18:19:32.040,-0.006,-0.189,-0.3256666666666666,-0.2811239666666666,0.9610517,9.254208716666668,43000.0,-212666.66666666663,-428333.3333333333,97537.17447666668,48.23,0.0,2.957447052,46.0028801,28.73607445,-0.8433333236666667,-638.5585938,46.34737142,90.0
2018-09-11 18:19:32.080,-0.003,-0.224,-0.3403333333333333,-0.3268883333333333,0.91201845,9.574559283333333,45000.0,-213333.3333333333,-426666.6666666667,97537.25789333334,48.23,0.0,2.957447052,46.0028801,28.73607445,-0.930000007,-638.5585938,46.58265686,90.0
2018-09-11 18:19:32.120,0.0,-0.259,-0.355,-0.3726527,0.8629852,9.89490985,47000.0,-214000.0,-425000.0,97537.34131,48.23,0.0,1.202805996,46.97228241,35.46615982,-0.930000007,-638.5585938,46.58265686,90.0
2018-09-11 18:19:32.160,-0.036,-0.2935,-0.3495,-0.38245935,0.6913688250000001,11.1207411,46000.0,-213000.0,-428500.0,97531.414795,48.23,0.0,1.202805996,46.97228241,35.46615982,-0.930000007,-638.5585938,46.58265686,90.0
2018-09-11 18:19:32.200,-0.072,-0.328,-0.344,-0.392266,0.51975245,12.34657235,45000.0,-212000.0,-432000.0,97525.48828,48.23,0.0,1.202805996,46.97228241,35.46615982,-1.149999976,-620.246521,47.2564621,91.0
2018-09-11 18:19:32.240,-0.07475,-0.3165,-0.3379999999999999,-0.3947176625,0.5957539875,12.5917386,45500.0,-211500.0,-432250.0,97527.7816775,48.2275,0.0,1.202805996,46.97228241,35.46615982,-1.350000024,-620.246521,47.91653442,92.0
2018-09-11 18:19:32.280,-0.0775,-0.305,-0.3319999999999999,-0.397169325,0.671755525,12.83690485,46000.0,-211000.0,-432500.0,97530.075075,48.225,0.0,1.202805996,46.97228241,35.46615982,-1.350000024,-620.246521,47.91653442,92.0
2018-09-11 18:19:32.320,-0.08025,-0.2935,-0.326,-0.3996209874999999,0.7477570625000001,13.0820711,46500.0,-210500.0,-432750.0,97532.3684725,48.2225,0.0,1.202805996,46.97228241,35.46615982,-1.350000024,-620.246521,47.91653442,92.0
2018-09-11 18:19:32.360,-0.083,-0.282,-0.32,-0.40207265,0.8237586,13.32723735,47000.0,-210000.0,-433000.0,97534.66187,48.22,0.0,1.202805996,46.97228241,35.46615982,-1.519999981,-611.3170776,48.52070618,92.0
2018-09-11 18:19:32.400,-0.114,-0.28,-0.334,-0.48052585,0.3726527,12.5132854,39000.0,-204000.0,-437000.0,97517.11426,48.22,0.0,1.202805996,46.97228241,35.46615982,-1.519999981,-611.3170776,48.52070618,92.0
2018-09-11 18:19:32.440,-0.0463333333333333,-0.278,-0.3263333333333333,-0.4511059,0.4543747833333333,12.647309616666666,39666.66666666666,-202666.66666666663,-439000.0,97517.97892333331,48.21666666666667,0.0,0.195949271,46.54979706,44.71953201,-1.689999938,-611.3170776,49.09796143,93.0
2018-09-11 18:19:32.480,0.0213333333333333,-0.276,-0.3186666666666666,-0.42168595,0.5360968666666667,12.781333833333331,40333.333333333336,-201333.3333333333,-441000.0,97518.84358666668,48.21333333333333,0.0,0.195949271,46.54979706,44.71953201,-1.689999938,-611.3170776,49.09796143,93.0
2018-09-11 18:19:32.520,0.089,-0.274,-0.311,-0.392266,0.61781895,12.91535805,41000.0,-200000.0,-443000.0,97519.70825,48.21,0.0,0.195949271,46.54979706,44.71953201,-1.689999938,-611.3170776,49.09796143,93.0
2018-09-11 18:19:32.560,0.0094999999999999,-0.238,-0.293,-0.387362675,0.7453054,12.263215825,38500.0,-199000.0,-442500.0,97523.010255,48.21,0.0,0.195949271,46.54979706,44.71953201,-1.689999938,-611.3170776,49.09796143,93.0
2018-09-11 18:19:32.600,-0.07,-0.202,-0.275,-0.38245935,0.87279185,11.6110736,36000.0,-198000.0,-442000.0,97526.31226,48.21,0.0,0.195949271,46.54979706,44.71953201,-1.839999914,-590.5683594,49.6173172,93.0
2018-09-11 18:19:32.640,-0.076,-0.232,-0.267,-0.4118793,0.8695229666666667,12.019684016666666,35333.333333333336,-196666.66666666663,-443666.6666666667,97523.03060333332,48.20666666666667,0.0,0.195949271,46.54979706,44.71953201,-2.0,-590.5683594,50.09483337,94.0
2018-09-11 18:19:32.680,-0.082,-0.262,-0.259,-0.44129925,0.8662540833333333,12.428294433333331,34666.666666666664,-195333.3333333333,-445333.3333333333,97519.74894666667,48.20333333333333,0.0,0.195949271,46.54979706,44.71953201,-2.0,-590.5683594,50.09483337,94.0
2018-09-11 18:19:32.720,-0.088,-0.292,-0.251,-0.4707192,0.8629852,12.83690485,34000.0,-194000.0,-447000.0,97516.46729,48.2,0.0,0.195949271,46.54979706,44.71953201,-2.0,-590.5683594,50.09483337,94.0
2018-09-11 18:19:32.760,-0.0094999999999999,-0.2475,-0.2395,-0.554075725,0.887501825,13.126201025,33000.0,-193000.0,-448500.0,97516.12854,48.2,0.0,-0.473418117,46.50370026,50.78571701,-2.0,-590.5683594,50.09483337,94.0
2018-09-11 18:19:32.800,0.069,-0.203,-0.228,-0.63743225,0.91201845,13.4154972,32000.0,-192000.0,-450000.0,97515.78979,48.2,0.0,-0.473418117,46.50370026,50.78571701,-2.119999886,-582.3543701,50.50788879,94.0
2018-09-11 18:19:32.840,0.0545,-0.1785,-0.244,-0.7060788,0.897308475,12.743741675,28000.0,-190000.0,-452500.0,97514.263915,48.195,0.0,-0.473418117,46.50370026,50.78571701,-2.119999886,-582.3543701,50.50788879,94.0
2018-09-11 18:19:32.880,0.04,-0.154,-0.26,-0.77472535,0.8825985,12.07198615,24000.0,-188000.0,-455000.0,97512.73804,48.19,0.0,-0.473418117,46.50370026,50.78571701,-2.24000001,-582.3543701,50.90039063,95.0
2018-09-11 18:19:32.920,0.0289999999999999,-0.1566666666666666,-0.2796666666666667,-0.8106830666666667,0.9610517,11.441091666666669,23666.666666666668,-188666.66666666663,-455000.0,97513.49487333331,48.19,0.0,-0.473418117,46.50370026,50.78571701,-2.2649999860000003,-579.1070556499999,50.982654575,95.0
2018-09-11 18:19:32.960,0.018,-0.1593333333333333,-0.2993333333333333,-0.8466407833333333,1.0395049,10.810197183333331,23333.33333333333,-189333.3333333333,-455000.0,97514.25170666666,48.19,0.0,-0.473418117,46.50370026,50.78571701,-2.289999962,-575.8597411999999,51.06491852,95.0
2018-09-11 18:19:33.000,0.007,-0.162,-0.319,-0.8825985,1.1179581,10.1793027,23000.0,-190000.0,-455000.0,97515.00854,48.19,0.0,-0.473418117,46.50370026,50.78571701,-2.339999914,-569.3651123,51.22944641,95.0
2018-09-11 18:19:33.040,0.0033333333333333,-0.1996666666666667,-0.3286666666666666,-0.8858673833333333,1.10815145,10.205453766666666,23333.33333333333,-190000.0,-455000.0,97515.10619666666,48.18666666666667,0.0,-0.473418117,46.50370026,50.78571701,-2.3899999855000003,-569.3651123,51.377773285,95.0
2018-09-11 18:19:33.080,-0.0003333333333333,-0.2373333333333333,-0.3383333333333333,-0.8891362666666667,1.0983448,10.231604833333332,23666.666666666668,-190000.0,-455000.0,97515.20385333334,48.18333333333333,0.0,-0.473418117,46.50370026,50.78571701,-2.440000057,-569.3651123,51.52610016,95.0
2018-09-11 18:19:33.120,-0.004,-0.275,-0.348,-0.89240515,1.08853815,10.2577559,24000.0,-190000.0,-455000.0,97515.30151,48.18,0.0,-0.473418117,46.50370026,50.78571701,-2.440000057,-569.3651123,51.52610016,95.0
2018-09-11 18:19:33.160,-0.0493333333333333,-0.2846666666666667,-0.3526666666666666,-0.8793296166666666,0.980665,10.85596155,22666.666666666668,-188666.66666666663,-456333.3333333333,97515.2832,48.18,0.0,-0.473418117,46.50370026,50.78571701,-2.440000057,-569.3651123,51.52610016,95.0
2018-09-11 18:19:33.200,-0.0946666666666666,-0.2943333333333333,-0.3573333333333333,-0.8662540833333333,0.8727918499999999,11.4541672,21333.33333333333,-187333.3333333333,-457666.6666666667,97515.26489,48.18,0.0,-2.259917736,47.41616058,59.68316269,-2.49000001,-588.1528931,51.78699493,96.0
2018-09-11 18:19:33.240,-0.14,-0.304,-0.362,-0.85317855,0.7649187,12.05237285,20000.0,-186000.0,-459000.0,97515.24658,48.18,0.0,-2.259917736,47.41616058,59.68316269,-2.49000001,-588.1528931,51.78699493,96.0
2018-09-11 18:19:33.280,-0.1,-0.2545,-0.3685,-0.818855275,0.828661925,11.547330375,18000.0,-183000.0,-461000.0,97512.496945,48.175,0.0,-2.259917736,47.41616058,59.68316269,-2.5149999860000003,-588.1528931,51.906517025,96.0
2018-09-11 18:19:33.320,-0.06,-0.205,-0.375,-0.784532,0.89240515,11.0422879,16000.0,-180000.0,-463000.0,97509.74731,48.17,0.0,-2.259917736,47.41616058,59.68316269,-2.539999962,-588.1528931,52.02603912,96.0
2018-09-11 18:19:33.360,-0.004,-0.1915,-0.402,-0.828661925,0.769822025,10.958931375,11500.0,-177500.0,-463500.0,97509.246825,48.17,0.0,-2.259917736,47.41616058,59.68316269,-2.539999962,-589.62069705,52.122909545,96.0
2018-09-11 18:19:33.400,0.052,-0.178,-0.429,-0.87279185,0.6472389,10.87557485,7000.0,-175000.0,-464000.0,97508.74634,48.17,0.0,-2.259917736,47.41616058,59.68316269,-2.539999962,-591.088501,52.21977997,96.0
2018-09-11 18:19:33.440,0.052,-0.1863333333333333,-0.4183333333333333,-0.8368341333333333,0.7191543333333333,10.535610983333331,7666.666666666667,-173666.66666666666,-465000.0,97510.02197333334,48.17,0.0,-2.259917736,47.41616058,59.68316269,-2.539999962,-591.088501,52.310211185,96.0
2018-09-11 18:19:33.480,0.052,-0.1946666666666666,-0.4076666666666667,-0.8008764166666666,0.7910697666666666,10.195647116666668,8333.333333333334,-172333.33333333334,-466000.0,97511.29760666666,48.17,0.0,-2.259917736,47.41616058,59.68316269,-2.539999962,-591.088501,52.4006424,96.0
2018-09-11 18:19:33.520,0.052,-0.203,-0.397,-0.7649187,0.8629852,9.85568325,9000.0,-171000.0,-467000.0,97512.57324,48.17,0.0,-3.5490152835,47.359930035000005,63.861764910000005,-2.519999981,-589.8044739,52.46723938,96.0
2018-09-11 18:19:33.560,0.0189999999999999,-0.1935,-0.4005,-0.730595425,0.897308475,10.44408225,9500.0,-173000.0,-466000.0,97512.423705,48.165,0.0,-4.838112831,47.30369949,68.04036713,-2.5,-588.5204468,52.53383636,96.0
2018-09-11 18:19:33.600,-0.014,-0.184,-0.404,-0.69627215,0.93163175,11.03248125,10000.0,-175000.0,-465000.0,97512.27417,48.16,0.0,-4.838112831,47.30369949,68.04036713,-2.5,-588.5204468,52.53383636,96.0
2018-09-11 18:19:33.640,-0.0085,-0.185,-0.4045,-0.6668522,0.7453054,10.97364135,9000.0,-173500.0,-464000.0,97512.039185,48.155,0.0,-4.838112831,47.30369949,68.04036713,-2.5,-588.5204468,52.53383636,96.0
2018-09-11 18:19:33.680,-0.003,-0.186,-0.405,-0.63743225,0.55897905,10.91480145,8000.0,-172000.0,-463000.0,97511.8042,48.15,0.0,-4.838112831,47.30369949,68.04036713,-2.440000057,-575.5849609,52.64916229,97.0
2018-09-11 18:19:33.720,0.022,-0.2027499999999999,-0.39425,-0.661948875,0.505042475,11.0030613,9000.0,-171000.0,-463750.0,97511.5417475,48.15,0.0,-4.838112831,47.30369949,68.04036713,-2.440000057,-575.5849609,52.64916229,97.0
2018-09-11 18:19:33.760,0.047,-0.2195,-0.3835,-0.6864655,0.4511059,11.09132115,10000.0,-170000.0,-464500.0,97511.279295,48.15,0.0,-4.838112831,47.30369949,68.04036713,-2.339999914,-575.5849609,52.72109222,97.0
2018-09-11 18:19:33.800,0.072,-0.23625,-0.37275,-0.710982125,0.397169325,11.179581,11000.0,-169000.0,-465250.0,97511.0168425,48.15,0.0,-4.838112831,47.30369949,68.04036713,-2.303333282333333,-575.5849609,52.73368326666667,97.0
2018-09-11 18:19:33.840,0.097,-0.253,-0.362,-0.73549875,0.34323275,11.26784085,12000.0,-168000.0,-466000.0,97510.75439,48.15,0.0,-4.838112831,47.30369949,68.04036713,-2.2666666506666666,-575.5849609,52.74627431333334,97.0
2018-09-11 18:19:33.880,0.1095,-0.2425,-0.349,-0.750208725,0.32361945,11.233517575,10500.0,-168500.0,-467000.0,97512.008665,48.15,0.0,-4.838112831,47.30369949,68.04036713,-2.230000019,-575.5849609,52.75886536,97.0
2018-09-11 18:19:33.920,0.122,-0.232,-0.336,-0.7649187,0.30400615,11.1991943,9000.0,-169000.0,-468000.0,97513.26294,48.15,0.0,-4.838112831,47.30369949,68.04036713,-2.230000019,-575.5849609,52.75886536,97.0
2018-09-11 18:19:33.960,0.0844999999999999,-0.269,-0.31,-0.73549875,0.46091255,10.772605025,13000.0,-170000.0,-465500.0,97515.60364,48.145,0.0,-6.680141449,47.590312955,73.45296097,-2.1599999665,-587.11593625,52.7593689,97.0
2018-09-11 18:19:34.000,0.047,-0.306,-0.284,-0.7060788,0.61781895,10.34601575,17000.0,-171000.0,-463000.0,97517.94434,48.14,0.0,-7.601155757999999,47.7336196875,76.15925789,-2.12499994025,-592.881423925,52.75962067,97.0
2018-09-11 18:19:34.040,0.057,-0.3365,-0.279,-0.7256921000000001,0.6276256,9.71839015,12500.0,-171000.0,-466000.0,97520.20264,48.14,0.0,-8.522170067,47.87692642,78.86555481,-2.089999914,-598.6469116,52.75987244,97.0
2018-09-11 18:19:34.080,0.067,-0.367,-0.274,-0.7453054,0.63743225,9.09076455,8000.0,-171000.0,-469000.0,97522.46094,48.14,0.0,-8.522170067,47.87692642,78.86555481,-1.929999948,-598.6469116,52.74082947,97.0
2018-09-11 18:19:34.120,0.0176666666666666,-0.361,-0.2716666666666666,-0.7191543333333333,0.7420365166666667,9.603979233333334,5666.666666666666,-171000.0,-467000.0,97523.25236333332,48.13666666666667,0.0,-8.522170067,47.87692642,78.86555481,-1.929999948,-598.6469116,52.74082947,97.0
2018-09-11 18:19:34.160,-0.0316666666666666,-0.355,-0.2693333333333333,-0.6930032666666667,0.8466407833333334,10.117193916666666,3333.333333333333,-171000.0,-465000.0,97524.04378666668,48.13333333333333,0.0,-8.522170067,47.87692642,78.86555481,-1.929999948,-598.6469116,52.74082947,97.0
2018-09-11 18:19:34.200,-0.081,-0.349,-0.267,-0.6668522,0.95124505,10.6304086,1000.0,-171000.0,-463000.0,97524.83521,48.13,0.0,-8.522170067,47.87692642,78.86555481,-1.709999919,-613.0628662,52.66730499,97.0
2018-09-11 18:19:34.240,-0.087,-0.313,-0.2815,-0.55897905,1.08853815,11.66010685,-3500.0,-169500.0,-465000.0,97524.295045,48.13,0.0,-8.522170067,47.87692642,78.86555481,-1.594999969,-613.0628662,52.62761688,96.5
2018-09-11 18:19:34.280,-0.093,-0.277,-0.296,-0.4511059,1.22583125,12.6898051,-8000.0,-168000.0,-467000.0,97523.75488,48.13,0.0,-8.522170067,47.87692642,78.86555481,-1.480000019,-613.0628662,52.58792877,96.0
2018-09-11 18:19:34.320,-0.0983333333333333,-0.2766666666666666,-0.3123333333333333,-0.4674503166666666,1.10815145,12.545974233333332,-10333.333333333334,-166000.0,-466666.6666666667,97526.02539,48.126666666666665,0.0,-8.522170067,47.87692642,78.86555481,-1.3399999735,-597.01052855,52.515369415,96.0
2018-09-11 18:19:34.360,-0.1036666666666666,-0.2763333333333334,-0.3286666666666666,-0.4837947333333333,0.99047165,12.402143366666667,-12666.666666666668,-164000.0,-466333.3333333333,97528.2959,48.123333333333335,0.0,-8.522170067,47.87692642,78.86555481,-1.199999928,-580.9581909,52.44281006,96.0
2018-09-11 18:19:34.400,-0.109,-0.276,-0.345,-0.50013915,0.87279185,12.2583125,-15000.0,-162000.0,-466000.0,97530.56641,48.12,0.0,-8.401322365,46.2963562,89.60832214,-1.199999928,-580.9581909,52.44281006,96.0
2018-09-11 18:19:34.440,-0.1083333333333333,-0.302,-0.3573333333333333,-0.4707192,0.7910697666666667,12.990542366666666,-17666.666666666668,-159666.66666666666,-469000.0,97531.58569666666,48.12,0.0,-8.401322365,46.2963562,89.60832214,-0.930000007,-580.9581909,52.28452301,96.0
2018-09-11 18:19:34.480,-0.1076666666666666,-0.328,-0.3696666666666666,-0.44129925,0.7093476833333333,13.722772233333334,-20333.33333333333,-157333.33333333334,-472000.0,97532.60498333334,48.12,0.0,-8.401322365,46.2963562,89.60832214,-0.930000007,-580.9581909,52.28452301,96.0
2018-09-11 18:19:34.520,-0.107,-0.354,-0.382,-0.4118793,0.6276256,14.4550021,-23000.0,-155000.0,-475000.0,97533.62427,48.12,0.0,-8.401322365,46.2963562,89.60832214,-0.930000007,-580.9581909,52.28452301,96.0
2018-09-11 18:19:34.560,-0.063,-0.3824999999999999,-0.364,-0.4707192,0.818855275,14.5334553,-25000.0,-151500.0,-477000.0,97537.81128,48.115,0.0,-8.401322365,46.2963562,89.60832214,-0.930000007,-580.9581909,52.28452301,96.0
2018-09-11 18:19:34.600,-0.019,-0.411,-0.346,-0.5295591,1.01008495,14.6119085,-27000.0,-148000.0,-479000.0,97541.99829,48.11,0.0,-8.401322365,46.2963562,89.60832214,-0.629999995,-590.4159546,52.04662323,96.0
2018-09-11 18:19:34.640,-0.0043333333333333,-0.4456666666666666,-0.3523333333333333,-0.5589790499999999,0.8695229666666666,14.987830083333334,-30666.666666666668,-147333.33333333334,-479000.0,97541.07462333332,48.11,0.0,-8.401322365,46.2963562,89.60832214,-0.49499999,-590.4159546,51.91183853,96.0
2018-09-11 18:19:34.680,0.0103333333333333,-0.4803333333333333,-0.3586666666666666,-0.588399,0.7289609833333333,15.363751666666666,-34333.333333333336,-146666.66666666666,-479000.0,97540.15095666666,48.11,0.0,-8.401322365,46.2963562,89.60832214,-0.359999985,-590.4159546,51.77705383,96.0
2018-09-11 18:19:34.720,0.025,-0.515,-0.365,-0.61781895,0.588399,15.73967325,-38000.0,-146000.0,-479000.0,97539.22729,48.11,0.0,-8.401322365,46.2963562,89.60832214,-0.359999985,-590.4159546,51.77705383,96.0
2018-09-11 18:19:34.760,0.0029999999999999,-0.4986,-0.3476,-0.5687857,0.52171378,15.88285034,-44000.0,-144800.0,-478800.0,97540.698238,48.108,0.0,-8.401322365,46.2963562,89.60832214,-0.359999985,-590.4159546,51.77705383,96.0
2018-09-11 18:19:34.800,-0.019,-0.4822,-0.3302,-0.51975245,0.45502856,16.02602743,-50000.0,-143600.0,-478600.0,97542.169186,48.106,0.0,-8.247396310333334,45.62262853,93.39914449333334,-0.1799999926666667,-594.7916056333333,51.53119659333333,95.66666666666669
2018-09-11 18:19:34.840,-0.041,-0.4658,-0.3128,-0.4707192,0.38834334,16.16920452,-56000.0,-142400.0,-478400.0,97543.640134,48.104,0.0,-8.093470255666666,44.94890086,97.18996684666666,-3.33333360913457e-10,-599.1672566666666,51.28533935666667,95.33333333333331
2018-09-11 18:19:34.880,-0.063,-0.4494,-0.2954,-0.42168595,0.32165812,16.31238161,-62000.0,-141200.0,-478200.0,97545.111082,48.102,0.0,-7.939544201,44.27517319,100.9807892,0.179999992,-603.5429077,51.03948212,95.0
2018-09-11 18:19:34.920,-0.085,-0.433,-0.278,-0.3726527,0.2549729,16.4555587,-68000.0,-140000.0,-478000.0,97546.58203,48.1,0.0,-7.939544201,44.27517319,100.9807892,0.179999992,-603.5429077,51.03948212,95.0
2018-09-11 18:19:34.960,-0.0596666666666666,-0.4376666666666666,-0.2626666666666667,-0.3399638666666666,0.32361945,16.723607133333335,-73666.66666666667,-139333.33333333334,-477333.3333333333,97550.24210666669,48.1,0.0,-7.939544201,44.27517319,100.9807892,0.179999992,-603.5429077,51.03948212,95.0
2018-09-11 18:19:35.000,-0.0343333333333333,-0.4423333333333333,-0.2473333333333333,-0.3072750333333333,0.392266,16.991655566666665,-79333.33333333333,-138666.66666666666,-476666.6666666667,97553.90218333334,48.1,0.0,-7.939544201,44.27517319,100.9807892,0.429999977,-601.1420898,50.56147766,94.0
2018-09-11 18:19:35.040,-0.009,-0.447,-0.232,-0.2745862,0.46091255,17.259704,-85000.0,-138000.0,-476000.0,97557.56226,48.1,0.0,-7.939544201,44.27517319,100.9807892,0.429999977,-601.1420898,50.56147766,94.0
2018-09-11 18:19:35.080,-0.061,-0.3974999999999999,-0.2334999999999999,-0.201036325,0.5197524499999999,18.17172245,-96000.0,-136000.0,-477000.0,97557.919315,48.095,0.0,-7.939544201,44.27517319,100.9807892,0.649999976,-601.1420898,50.02912903,94.0
2018-09-11 18:19:35.120,-0.113,-0.348,-0.235,-0.12748645,0.57859235,19.0837409,-107000.0,-134000.0,-478000.0,97558.27637,48.09,0.0,-6.609012604,43.547348025,105.948185,0.649999976,-601.1420898,50.02912903,94.0
2018-09-11 18:19:35.160,-0.147,-0.346,-0.2239999999999999,-0.112776475,0.73549875,18.85818795,-113500.0,-133000.0,-477000.0,97556.81763,48.085,0.0,-5.278481007,42.81952286,110.9155808,0.649999976,-601.1420898,50.02912903,94.0
2018-09-11 18:19:35.200,-0.181,-0.344,-0.213,-0.0980665,0.89240515,18.632635,-120000.0,-132000.0,-476000.0,97555.35889,48.08,0.0,-5.278481007,42.81952286,110.9155808,0.849999964,-622.3991699,49.38652802,93.0
2018-09-11 18:19:35.240,-0.1773333333333333,-0.307,-0.2136666666666666,-0.1144109166666666,1.0362360166666666,18.286133366666668,-123333.33333333331,-129000.0,-477000.0,97555.22054333331,48.08,0.0,-5.278481007,42.81952286,110.9155808,0.919999957,-622.3991699,49.042232515,93.0
2018-09-11 18:19:35.280,-0.1736666666666666,-0.27,-0.2143333333333333,-0.1307553333333333,1.1800668833333332,17.939631733333332,-126666.66666666669,-126000.0,-478000.0,97555.08219666668,48.08,0.0,-5.278481007,42.81952286,110.9155808,0.98999995,-622.3991699,48.69793701,93.0
2018-09-11 18:19:35.320,-0.17,-0.233,-0.215,-0.14709975,1.32389775,17.5931301,-130000.0,-123000.0,-479000.0,97554.94385,48.08,0.0,-5.278481007,42.81952286,110.9155808,0.98999995,-622.3991699,48.69793701,93.0
2018-09-11 18:19:35.360,-0.1033333333333333,-0.2543333333333333,-0.2523333333333333,-0.1830574666666666,1.12776475,16.0436794,-136000.0,-122333.33333333331,-480333.3333333333,97556.32121,48.08,0.0,-5.278481007,42.81952286,110.9155808,1.110000014,-644.260376,47.9101944,92.0
2018-09-11 18:19:35.400,-0.0366666666666666,-0.2756666666666666,-0.2896666666666667,-0.2190151833333333,0.93163175,14.4942287,-142000.0,-121666.66666666669,-481666.6666666667,97557.69857,48.08,0.0,-5.278481007,42.81952286,110.9155808,1.110000014,-644.260376,47.9101944,92.0
2018-09-11 18:19:35.440,0.03,-0.297,-0.327,-0.2549729,0.73549875,12.944778,-148000.0,-121000.0,-483000.0,97559.07593,48.08,0.0,-5.278481007,42.81952286,110.9155808,1.110000014,-644.260376,47.9101944,92.0
2018-09-11 18:19:35.480,0.0615,-0.283,-0.346,-0.28439285,0.4952358249999999,12.223989225,-143500.0,-121500.0,-478500.0,97558.248905,48.075,0.0,-4.516590595,40.73958969,117.3238144,1.199999928,-644.260376,47.10749054,91.0
2018-09-11 18:19:35.520,0.093,-0.269,-0.365,-0.3138128,0.2549729,11.50320045,-139000.0,-122000.0,-474000.0,97557.42188,48.07,0.0,-4.516590595,40.73958969,117.3238144,1.199999928,-644.260376,47.10749054,91.0
2018-09-11 18:19:35.560,0.0834999999999999,-0.281,-0.3505,-0.3530394,0.44129925,11.998436275,-145000.0,-122000.0,-477500.0,97560.13489,48.07,0.0,-4.516590595,40.73958969,117.3238144,1.24999994,-667.1145325,46.674175265,90.5
2018-09-11 18:19:35.600,0.074,-0.293,-0.336,-0.392266,0.6276256,12.4936721,-151000.0,-122000.0,-481000.0,97562.8479,48.07,0.0,-4.516590595,40.73958969,117.3238144,1.299999952,-689.968689,46.24085999,90.0
2018-09-11 18:19:35.640,0.043,-0.3385,-0.33,-0.367749375,0.779628675,13.05265115,-149500.0,-128500.0,-475500.0,97565.05432,48.065,0.0,-4.516590595,40.73958969,117.3238144,1.299999952,-689.968689,46.24085999,90.0
2018-09-11 18:19:35.680,0.012,-0.384,-0.324,-0.34323275,0.93163175,13.6116302,-148000.0,-135000.0,-470000.0,97567.26074,48.06,0.0,-4.516590595,40.73958969,117.3238144,1.389999986,-689.968689,45.36894226,89.0
2018-09-11 18:19:35.720,-0.0086666666666666,-0.3953333333333333,-0.3296666666666666,-0.32361945,0.9381695166666668,14.010433966666668,-149666.66666666666,-134333.33333333334,-470333.3333333333,97568.55672,48.06,0.0,-4.516590595,40.73958969,117.3238144,1.389999986,-689.968689,45.36894226,89.0
2018-09-11 18:19:35.760,-0.0293333333333333,-0.4066666666666667,-0.3353333333333333,-0.30400615,0.9447072833333332,14.409237733333333,-151333.33333333334,-133666.66666666666,-470666.6666666667,97569.8527,48.06,0.0,-4.516590595,40.73958969,117.3238144,1.50999999,-703.8587646,44.45442963,88.0
2018-09-11 18:19:35.800,-0.05,-0.418,-0.341,-0.28439285,0.95124505,14.8080415,-153000.0,-133000.0,-471000.0,97571.14868,48.06,0.0,-4.516590595,40.73958969,117.3238144,1.5549999475,-703.8587646,43.991191865000005,87.5
2018-09-11 18:19:35.840,0.0284999999999999,-0.3974999999999999,-0.341,-0.26477955,0.652142225,15.038497775,-158000.0,-136000.0,-467000.0,97578.14331,48.055,0.0,-4.516590595,40.73958969,117.3238144,1.599999905,-703.8587646,43.5279541,87.0
2018-09-11 18:19:35.880,0.107,-0.377,-0.341,-0.24516625,0.3530394,15.26895405,-163000.0,-139000.0,-463000.0,97585.13794,48.05,0.0,-4.516590595,40.73958969,117.3238144,1.599999905,-703.8587646,43.5279541,87.0
2018-09-11 18:19:35.920,0.0936666666666666,-0.3346666666666666,-0.305,-0.2157463,0.3530394,14.507304233333333,-166333.33333333334,-139000.0,-459333.3333333333,97581.61010666667,48.05,0.0,-4.516590595,40.73958969,117.3238144,1.599999905,-703.8587646,43.5279541,87.0
2018-09-11 18:19:35.960,0.0803333333333333,-0.2923333333333333,-0.269,-0.18632635,0.3530394,13.745654416666667,-169666.66666666666,-139000.0,-455666.6666666667,97578.08227333332,48.05,0.0,-3.601003408,42.0943222,129.9709015,1.699999928,-716.0177002,42.52638245,86.0
2018-09-11 18:19:36.000,0.067,-0.25,-0.233,-0.1569064,0.3530394,12.9840046,-173000.0,-139000.0,-452000.0,97574.55444,48.05,0.0,-3.601003408,42.0943222,129.9709015,1.699999928,-716.0177002,42.52638245,86.0
2018-09-11 18:19:36.040,0.0343333333333333,-0.28,-0.2136666666666666,-0.1046042666666666,0.7224232166666666,14.66094175,-175000.0,-141000.0,-453333.3333333333,97576.04776666668,48.04666666666667,0.0,-3.601003408,42.0943222,129.9709015,1.699999928,-716.0177002,42.52638245,86.0
2018-09-11 18:19:36.080,0.0016666666666666,-0.31,-0.1943333333333333,-0.0523021333333333,1.0918070333333332,16.3378789,-177000.0,-143000.0,-454666.6666666667,97577.54109333332,48.04333333333333,0.0,-3.601003408,42.0943222,129.9709015,1.789999962,-716.0177002,41.50105286,85.0
2018-09-11 18:19:36.120,-0.031,-0.34,-0.175,0.0,1.46119085,18.01481605,-179000.0,-145000.0,-456000.0,97579.03442,48.04,0.0,-3.601003408,42.0943222,129.9709015,1.844999969,-720.1230774,40.952804565,84.5
2018-09-11 18:19:36.160,-0.088,-0.363,-0.213,-0.0196133,1.260154525,17.813779725,-186000.0,-146500.0,-455500.0,97579.788205,48.04,0.0,-3.601003408,42.0943222,129.9709015,1.899999976,-724.2284546,40.40455627,84.0
2018-09-11 18:19:36.200,-0.145,-0.386,-0.251,-0.0392266,1.0591182,17.6127434,-193000.0,-148000.0,-455000.0,97580.54199,48.04,0.0,-3.601003408,42.0943222,129.9709015,1.899999976,-724.2284546,40.40455627,84.0
2018-09-11 18:19:36.240,-0.1049999999999999,-0.3363333333333333,-0.2486666666666666,-0.0392266,1.12776475,16.43921428333333,-195666.66666666663,-149000.0,-453333.3333333333,97579.96012333334,48.03666666666667,0.0,-3.601003408,42.0943222,129.9709015,1.899999976,-724.2284546,40.40455627,84.0
2018-09-11 18:19:36.280,-0.0649999999999999,-0.2866666666666667,-0.2463333333333333,-0.0392266,1.1964113,15.265685166666666,-198333.3333333333,-150000.0,-451666.6666666667,97579.37825666666,48.03333333333333,0.0,-3.601003408,42.0943222,129.9709015,1.959999919,-740.5351563,39.27080536,83.0
2018-09-11 18:19:36.320,-0.025,-0.237,-0.244,-0.0392266,1.26505785,14.09215605,-201000.0,-151000.0,-450000.0,97578.79639,48.03,0.0,-2.831341147,42.14792442,133.7527695,1.9849999545,-740.5351563,38.67366028,82.5
2018-09-11 18:19:36.360,-0.088,-0.2644999999999999,-0.2535,0.053936575,1.142474725,14.5334553,-203500.0,-152000.0,-443000.0,97580.819705,48.03,0.0,-2.061678886,42.20152664,137.5346375,2.00999999,-740.5351563,38.0765152,82.0
2018-09-11 18:19:36.400,-0.151,-0.292,-0.263,0.14709975,1.0198916,14.97475455,-206000.0,-153000.0,-436000.0,97582.84302,48.03,0.0,-2.061678886,42.20152664,137.5346375,2.024999976,-740.5351563,37.472820285,81.5
2018-09-11 18:19:36.440,-0.264,-0.2515,-0.2905,0.053936575,1.18660465,14.5334553,-212000.0,-151000.0,-436000.0,97585.980225,48.025000000000006,0.0,-2.061678886,42.20152664,137.5346375,2.039999962,-740.5351563,36.86912537,81.0
2018-09-11 18:19:36.480,-0.377,-0.211,-0.318,-0.0392266,1.3533177,14.09215605,-218000.0,-149000.0,-436000.0,97589.11743,48.02,0.0,-2.061678886,42.20152664,137.5346375,2.039999962,-740.5351563,36.86912537,81.0
2018-09-11 18:19:36.520,-0.341,-0.218,-0.3346666666666666,-0.0588399,1.22583125,12.8467115,-222000.0,-145666.66666666666,-440333.3333333333,97584.9528,48.02,0.0,-2.061678886,42.20152664,137.5346375,2.0499999525,-752.3082581000001,36.236423495,80.0
2018-09-11 18:19:36.560,-0.305,-0.225,-0.3513333333333333,-0.0784532,1.0983448,11.60126695,-226000.0,-142333.33333333334,-444666.6666666667,97580.78817,48.02,0.0,-2.061678886,42.20152664,137.5346375,2.059999943,-764.0813599,35.60372162,79.0
2018-09-11 18:19:36.600,-0.269,-0.232,-0.368,-0.0980665,0.97085835,10.3558224,-230000.0,-139000.0,-449000.0,97576.62354,48.02,0.0,-2.061678886,42.20152664,137.5346375,2.059999943,-764.0813599,35.60372162,79.0
