time,field.angular_velocity.x,field.angular_velocity.y,field.angular_velocity.z,field.linear_acceleration.x,field.linear_acceleration.y,field.linear_acceleration.z,field.magnetic_field.x,field.magnetic_field.y,field.magnetic_field.z,field.fluid_pressure,field.temperature,field.airspeed,field.measured.pitch,field.measured.roll,field.measured.yaw,field.alt_error,field.aspd_error,field.xtrack_error,field.wp_dist
2018-07-21 01:05:25.000,2.359,-0.674,0.089,-0.392266,-0.36284605,22.2022556,-76000.0,474000.0,-243000.0,97111.6394,53.36,24.2878513336,1.701974869,-49.58001709,68.79004669,-0.299999982,-890.0123291,-38.52055359,6.0
2018-07-21 01:05:25.040,2.279,-0.65,0.1496666666666666,-0.4086104166666666,-0.2222840666666666,23.17638283333333,-81666.66666666667,455333.3333333333,-272333.3333333333,97113.68611333332,53.36,24.2878513336,1.701974869,-49.58001709,68.79004669,-0.5,-897.4004517,-36.01123047,8.0
2018-07-21 01:05:25.080,2.1990000000000003,-0.626,0.2103333333333333,-0.4249548333333333,-0.0817220833333333,24.150510066666666,-87333.33333333333,436666.6666666667,-301666.6666666667,97115.73282666667,53.36,24.2878513336,1.701974869,-49.58001709,68.79004669,-0.5,-897.4004517,-36.01123047,8.0
2018-07-21 01:05:25.120,2.119,-0.602,0.271,-0.44129925,0.0588399,25.1246373,-93000.0,418000.0,-331000.0,97117.77954,53.36,24.2878513336,1.701974869,-49.58001709,68.79004669,-0.5,-897.4004517,-36.01123047,8.0
2018-07-21 01:05:25.160,2.0135,-0.5645,0.2915,-0.32361945,0.24516625,25.041280775,-97500.0,377000.0,-369500.0,97117.77954,53.36,24.2878513336,1.701974869,-49.58001709,68.79004669,-0.829999983,-914.2015381,-33.53570938,11.0
2018-07-21 01:05:25.200,1.908,-0.527,0.312,-0.20593965,0.4314926,24.95792425,-102000.0,336000.0,-408000.0,97117.77954,53.36,24.2878513336,1.701974869,-49.58001709,68.79004669,-0.829999983,-914.2015381,-33.53570938,11.0
2018-07-21 01:05:25.240,1.7005,-0.497,0.309,-0.299102825,0.6423355749999999,23.52615335,-110000.0,296500.0,-433000.0,97114.138795,53.355,24.2878513336,1.701974869,-49.58001709,68.79004669,-1.319999933,-928.7851563,56.57513809,13.0
2018-07-21 01:05:25.280,1.493,-0.467,0.306,-0.392266,0.85317855,22.09438245,-118000.0,257000.0,-458000.0,97110.49805,53.35,24.2878513336,1.701974869,-49.58001709,68.79004669,-1.319999933,-928.7851563,56.57513809,13.0
2018-07-21 01:05:25.320,0.9506666666666668,-0.4416666666666667,0.2966666666666667,-0.5687857,1.0166227166666666,20.95027328333333,-122333.33333333331,232000.0,-466666.6666666667,97104.40877333331,53.35,24.2878513336,15.30467606,2.007789612,56.28668976,-1.319999933,-928.7851563,56.57513809,13.0
2018-07-21 01:05:25.360,0.4083333333333332,-0.4163333333333333,0.2873333333333333,-0.7453053999999999,1.1800668833333334,19.806164116666668,-126666.66666666669,207000.0,-475333.3333333333,97098.31949666666,53.35,24.19264242382222,15.30467606,2.007789612,56.28668976,-1.9799999,-814.7684326,56.07345581,15.0
2018-07-21 01:05:25.400,-0.134,-0.391,0.278,-0.9218251,1.34351105,18.66205495,-131000.0,182000.0,-484000.0,97092.23022,53.35,24.097433514044443,15.30467606,2.007789612,56.28668976,-1.9799999,-814.7684326,56.07345581,15.0
2018-07-21 01:05:25.440,-0.4525,-0.321,0.1855,-1.073828175,1.26505785,17.6911966,-136000.0,165000.0,-488000.0,97088.82141,53.35,24.002224604266665,15.30467606,2.007789612,56.28668976,-2.769999981,-792.2780762,55.60641479,17.0
2018-07-21 01:05:25.480,-0.771,-0.251,0.093,-1.22583125,1.18660465,16.72033825,-141000.0,148000.0,-492000.0,97085.4126,53.35,23.907015694488887,15.30467606,2.007789612,56.28668976,-2.769999981,-792.2780762,55.60641479,17.0
2018-07-21 01:05:25.520,-0.766,-0.213,0.0254999999999999,-1.230734575,1.10815145,16.2962006375,-146000.0,163250.0,-485500.0,97079.3243425,53.35,23.811806784711116,15.30467606,2.007789612,56.28668976,-3.639999866,-771.0045166,55.17401886,20.0
2018-07-21 01:05:25.560,-0.761,-0.175,-0.042,-1.2356379,1.02969825,15.872063025,-151000.0,178500.0,-479000.0,97073.236085,53.35,23.71659787493333,15.30467606,2.007789612,56.28668976,-3.639999866,-771.0045166,55.17401886,20.0
2018-07-21 01:05:25.600,-0.756,-0.137,-0.1095,-1.240541225,0.95124505,15.4479254125,-156000.0,193750.0,-472500.0,97067.1478275,53.35,23.62138896515556,15.30467606,2.007789612,56.28668976,-3.639999866,-771.0045166,55.17401886,20.0
2018-07-21 01:05:25.640,-0.751,-0.099,-0.177,-1.24544455,0.87279185,15.0237878,-161000.0,209000.0,-466000.0,97061.05957,53.35,23.52618005537778,15.30467606,2.007789612,56.28668976,-4.579999924,-743.0971069,54.7625618,22.0
2018-07-21 01:05:25.680,-0.647,-0.064,-0.235,-1.34351105,-0.10787315,14.121576,-161000.0,209000.0,-466000.0,97061.05957,53.35,23.4309711456,18.43567276,-2.7528522015,55.421829225,-4.579999924,-743.0971069,54.7625618,22.0
2018-07-21 01:05:25.720,-0.5355,-0.0625,-0.2289999999999999,-1.36312435,0.0980664999999999,13.606726875,-164500.0,224500.0,-457000.0,97056.92749,53.345,23.262773036925,21.56666946,-7.513494015,54.55696869,-4.579999924,-743.0971069,54.7625618,22.0
2018-07-21 01:05:25.760,-0.424,-0.061,-0.223,-1.38273765,0.30400615,13.09187775,-168000.0,240000.0,-448000.0,97052.79541,53.34,23.09457492825,21.56666946,-7.513494015,54.55696869,-5.569999695,-713.5429688,54.34194565,24.0
2018-07-21 01:05:25.800,-0.3496666666666667,-0.0433333333333333,-0.205,-1.3794687666666663,0.2484351333333333,11.91507975,-170666.66666666666,247000.0,-443333.3333333333,97048.93392,53.34,22.926376819575,21.56666946,-7.513494015,54.55696869,-5.569999695,-713.5429688,54.34194565,24.0
2018-07-21 01:05:25.840,-0.2753333333333333,-0.0256666666666666,-0.187,-1.376199883333333,0.1928641166666666,10.73828175,-173333.33333333334,254000.0,-438666.6666666667,97045.07243,53.34,22.7581787109,21.56666946,-7.513494015,54.55696869,-6.579999924,-671.9974365,53.93222809,26.0
2018-07-21 01:05:25.880,-0.201,-0.008,-0.169,-1.372931,0.1372931,9.56148375,-176000.0,261000.0,-434000.0,97041.21094,53.34,22.589980602225,21.56666946,-7.513494015,54.55696869,-6.579999924,-671.9974365,53.93222809,26.0
2018-07-21 01:05:25.920,-0.196,-0.009,-0.1423333333333333,-1.3304355166666666,0.0915287333333337,9.466686133333331,-178333.33333333334,264666.6666666667,-431000.0,97035.93750333332,53.34,22.42178249355,21.56666946,-7.513494015,54.55696869,-7.589999676,-608.5386353,53.51334763,27.0
2018-07-21 01:05:25.960,-0.191,-0.01,-0.1156666666666666,-1.2879400333333333,0.0457643666666674,9.371888516666669,-180666.66666666663,268333.3333333333,-428000.0,97030.66406666666,53.34,22.253584384875,21.56666946,-7.513494015,54.55696869,-7.589999676,-608.5386353,53.51334763,27.0
2018-07-21 01:05:26.000,-0.186,-0.011,-0.089,-1.24544455,1.14e-15,9.2770909,-183000.0,272000.0,-425000.0,97025.39063,53.34,22.0853862762,21.56666946,-7.513494015,54.55696869,-7.589999676,-608.5386353,53.51334763,27.0
2018-07-21 01:05:26.040,-0.172,0.001,-0.0449999999999999,-1.2291001333333331,0.0751843166666674,9.26728425,-184333.3333333333,274666.6666666667,-423333.3333333333,97022.67456333332,53.34,21.837108612022224,22.92770958,-11.67676067,57.92672348,-8.590000153,-545.8532104,53.08351135,29.0
2018-07-21 01:05:26.080,-0.158,0.013,-0.0009999999999999,-1.2127557166666667,0.1503686333333337,9.2574776,-185666.66666666663,277333.3333333333,-421666.6666666667,97019.95849666666,53.34,21.588830947844446,22.92770958,-11.67676067,57.92672348,-8.590000153,-545.8532104,53.08351135,29.0
2018-07-21 01:05:26.120,-0.144,0.025,0.043,-1.1964113,0.22555295,9.24767095,-187000.0,280000.0,-420000.0,97017.24243,53.34,21.34055328366667,22.92770958,-11.67676067,57.92672348,-8.590000153,-545.8532104,53.08351135,29.0
2018-07-21 01:05:26.160,-0.121,0.0505,0.0965,-1.2013146250000002,0.0588399,9.056441275,-187500.0,282000.0,-417500.0,97010.95886,53.34,21.09227561948889,22.92770958,-11.67676067,57.92672348,-9.559999466,-491.0293579,52.66457748,31.0
2018-07-21 01:05:26.200,-0.098,0.076,0.15,-1.20621795,-0.10787315,8.8652116,-188000.0,284000.0,-415000.0,97004.67529,53.34,20.84399795531111,22.92770958,-11.67676067,57.92672348,-10.029999733,-465.98921205,52.442781445,32.0
2018-07-21 01:05:26.240,-0.11,0.099,0.1815,-1.211121275,-0.436395925,8.3944924,-186000.0,287000.0,-414000.0,97001.489255,53.335,20.595720291133333,22.92770958,-11.67676067,57.92672348,-10.5,-440.9490662,52.22098541,33.0
2018-07-21 01:05:26.280,-0.122,0.122,0.213,-1.2160246,-0.7649187,7.9237732,-184000.0,290000.0,-413000.0,96998.30322,53.33,20.347442626955555,22.92770958,-11.67676067,57.92672348,-10.5,-440.9490662,52.22098541,33.0
2018-07-21 01:05:26.320,-0.16675,0.12375,0.22975,-1.181701325,-0.5663340375,7.6418320125,-182250.0,291500.0,-412750.0,96993.8796975,53.33,20.099164962777778,22.92770958,-11.67676067,57.92672348,-10.954999925,-413.01890565,51.99507141,33.5
2018-07-21 01:05:26.360,-0.2115,0.1255,0.2465,-1.14737805,-0.367749375,7.359890825000001,-180500.0,293000.0,-412500.0,96989.456175,53.33,19.8508872986,22.92770958,-11.67676067,57.92672348,-11.40999985,-385.0887451,51.76915741,34.0
2018-07-21 01:05:26.400,-0.25625,0.12725,0.26325,-1.113054775,-0.1691647124999999,7.077949637500001,-178750.0,294500.0,-412250.0,96985.0326525,53.33,19.580830891944444,21.989694595,-13.399974345,56.838193895,-11.40999985,-385.0887451,51.76915741,34.0
2018-07-21 01:05:26.440,-0.301,0.129,0.28,-1.0787315,0.02941995,6.79600845,-177000.0,296000.0,-412000.0,96980.60913,53.33,19.31077448528889,21.05167961,-15.12318802,55.74966431,-11.40999985,-385.0887451,51.76915741,34.0
2018-07-21 01:05:26.480,-0.264,0.165,0.281,-1.12776475,-0.4118793,6.05070305,-165000.0,305000.0,-410000.0,96980.60913,53.33,19.040718078633333,21.05167961,-15.12318802,55.74966431,-12.27999973,-319.8921204,51.29905319,36.0
2018-07-21 01:05:26.520,-0.24,0.1756666666666666,0.277,-1.0983448,-0.3366949833333333,6.142231783333333,-160333.33333333334,309666.6666666667,-408333.3333333333,96977.43733666668,53.33,18.770661671977777,21.05167961,-15.12318802,55.74966431,-13.09999943,-260.5802612,50.82436371,38.0
2018-07-21 01:05:26.560,-0.216,0.1863333333333333,0.273,-1.06892485,-0.2615106666666666,6.233760516666667,-155666.66666666666,314333.3333333333,-406666.6666666667,96974.26554333331,53.33,18.50060526532222,21.05167961,-15.12318802,55.74966431,-13.09999943,-260.5802612,50.82436371,38.0
2018-07-21 01:05:26.600,-0.192,0.197,0.269,-1.0395049,-0.18632635,6.32528925,-151000.0,319000.0,-405000.0,96971.09375,53.33,18.230548858666666,21.05167961,-15.12318802,55.74966431,-13.48499966,-229.8710861,50.574691775000005,38.5
2018-07-21 01:05:26.640,-0.145,0.199,0.259,-1.0198916,-0.1765197,6.0997363,-143000.0,324000.0,-402000.0,96965.023805,53.33,17.96049245201111,21.05167961,-15.12318802,55.74966431,-13.86999989,-199.161911,50.32501984,39.0
2018-07-21 01:05:26.680,-0.098,0.201,0.249,-1.0002783,-0.16671305,5.87418335,-135000.0,329000.0,-399000.0,96958.95386,53.33,17.690436045355554,21.05167961,-15.12318802,55.74966431,-13.86999989,-199.161911,50.32501984,39.0
2018-07-21 01:05:26.720,-0.101,0.2285,0.252,-0.936535075,-0.0245166249999999,5.12887795,-127500.0,332500.0,-398000.0,96955.51758,53.33,17.4203796387,21.05167961,-15.12318802,55.74966431,-13.86999989,-199.161911,50.32501984,39.0
2018-07-21 01:05:26.760,-0.104,0.256,0.255,-0.87279185,0.1176798,4.38357255,-120000.0,336000.0,-397000.0,96952.0813,53.33,17.23754180563636,15.88849068,-21.08979607,51.39172363,-14.57999992,-142.0379639,49.80466843,41.0
2018-07-21 01:05:26.800,-0.1356666666666666,0.262,0.2593333333333333,-0.8629852,0.0980665,4.301850466666667,-113666.66666666669,338000.0,-396666.6666666667,96950.40690333334,53.32666666666667,17.054703972572725,15.88849068,-21.08979607,51.39172363,-14.57999992,-142.0379639,49.80466843,41.0
2018-07-21 01:05:26.840,-0.1673333333333333,0.268,0.2636666666666666,-0.85317855,0.0784532,4.220128383333333,-107333.33333333331,340000.0,-396333.3333333333,96948.73250666668,53.32333333333333,16.87186613950909,15.88849068,-21.08979607,51.39172363,-15.22999954,-90.31677246,49.27608109,42.0
2018-07-21 01:05:26.880,-0.199,0.274,0.268,-0.8433719,0.0588399,4.1384063,-101000.0,342000.0,-396000.0,96947.05811,53.32,16.689028306445454,15.88849068,-21.08979607,51.39172363,-15.22999954,-90.31677246,49.27608109,42.0
2018-07-21 01:05:26.920,-0.2063333333333333,0.2933333333333333,0.269,-0.8793296166666666,0.0915287333333333,3.847475683333333,-95333.33333333331,343666.6666666667,-395333.3333333333,96944.21590333332,53.32,16.506190473381817,15.88849068,-21.08979607,51.39172363,-15.80999947,-45.33863068,48.72283936,44.0
2018-07-21 01:05:26.960,-0.2136666666666666,0.3126666666666667,0.27,-0.9152873333333332,0.1242175666666666,3.5565450666666667,-89666.66666666667,345333.3333333333,-394666.6666666667,96941.37369666666,53.32,16.32335264031818,15.88849068,-21.08979607,51.39172363,-15.80999947,-45.33863068,48.72283936,44.0
2018-07-21 01:05:27.000,-0.221,0.332,0.271,-0.95124505,0.1569064,3.26561445,-84000.0,347000.0,-394000.0,96938.53149,53.32,16.140514807254544,15.88849068,-21.08979607,51.39172363,-16.06499958,-19.921875002,48.4430275,45.0
2018-07-21 01:05:27.040,-0.2299999999999999,0.312,0.259,-0.926728425,0.063743225,3.545103975,-73000.0,351500.0,-391000.0,96937.039185,53.32,15.957676974190909,15.88849068,-21.08979607,51.39172363,-16.31999969,5.494880676,48.16321564,46.0
2018-07-21 01:05:27.080,-0.239,0.292,0.247,-0.9022118,-0.02941995,3.8245935,-62000.0,356000.0,-388000.0,96935.54688,53.32,15.774839141127272,15.88849068,-21.08979607,51.39172363,-16.463333126666665,23.357804617333333,47.96936289666667,46.333333333333336
2018-07-21 01:05:27.120,-0.2566666666666666,0.3106666666666666,0.2343333333333333,-0.8891362666666667,0.0621087833333333,3.438865266666667,-55000.0,358000.0,-386000.0,96934.12069,53.32,15.592001308063637,15.88849068,-21.08979607,51.39172363,-16.606666563333334,41.22072855866666,47.77551015333333,46.66666666666666
2018-07-21 01:05:27.160,-0.2743333333333333,0.3293333333333333,0.2216666666666666,-0.8760607333333333,0.1536375166666666,3.0531370333333334,-48000.0,360000.0,-384000.0,96932.6945,53.32,15.409163475,15.88849068,-21.08979607,51.39172363,-16.75,59.0836525,47.58165741,47.0
2018-07-21 01:05:27.200,-0.292,0.348,0.209,-0.8629852,0.24516625,2.6674088,-41000.0,362000.0,-382000.0,96931.26831,53.32,15.25990663252857,11.1531901375,-24.012737275,49.99990654,-16.92999935,82.3256016,47.290878295,48.0
2018-07-21 01:05:27.240,-0.2585,0.3305,0.199,-0.81395195,0.1765197,2.95180165,-30500.0,366500.0,-378000.0,96928.411865,53.32,15.110649790057142,6.417889595,-26.93567848,48.60808945,-17.1099987,105.5675507,47.00009918,49.0
2018-07-21 01:05:27.280,-0.225,0.313,0.189,-0.7649187,0.10787315,3.2361945,-20000.0,371000.0,-374000.0,96925.55542,53.32,14.961392947585711,6.417889595,-26.93567848,48.60808945,-17.1099987,105.5675507,47.00009918,49.0
2018-07-21 01:05:27.320,-0.2136666666666666,0.3073333333333333,0.186,-0.7943386499999999,0.0196133,3.4846296333333333,-13666.666666666668,373000.0,-370666.6666666667,96925.16072666668,53.32,14.812136105114286,6.417889595,-26.93567848,48.60808945,-17.38999939,141.1194763,46.38750076,50.0
2018-07-21 01:05:27.360,-0.2023333333333333,0.3016666666666666,0.183,-0.8237586,-0.0686465499999999,3.7330647666666663,-7333.333333333334,375000.0,-367333.3333333333,96924.76603333332,53.32,14.662879262642855,6.417889595,-26.93567848,48.60808945,-17.38999939,141.1194763,46.38750076,50.0
2018-07-21 01:05:27.400,-0.191,0.296,0.18,-0.85317855,-0.1569064,3.9814999,-1000.0,377000.0,-364000.0,96924.37134,53.32,14.513622420171428,6.417889595,-26.93567848,48.60808945,-17.38999939,141.1194763,46.38750076,50.0
2018-07-21 01:05:27.440,-0.1895,0.288,0.1855,-0.7894353249999999,-0.10787315,3.8834334,7500.0,380500.0,-359500.0,96921.392825,53.32,14.3643655777,6.417889595,-26.93567848,48.60808945,-17.57999992,163.563446,45.76759338,52.0
2018-07-21 01:05:27.480,-0.188,0.28,0.191,-0.7256921,-0.0588399,3.7853669,16000.0,384000.0,-355000.0,96918.41431,53.32,14.297690131445451,0.12956132,-30.85667992,48.55803299,-17.57999992,163.563446,45.76759338,52.0
2018-07-21 01:05:27.520,-0.171,0.2683333333333333,0.2016666666666666,-0.7551120499999999,-0.2026707666666666,3.837669033333333,21000.0,385333.3333333333,-352666.6666666667,96918.77034666666,53.31666666666667,14.231014685190909,0.12956132,-30.85667992,48.55803299,-17.649999615,176.32656095,45.443948745,52.5
2018-07-21 01:05:27.560,-0.154,0.2566666666666666,0.2123333333333333,-0.784532,-0.3465016333333333,3.8899711666666663,26000.0,386666.6666666667,-350333.3333333333,96919.12638333334,53.31333333333333,14.164339238936362,0.12956132,-30.85667992,48.55803299,-17.71999931,189.0896759,45.12030411,53.0
2018-07-21 01:05:27.600,-0.137,0.245,0.223,-0.81395195,-0.4903325,3.9422733,31000.0,388000.0,-348000.0,96919.48242,53.31,14.097663792681818,0.12956132,-30.85667992,48.55803299,-17.71999931,189.0896759,45.12030411,53.0
2018-07-21 01:05:27.640,-0.114,0.2435,0.25,-0.779628675,-0.328522775,3.83440015,39500.0,390000.0,-343500.0,96918.62793,53.31,14.030988346427272,0.12956132,-30.85667992,48.55803299,-17.78999901,210.7716522,44.46570206,55.0
2018-07-21 01:05:27.680,-0.091,0.242,0.277,-0.7453054,-0.16671305,3.726527,48000.0,392000.0,-339000.0,96917.77344,53.31,13.964312900172729,0.12956132,-30.85667992,48.55803299,-17.78999901,210.7716522,44.46570206,55.0
2018-07-21 01:05:27.720,-0.0833333333333333,0.2206666666666666,0.2986666666666667,-0.7060788,-0.2222840666666666,4.027264266666666,53333.333333333336,392333.3333333333,-337666.6666666667,96917.63916333334,53.31,13.89763745391818,0.12956132,-30.85667992,48.55803299,-17.78999901,219.2246399,44.134744645,55.5
2018-07-21 01:05:27.760,-0.0756666666666666,0.1993333333333333,0.3203333333333333,-0.6668522,-0.2778550833333333,4.3280015333333335,58666.66666666666,392666.6666666667,-336333.3333333333,96917.50488666666,53.31,13.830962007663636,0.12956132,-30.85667992,48.55803299,-17.78999901,227.6776276,43.80378723,56.0
2018-07-21 01:05:27.800,-0.068,0.178,0.342,-0.6276256,-0.3334261,4.6287388,64000.0,393000.0,-335000.0,96917.37061,53.31,13.76428656140909,0.12956132,-30.85667992,48.55803299,-17.78999901,227.6776276,43.80378723,56.0
2018-07-21 01:05:27.840,-0.081,0.1485,0.3725,-0.701175475,-0.465815875,5.0406181,72500.0,392000.0,-333500.0,96919.207765,53.31,13.697611115154544,0.12956132,-30.85667992,48.55803299,-17.72999954,236.9064331,43.11449051,58.0
2018-07-21 01:05:27.880,-0.094,0.119,0.403,-0.77472535,-0.59820565,5.4524974,81000.0,391000.0,-332000.0,96921.04492,53.31,13.6309356689,-3.746413283,-32.13224316,47.36842537,-17.72999954,236.9064331,43.11449051,58.0
2018-07-21 01:05:27.920,-0.1103333333333333,0.1023333333333333,0.415,-0.7126165666666666,-0.4576436666666666,5.4949928833333335,88000.0,389000.0,-331333.3333333333,96921.06526666669,53.31,13.6498094705,-7.622387886,-33.4078064,46.17881775,-17.72999954,236.9064331,43.11449051,58.0
2018-07-21 01:05:27.960,-0.1266666666666666,0.0856666666666666,0.427,-0.6505077833333334,-0.3170816833333333,5.5374883666666666,95000.0,387000.0,-330666.6666666667,96921.08561333331,53.31,13.6686832721,-7.622387886,-33.4078064,46.17881775,-17.61999893,243.3702393,42.39780808,59.0
2018-07-21 01:05:28.000,-0.143,0.069,0.439,-0.588399,-0.1765197,5.57998385,102000.0,385000.0,-330000.0,96921.10596,53.31,13.6875570737,-7.622387886,-33.4078064,46.17881775,-17.534998895,248.27632145,42.033983235,59.5
2018-07-21 01:05:28.040,-0.1345,0.059,0.444,-0.583495675,-0.1569064,5.643727074999999,112500.0,383500.0,-326000.0,96923.13843,53.31,13.7064308753,-7.622387886,-33.4078064,46.17881775,-17.44999886,253.1824036,41.67015839,60.0
2018-07-21 01:05:28.080,-0.126,0.049,0.449,-0.57859235,-0.1372931,5.7074703,123000.0,382000.0,-322000.0,96925.1709,53.31,13.7253046769,-7.622387886,-33.4078064,46.17881775,-17.44999886,253.1824036,41.67015839,60.0
2018-07-21 01:05:28.120,-0.1216666666666666,0.0206666666666666,0.4513333333333333,-0.5949367666666666,-0.2615106666666666,6.10954295,129333.33333333331,380000.0,-321000.0,96926.23291,53.31,13.7441784785,-7.622387886,-33.4078064,46.17881775,-17.344999315000003,249.39641575,41.2862587,61.0
2018-07-21 01:05:28.160,-0.1173333333333333,-0.0076666666666666,0.4536666666666666,-0.6112811833333334,-0.3857282333333333,6.5116156,135666.66666666666,378000.0,-320000.0,96927.29492,53.31,13.7630522801,-7.622387886,-33.4078064,46.17881775,-17.23999977,245.6104279,40.90235901,62.0
2018-07-21 01:05:28.200,-0.113,-0.036,0.456,-0.6276256,-0.5099458,6.91368825,142000.0,376000.0,-319000.0,96928.35693,53.31,13.7819260817,-7.622387886,-33.4078064,46.17881775,-17.10499954,240.57106785,40.50932312,62.5
2018-07-21 01:05:28.240,-0.0755,-0.0465,0.4425,-0.5491724,-0.5638823749999999,7.438344025,150500.0,374500.0,-316500.0,96929.83093,53.31,13.8007998833,-7.622387886,-33.4078064,46.17881775,-16.96999931,235.5317078,40.11628723,63.0
2018-07-21 01:05:28.280,-0.038,-0.057,0.429,-0.4707192,-0.61781895,7.9629998,159000.0,373000.0,-314000.0,96931.30493,53.31,13.8196736849,-7.622387886,-33.4078064,46.17881775,-16.869999566666667,227.81129966666663,39.83631388333333,63.66666666666666
2018-07-21 01:05:28.320,-0.0396666666666666,-0.0743333333333333,0.431,-0.40207265,-0.2941995,8.280081483333333,164666.66666666666,370000.0,-313666.6666666667,96932.53784,53.31,13.8385474865,-7.622387886,-33.4078064,46.17881775,-16.769999823333333,220.09089153333332,39.55634053666667,64.33333333333333
2018-07-21 01:05:28.360,-0.0413333333333333,-0.0916666666666666,0.433,-0.3334260999999999,0.0294199499999999,8.597163166666666,170333.33333333334,367000.0,-313333.3333333333,96933.77075,53.31,13.8574212881,-7.622387886,-33.4078064,46.17881775,-16.67000008,212.3704834,39.27636719,65.0
2018-07-21 01:05:28.400,-0.043,-0.109,0.435,-0.26477955,0.3530394,8.91424485,176000.0,364000.0,-313000.0,96935.00366,53.31,13.8762950897,-15.53135872,-34.57945633,35.75291061,-16.67000008,212.3704834,39.27636719,65.0
2018-07-21 01:05:28.440,-0.102,-0.12,0.4395,-0.328522775,0.289296175,9.007408025,185000.0,358500.0,-313000.0,96936.117555,53.305,14.002298235875,-15.53135872,-34.57945633,35.75291061,-16.31999969,181.0656586,38.38167953,66.0
2018-07-21 01:05:28.480,-0.161,-0.131,0.444,-0.392266,0.22555295,9.1005712,194000.0,353000.0,-313000.0,96937.23145,53.3,14.12830138205,-15.53135872,-34.57945633,35.75291061,-16.31999969,181.0656586,38.38167953,66.0
2018-07-21 01:05:28.520,-0.1453333333333333,-0.1296666666666666,0.4336666666666666,-0.4282237166666666,-0.0817220833333333,9.280359783333331,197333.3333333333,350000.0,-313666.6666666667,96939.9821,53.3,14.254304528225,-15.53135872,-34.57945633,35.75291061,-15.96000004,151.5798645,37.45501709,68.0
2018-07-21 01:05:28.560,-0.1296666666666666,-0.1283333333333333,0.4233333333333333,-0.4641814333333333,-0.3889971166666667,9.460148366666663,200666.66666666663,347000.0,-314333.3333333333,96942.73275,53.3,14.3803076744,-15.53135872,-34.57945633,35.75291061,-15.96000004,151.5798645,37.45501709,68.0
2018-07-21 01:05:28.600,-0.114,-0.127,0.413,-0.50013915,-0.69627215,9.63993695,204000.0,344000.0,-315000.0,96945.4834,53.3,14.506310820575,-15.53135872,-34.57945633,35.75291061,-15.96000004,151.5798645,37.45501709,68.0
2018-07-21 01:05:28.640,-0.1113333333333333,-0.134,0.4113333333333333,-0.4903325,-0.3334261,9.617054766666666,208000.0,342000.0,-314333.3333333333,96945.61767666666,53.3,14.63231396675,-15.53135872,-34.57945633,35.75291061,-15.57999992,111.5679779,36.45718384,69.0
2018-07-21 01:05:28.680,-0.1086666666666666,-0.141,0.4096666666666666,-0.48052585,0.0294199499999999,9.594172583333334,212000.0,340000.0,-313666.6666666667,96945.75195333334,53.3,14.758317112925,-15.53135872,-34.57945633,35.75291061,-15.57999992,111.5679779,36.45718384,69.0
2018-07-21 01:05:28.720,-0.106,-0.148,0.408,-0.4707192,0.392266,9.5712904,216000.0,338000.0,-313000.0,96945.88623,53.3,14.8843202591,-16.779245375000002,-34.6909523,31.766758915,-15.375,94.95878601,35.9240284,70.0
2018-07-21 01:05:28.760,-0.0785,-0.1545,0.3934999999999999,-0.603108975,0.2157463,9.60071035,223000.0,332500.0,-313500.0,96949.49341,53.305,15.027058495422224,-18.02713203,-34.80244827,27.78060722,-15.17000008,78.34959412,35.39087296,71.0
2018-07-21 01:05:28.800,-0.051,-0.161,0.379,-0.73549875,0.0392266,9.6301303,230000.0,327000.0,-314000.0,96953.10059,53.31,15.169796731744444,-18.02713203,-34.80244827,27.78060722,-15.17000008,78.34959412,35.39087296,71.0
2018-07-21 01:05:28.840,-0.0809999999999999,-0.1646666666666666,0.3666666666666667,-0.7453054,0.1569064,9.724927916666667,233666.66666666663,324333.3333333333,-314666.6666666667,96954.43115666667,53.306666666666665,15.312534968066666,-18.02713203,-34.80244827,27.78060722,-14.73999977,49.01771545,34.27617645,72.0
2018-07-21 01:05:28.880,-0.1109999999999999,-0.1683333333333333,0.3543333333333333,-0.7551120499999999,0.2745862,9.819725533333331,237333.3333333333,321666.6666666667,-315333.3333333333,96955.76172333331,53.303333333333335,15.455273204388888,-18.02713203,-34.80244827,27.78060722,-14.73999977,49.01771545,34.27617645,72.0
2018-07-21 01:05:28.920,-0.141,-0.172,0.342,-0.7649187,0.392266,9.91452315,241000.0,319000.0,-316000.0,96957.09229,53.3,15.598011440711112,-18.02713203,-34.80244827,27.78060722,-14.28999996,12.95185089,33.10304642,74.0
2018-07-21 01:05:28.960,-0.181,-0.1795,0.3355,-0.7992419749999999,0.1569064,10.50292215,244000.0,314500.0,-318000.0,96960.20813,53.3,15.740749677033332,-18.02713203,-34.80244827,27.78060722,-14.28999996,12.95185089,33.10304642,74.0
2018-07-21 01:05:29.000,-0.221,-0.187,0.329,-0.83356525,-0.0784532,11.09132115,247000.0,310000.0,-320000.0,96963.32397,53.3,15.883487913355555,-18.02713203,-34.80244827,27.78060722,-14.28999996,12.95185089,33.10304642,74.0
2018-07-21 01:05:29.040,-0.151,-0.2075,0.312,-0.75511205,0.14709975,11.18938765,251000.0,306500.0,-319500.0,96966.55273,53.3,16.026226149677775,-18.02713203,-34.80244827,27.78060722,-13.81999969,-16.8964386,31.86419487,76.0
2018-07-21 01:05:29.080,-0.081,-0.228,0.295,-0.67665885,0.3726527,11.28745415,255000.0,303000.0,-319000.0,96969.78149,53.3,16.168964386,-18.02713203,-34.80244827,27.78060722,-13.81999969,-16.8964386,31.86419487,76.0
2018-07-21 01:05:29.120,-0.0726666666666666,-0.2366666666666666,0.2816666666666667,-0.6733899666666667,0.3497705166666666,11.2776475,256000.0,301666.6666666667,-320000.0,96971.36637,53.3,16.273811817183333,-18.644762035,-34.77619171,23.263231275000003,-13.57999992,-33.39624404999999,31.215553285,76.5
2018-07-21 01:05:29.160,-0.0643333333333333,-0.2453333333333333,0.2683333333333333,-0.6701210833333333,0.3268883333333333,11.26784085,257000.0,300333.3333333333,-321000.0,96972.95125,53.3,16.378659248366667,-19.26239204,-34.74993515,18.74585533,-13.34000015,-49.8960495,30.5669117,77.0
2018-07-21 01:05:29.200,-0.056,-0.254,0.255,-0.6668522,0.30400615,11.2580342,258000.0,299000.0,-322000.0,96974.53613,53.3,16.48350667955,-19.26239204,-34.74993515,18.74585533,-13.09499979,-65.522766115,29.88357735,78.0
2018-07-21 01:05:29.240,-0.076,-0.26,0.2435,-0.681562175,0.3138128,11.615976925,259500.0,294500.0,-325000.0,96977.98462,53.3,16.588354110733334,-19.26239204,-34.74993515,18.74585533,-12.84999943,-81.14948273,29.200243,79.0
2018-07-21 01:05:29.280,-0.096,-0.266,0.232,-0.69627215,0.32361945,11.97391965,261000.0,290000.0,-328000.0,96981.43311,53.3,16.693201541916668,-19.26239204,-34.74993515,18.74585533,-12.84999943,-81.14948273,29.200243,79.0
2018-07-21 01:05:29.320,-0.08375,-0.26775,0.223,-0.7869836625,0.161809725,11.8047549375,260500.0,287750.0,-330250.0,96984.237675,53.3,16.798048973100002,-19.26239204,-34.74993515,18.74585533,-12.686666173333334,-91.58897398666667,28.72277069333333,79.33333333333333
2018-07-21 01:05:29.360,-0.0715,-0.2695,0.214,-0.8776951749999999,0.0,11.635590225,260000.0,285500.0,-332500.0,96987.04224,53.3,16.902896404283332,-19.26239204,-34.74993515,18.74585533,-12.523332916666666,-102.02846524333332,28.245298386666665,79.66666666666667
2018-07-21 01:05:29.400,-0.05925,-0.27125,0.205,-0.9684066875,-0.1618097249999999,11.4664255125,259500.0,283250.0,-334750.0,96989.846805,53.3,17.007743835466666,-19.26239204,-34.74993515,18.74585533,-12.35999966,-112.4679565,27.76782608,80.0
2018-07-21 01:05:29.440,-0.047,-0.273,0.196,-1.0591182,-0.32361945,11.2972608,259000.0,281000.0,-337000.0,96992.65137,53.3,17.11259126665,-19.26239204,-34.74993515,18.74585533,-11.86999989,-138.8563232,26.27241135,82.0
2018-07-21 01:05:29.480,-0.0505,-0.2925,0.195,-0.946341725,-0.1078731499999999,11.341390725,259000.0,281000.0,-337000.0,96992.65137,53.3,17.217438697833334,-19.26239204,-34.74993515,18.74585533,-11.86999989,-138.8563232,26.27241135,82.0
2018-07-21 01:05:29.520,-0.054,-0.312,0.194,-0.83356525,0.10787315,11.38552065,259000.0,281000.0,-337000.0,96992.65137,53.3,17.322286129016668,-19.26239204,-34.74993515,18.74585533,-11.38000011,-142.7133484,24.72494888,83.0
2018-07-21 01:05:29.560,-0.072,-0.326,0.2025,-0.85317855,0.044129925,11.792496625,257000.0,278000.0,-340500.0,96995.43457,53.3,17.4271335602,-18.03848743,-34.28939247,14.190165519,-11.38000011,-142.7133484,24.72494888,83.0
2018-07-21 01:05:29.600,-0.09,-0.34,0.211,-0.87279185,-0.0196133,12.1994726,255000.0,275000.0,-344000.0,96998.21777,53.3,17.524636586525002,-16.81458282,-33.82884979,9.634475708,-11.38000011,-142.7133484,24.72494888,83.0
2018-07-21 01:05:29.640,-0.0844999999999999,-0.351,0.2175,-0.8825985000000001,-0.152003075,12.577028625,253500.0,273000.0,-347500.0,97001.348875,53.3,17.622139612850003,-16.81458282,-33.82884979,9.634475708,-10.88000011,-160.4127808,23.09805679,85.0
2018-07-21 01:05:29.680,-0.079,-0.362,0.224,-0.89240515,-0.28439285,12.95458465,252000.0,271000.0,-351000.0,97004.47998,53.3,17.719642639175,-16.81458282,-33.82884979,9.634475708,-10.88000011,-160.4127808,23.09805679,85.0
2018-07-21 01:05:29.720,-0.0836666666666666,-0.3576666666666666,0.2303333333333333,-0.9185562166666666,-0.3334261,13.0820711,249666.66666666663,270000.0,-354000.0,97007.15535333334,53.3,17.8171456655,-16.81458282,-33.82884979,9.634475708,-10.639999865,-173.48918155,22.26999378,85.5
2018-07-21 01:05:29.760,-0.0883333333333333,-0.3533333333333333,0.2366666666666666,-0.9447072833333332,-0.38245935,13.20955755,247333.3333333333,269000.0,-357000.0,97009.83072666668,53.3,17.914648691825,-16.81458282,-33.82884979,9.634475708,-10.39999962,-186.5655823,21.44193077,86.0
2018-07-21 01:05:29.800,-0.093,-0.349,0.243,-0.97085835,-0.4314926,13.337044,245000.0,268000.0,-360000.0,97012.5061,53.3,18.01215171815,-16.81458282,-33.82884979,9.634475708,-10.159999848,-199.05166625,20.58921051,87.0
2018-07-21 01:05:29.840,-0.077,-0.346,0.245,-0.9773961166666668,-0.4674503166666666,13.438379383333334,243333.3333333333,266666.6666666667,-362333.3333333333,97014.35953666669,53.29666666666667,18.109654744475,-16.81458282,-33.82884979,9.634475708,-9.920000076,-211.5377502,19.73649025,88.0
2018-07-21 01:05:29.880,-0.061,-0.343,0.247,-0.9839338833333332,-0.5034080333333333,13.539714766666666,241666.66666666663,265333.3333333333,-364666.6666666667,97016.21297333331,53.29333333333333,18.2071577708,-16.81458282,-33.82884979,9.634475708,-9.920000076,-211.5377502,19.73649025,88.0
2018-07-21 01:05:29.920,-0.045,-0.34,0.249,-0.99047165,-0.53936575,13.64105015,240000.0,264000.0,-367000.0,97018.06641,53.29,18.304660797125003,-16.81458282,-33.82884979,9.634475708,-9.920000076,-211.5377502,19.73649025,88.0
2018-07-21 01:05:29.960,-0.036,-0.3475,0.2565,-0.99047165,-0.53936575,13.79795655,238000.0,261500.0,-370000.0,97020.852665,53.295,18.40216382345,-16.81458282,-33.82884979,9.634475708,-9.460000038,-237.7693176,17.96803284,89.0
2018-07-21 01:05:30.000,-0.027,-0.355,0.264,-0.99047165,-0.53936575,13.95486295,236000.0,259000.0,-373000.0,97023.63892,53.3,18.499666849775,-16.81458282,-33.82884979,9.634475708,-9.2350001335,-248.7431488,17.064164165,90.0
2018-07-21 01:05:30.040,-0.0485,-0.3415,0.2734999999999999,-0.936535075,-0.3530394,13.871506425,234000.0,256500.0,-376500.0,97025.93079,53.295,18.5971698761,-16.81458282,-33.82884979,9.634475708,-9.010000229,-259.71698,16.16029549,91.0
2018-07-21 01:05:30.080,-0.07,-0.328,0.283,-0.8825985,-0.16671305,13.7881499,232000.0,254000.0,-380000.0,97028.22266,53.29,18.6477129459375,-12.72497177,-33.25712967,-1.782349706,-9.010000229,-259.71698,16.16029549,91.0
2018-07-21 01:05:30.120,-0.0735,-0.339,0.28525,-0.8678885249999999,-0.1372931,13.8494414625,229000.0,251250.0,-384000.0,97030.70679,53.29,18.698256015775,-12.72497177,-33.25712967,-1.782349706,-8.7950000765,-270.03326415,15.234963895,91.5
2018-07-21 01:05:30.160,-0.077,-0.35,0.2875,-0.85317855,-0.10787315,13.910733025,226000.0,248500.0,-388000.0,97033.19092,53.29,18.7487990856125,-12.72497177,-33.25712967,-1.782349706,-8.579999924,-280.3495483,14.3096323,92.0
2018-07-21 01:05:30.200,-0.0805,-0.361,0.2897499999999999,-0.838468575,-0.0784532,13.9720245875,223000.0,245750.0,-392000.0,97035.67505,53.29,18.79934215545,-12.72497177,-33.25712967,-1.782349706,-8.477499962,-283.46820065,13.83532071,92.5
2018-07-21 01:05:30.240,-0.084,-0.372,0.292,-0.8237586,-0.04903325,14.03331615,220000.0,243000.0,-396000.0,97038.15918,53.29,18.8498852252875,-12.72497177,-33.25712967,-1.782349706,-8.375,-286.586853,13.36100912,93.0
2018-07-21 01:05:30.280,-0.078,-0.369,0.292,-0.79433865,-0.04903325,13.71950335,220000.0,243000.0,-396000.0,97038.15918,53.29,18.900428295125,-12.72497177,-33.25712967,-1.782349706,-8.170000076,-292.8241577,12.41238594,94.0
2018-07-21 01:05:30.320,-0.0686666666666666,-0.3633333333333333,0.2946666666666666,-0.7878008833333333,-0.0523021333333333,13.752192183333332,218000.0,241000.0,-398333.3333333333,97039.53043666668,53.29,18.950971364962506,-12.72497177,-33.25712967,-1.782349706,-7.984999895,-296.48779295,11.459176065,94.5
2018-07-21 01:05:30.360,-0.0593333333333333,-0.3576666666666666,0.2973333333333333,-0.7812631166666667,-0.0555710166666666,13.784881016666668,216000.0,239000.0,-400666.6666666667,97040.90169333332,53.29,19.0015144348,-12.72497177,-33.25712967,-1.782349706,-7.799999714,-300.1514282,10.50596619,95.0
2018-07-21 01:05:30.400,-0.05,-0.352,0.3,-0.77472535,-0.0588399,13.81756985,214000.0,237000.0,-403000.0,97042.27295,53.29,19.055495897916668,-10.57962322,-33.2474556,-8.899269104,-7.799999714,-300.1514282,10.50596619,95.0
2018-07-21 01:05:30.440,-0.0705,-0.361,0.3065,-0.848275225,-0.210842975,14.234352475,211000.0,235000.0,-406500.0,97044.763185,53.29,19.10947736103333,-10.57962322,-33.2474556,-8.899269104,-7.440000057,-307.4651794,8.54929924,96.0
2018-07-21 01:05:30.480,-0.091,-0.37,0.313,-0.9218251,-0.36284605,14.6511351,208000.0,233000.0,-410000.0,97047.25342,53.29,19.16345882415,-10.57962322,-33.2474556,-8.899269104,-7.440000057,-307.4651794,8.54929924,96.0
2018-07-21 01:05:30.520,-0.0873333333333333,-0.3563333333333333,0.3123333333333333,-0.9479761666666666,-0.4086104166666666,14.517110883333332,203666.66666666663,230333.3333333333,-414333.3333333333,97051.06201333331,53.29,19.217440287266665,-10.57962322,-33.2474556,-8.899269104,-7.109999657,-324.4356079,6.573433399,98.0
2018-07-21 01:05:30.560,-0.0836666666666666,-0.3426666666666667,0.3116666666666666,-0.9741272333333332,-0.4543747833333333,14.383086666666667,199333.3333333333,227666.66666666663,-418666.6666666667,97054.87060666666,53.29,19.27142175038333,-10.57962322,-33.2474556,-8.899269104,-7.109999657,-324.4356079,6.573433399,98.0
2018-07-21 01:05:30.600,-0.08,-0.329,0.311,-1.0002783,-0.50013915,14.24906245,195000.0,225000.0,-423000.0,97058.6792,53.29,19.3254032135,-10.57962322,-33.2474556,-8.899269104,-7.109999657,-324.4356079,6.573433399,98.0
2018-07-21 01:05:30.640,-0.0445,-0.3415,0.311,-1.005181625,-0.5197524499999999,14.273579075,195000.0,225000.0,-423000.0,97058.6792,53.29,19.34214191437,-9.6288042055,-33.413124085,-12.570756912,-6.954999685500001,-328.4879608,5.577260970999999,98.5
2018-07-21 01:05:30.680,-0.009,-0.354,0.311,-1.01008495,-0.53936575,14.2980957,195000.0,225000.0,-423000.0,97058.6792,53.29,19.35888061524,-8.677985191,-33.57879257,-16.24224472,-6.799999714,-332.5403137,4.581088543,99.0
2018-07-21 01:05:30.720,-0.0156666666666666,-0.348,0.314,-0.9937405333333332,-0.5426346333333333,14.4353888,192333.3333333333,223000.0,-425000.0,97057.81860333332,53.29,19.37561931611,-8.677985191,-33.57879257,-16.24224472,-6.519999981,-342.3916016,2.569541216,100.0
2018-07-21 01:05:30.760,-0.0223333333333333,-0.342,0.317,-0.9773961166666666,-0.5459035166666667,14.5726819,189666.66666666663,221000.0,-427000.0,97056.95800666668,53.29,19.39235801698,-8.677985191,-33.57879257,-16.24224472,-6.519999981,-342.3916016,2.569541216,100.0
2018-07-21 01:05:30.800,-0.029,-0.336,0.32,-0.9610517,-0.5491724,14.709975,187000.0,219000.0,-429000.0,97056.09741,53.29,19.40909671785,-8.677985191,-33.57879257,-16.24224472,-6.519999981,-342.3916016,2.569541216,100.0
2018-07-21 01:05:30.840,-0.0565,-0.3295,0.3215,-0.9414384,-0.505042475,14.577585225,184000.0,215500.0,-432000.0,97058.547975,53.29,19.42583541872,-8.677985191,-33.57879257,-16.24224472,-6.259999752,-347.4414673,0.578946054,102.0
2018-07-21 01:05:30.880,-0.084,-0.323,0.323,-0.9218251,-0.46091255,14.44519545,181000.0,212000.0,-435000.0,97060.99854,53.29,19.44257411959,-8.677985191,-33.57879257,-16.24224472,-6.259999752,-347.4414673,0.578946054,102.0
2018-07-21 01:05:30.920,-0.095,-0.3273333333333333,0.323,-0.9414384,-0.4674503166666666,14.477884283333331,178333.33333333334,210666.66666666663,-437000.0,97062.22738,53.29,19.45931282046,-8.677985191,-33.57879257,-16.24224472,-6.1449997425,-348.36024475,-0.4296111165,102.5
2018-07-21 01:05:30.960,-0.106,-0.3316666666666666,0.323,-0.9610517,-0.4739880833333333,14.510573116666666,175666.66666666666,209333.3333333333,-439000.0,97063.45622,53.29,19.47605152133,-8.677985191,-33.57879257,-16.24224472,-6.029999733,-349.2790222,-1.438168287,103.0
2018-07-21 01:05:31.000,-0.117,-0.336,0.323,-0.980665,-0.48052585,14.54326195,173000.0,208000.0,-441000.0,97064.68506,53.29,19.4927902222,-7.527052878999999,-33.688142775,-21.29459667,-5.924999714,-348.15263365,-2.4462879895,103.5
2018-07-21 01:05:31.040,-0.117,-0.3105,0.3175,-0.995374975,-0.465815875,14.2980957,169000.0,205500.0,-444000.0,97066.223145,53.29,19.46516720456667,-6.951586723,-33.7428178775,-23.820772645,-5.8724997045,-347.589439375,-2.95034784075,103.75
2018-07-21 01:05:31.080,-0.117,-0.285,0.312,-1.01008495,-0.4511059,14.05292945,165000.0,203000.0,-447000.0,97067.76123,53.29,19.437544186933334,-6.376120567,-33.79749298,-26.34694862,-5.819999695,-347.0262451,-3.454407692,104.0
2018-07-21 01:05:31.120,-0.11975,-0.289,0.3105,-0.9880199875,-0.42168595,13.9377013125,162000.0,202500.0,-448750.0,97068.9727775,53.29,19.4099211693,-6.376120567,-33.79749298,-26.34694862,-5.639999866,-348.8696899,-5.436011314,105.0
2018-07-21 01:05:31.160,-0.1225,-0.293,0.309,-0.965955025,-0.392266,13.822473175,159000.0,202000.0,-450500.0,97070.184325,53.29,19.382298151666667,-6.376120567,-33.79749298,-26.34694862,-5.639999866,-348.8696899,-5.436011314,105.0
2018-07-21 01:05:31.200,-0.12525,-0.297,0.3075,-0.9438900625,-0.36284605,13.707245037500002,156000.0,201500.0,-452250.0,97071.3958725,53.29,19.354675134033336,-6.376120567,-33.79749298,-26.34694862,-5.5599999425,-346.7606506,-6.4313955305,105.5
2018-07-21 01:05:31.240,-0.128,-0.301,0.306,-0.9218251,-0.3334261,13.5920169,153000.0,201000.0,-454000.0,97072.60742,53.29,19.3270521164,-6.376120567,-33.79749298,-26.34694862,-5.480000019,-344.6516113,-7.426779747,106.0
2018-07-21 01:05:31.280,-0.11,-0.25,0.293,-0.95124505,-0.4314926,13.0036179,153000.0,201000.0,-454000.0,97072.60742,53.29,19.299429098766662,-6.376120567,-33.79749298,-26.34694862,-5.480000019,-344.6516113,-7.426779747,106.0
2018-07-21 01:05:31.320,-0.097,-0.2493333333333333,0.299,-0.9283628666666668,-0.2974683833333333,12.5917386,150666.66666666666,200333.3333333333,-454666.6666666667,97073.20556666669,53.29,19.27180608113333,-6.376120567,-33.79749298,-26.34694862,-5.480000019,-344.6516113,-7.426779747,106.0
2018-07-21 01:05:31.360,-0.0839999999999999,-0.2486666666666666,0.305,-0.9054806833333332,-0.1634441666666666,12.1798593,148333.33333333334,199666.66666666663,-455333.3333333333,97073.80371333331,53.29,19.244183063500003,-6.376120567,-33.79749298,-26.34694862,-5.329999924,-334.5489502,-9.406638145,107.0
2018-07-21 01:05:31.400,-0.071,-0.248,0.311,-0.8825985,-0.02941995,11.76798,146000.0,199000.0,-456000.0,97074.40186,53.29,19.216560045866668,-6.376120567,-33.79749298,-26.34694862,-5.2599999905,-325.34017945,-10.3824377075,107.5
2018-07-21 01:05:31.440,-0.103,-0.238,0.321,-0.926728425,-0.02941995,11.5522337,143500.0,198000.0,-457500.0,97075.48218,53.29,19.188937028233333,-6.376120567,-33.79749298,-26.34694862,-5.190000057,-316.1314087,-11.35823727,108.0
2018-07-21 01:05:31.480,-0.135,-0.228,0.331,-0.97085835,-0.02941995,11.3364874,141000.0,197000.0,-459000.0,97076.5625,53.29,19.1613140106,-4.970988274,-35.83560181,-37.37706375,-5.190000057,-316.1314087,-11.35823727,108.0
2018-07-21 01:05:31.520,-0.1343333333333333,-0.2456666666666666,0.3316666666666666,-0.9381695166666668,-0.0457643666666666,11.490124916666666,139000.0,196000.0,-460000.0,97075.56762666669,53.29,19.127523075436365,-4.970988274,-35.83560181,-37.37706375,-5.049999714,-296.0056152,-13.29162407,109.0
2018-07-21 01:05:31.560,-0.1336666666666666,-0.2633333333333333,0.3323333333333333,-0.9054806833333332,-0.0621087833333333,11.643762433333334,137000.0,195000.0,-461000.0,97074.57275333333,53.29,19.093732140272728,-4.970988274,-35.83560181,-37.37706375,-5.049999714,-296.0056152,-13.29162407,109.0
2018-07-21 01:05:31.600,-0.133,-0.281,0.333,-0.87279185,-0.0784532,11.79739995,135000.0,194000.0,-462000.0,97073.57788,53.29,19.05994120510909,-4.970988274,-35.83560181,-37.37706375,-4.974999904500001,-288.03796385,-14.237342835,109.5
2018-07-21 01:05:31.640,-0.098,-0.2915,0.3255,-0.858081875,-0.16671305,12.469155475,133000.0,193500.0,-463500.0,97076.07422,53.29,19.02615026994545,-4.970988274,-35.83560181,-37.37706375,-4.900000095,-280.0703125,-15.1830616,110.0
2018-07-21 01:05:31.680,-0.063,-0.302,0.318,-0.8433719,-0.2549729,13.140911,131000.0,193000.0,-465000.0,97078.57056,53.29,18.992359334781817,-4.970988274,-35.83560181,-37.37706375,-4.900000095,-280.0703125,-15.1830616,110.0
2018-07-21 01:05:31.720,-0.083,-0.3023333333333333,0.3176666666666666,-0.8106830666666667,-0.196133,13.340312883333333,129000.0,192666.66666666663,-466000.0,97078.57056,53.29,18.958568399618184,-4.970988274,-35.83560181,-37.37706375,-4.8299999235,-277.2850952,-16.12468529,110.5
2018-07-21 01:05:31.760,-0.103,-0.3026666666666666,0.3173333333333333,-0.7779942333333333,-0.1372931,13.539714766666666,127000.0,192333.3333333333,-467000.0,97078.57056,53.29,18.924777464454547,-4.970988274,-35.83560181,-37.37706375,-4.759999752,-274.4998779,-17.06630898,111.0
2018-07-21 01:05:31.800,-0.123,-0.303,0.317,-0.7453054,-0.0784532,13.73911665,125000.0,192000.0,-468000.0,97078.57056,53.29,18.89098652929091,-4.970988274,-35.83560181,-37.37706375,-4.759999752,-274.4998779,-17.06630898,111.0
2018-07-21 01:05:31.840,-0.119,-0.287,0.3083333333333333,-0.8237586,-0.12748645,13.337044,123333.33333333331,190666.66666666663,-468666.6666666667,97079.44132666668,53.29,18.857195594127276,-4.970988274,-35.83560181,-37.37706375,-4.694999933,-276.7306213,-17.98193932,111.5
2018-07-21 01:05:31.880,-0.115,-0.271,0.2996666666666666,-0.9022118,-0.1765197,12.93497135,121666.66666666669,189333.3333333333,-469333.3333333333,97080.31209333333,53.29,18.82340465896364,-4.970988274,-35.83560181,-37.37706375,-4.630000114,-278.9613647,-18.89756966,112.0
2018-07-21 01:05:31.920,-0.111,-0.255,0.291,-0.980665,-0.22555295,12.5328987,120000.0,188000.0,-470000.0,97081.18286,53.29,18.7896137238,-4.640909195,-36.925115585,-42.704826355,-4.569999933,-282.88993835,-19.787204745,112.5
2018-07-21 01:05:31.960,-0.119,-0.2485,0.2774999999999999,-0.946341725,-0.1372931,12.44463885,116500.0,188500.0,-471500.0,97082.461545,53.29,18.781916705081816,-4.310830116,-38.01462936,-48.03258896,-4.509999752,-286.818512,-20.67683983,113.0
2018-07-21 01:05:32.000,-0.127,-0.242,0.264,-0.91201845,-0.04903325,12.356379,113000.0,189000.0,-473000.0,97083.74023,53.29,18.77421968636364,-4.310830116,-38.01462936,-48.03258896,-4.444999933,-288.68637085,-21.56102753,113.0
2018-07-21 01:05:32.040,-0.1275,-0.241,0.26,-0.975761675,-0.1569064,12.0817928,109500.0,189000.0,-473500.0,97084.439085,53.29,18.766522667645454,-4.310830116,-38.01462936,-48.03258896,-4.380000114,-290.5542297,-22.44521523,113.0
2018-07-21 01:05:32.080,-0.128,-0.24,0.256,-1.0395049,-0.26477955,11.8072066,106000.0,189000.0,-474000.0,97085.13794,53.29,18.75882564892727,-4.310830116,-38.01462936,-48.03258896,-4.380000114,-290.5542297,-22.44521523,113.0
2018-07-21 01:05:32.120,-0.108,-0.25175,0.26225,-1.024794925,-0.308909475,11.9837263,102500.0,189500.0,-474750.0,97085.362245,53.2875,18.75112863020909,-4.310830116,-38.01462936,-48.03258896,-4.319999933,-284.04388425,-23.292904855,113.5
2018-07-21 01:05:32.160,-0.088,-0.2634999999999999,0.2685,-1.01008495,-0.3530394,12.160246,99000.0,190000.0,-475500.0,97085.58655,53.285,18.74343161149091,-4.310830116,-38.01462936,-48.03258896,-4.259999752,-277.5335388,-24.14059448,114.0
2018-07-21 01:05:32.200,-0.068,-0.27525,0.27475,-0.995374975,-0.3971693249999999,12.3367657,95500.0,190500.0,-476250.0,97085.810855,53.2825,18.73573459277273,-4.310830116,-38.01462936,-48.03258896,-4.259999752,-277.5335388,-24.14059448,114.0
2018-07-21 01:05:32.240,-0.048,-0.287,0.281,-0.980665,-0.44129925,12.5132854,92000.0,191000.0,-477000.0,97086.03516,53.28,18.728037574054547,-4.310830116,-38.01462936,-48.03258896,-4.199999809,-278.6390381,-24.97415638,114.5
2018-07-21 01:05:32.280,0.0,-0.285,0.302,-0.95124505,-0.2745862,12.1014061,92000.0,191000.0,-477000.0,97086.03516,53.28,18.720340555336364,-4.310830116,-38.01462936,-48.03258896,-4.139999866,-279.7445374,-25.80771828,115.0
2018-07-21 01:05:32.320,-0.0065,-0.27475,0.3055,-0.9733100125,-0.3113611375,11.9812746375,90250.0,190250.0,-477750.0,97087.617495,53.28,18.712643536618184,-4.10005503875,-38.4092388125,-50.48470688,-4.074999809,-275.1195984,-26.61847496,115.0
2018-07-21 01:05:32.360,-0.013,-0.2644999999999999,0.309,-0.995374975,-0.348136075,11.861143175,88500.0,189500.0,-478500.0,97089.19983,53.28,18.7049465179,-3.8892799615,-38.803848265,-52.9368248,-4.009999752,-270.4946594,-27.42923164,115.0
2018-07-21 01:05:32.400,-0.0195,-0.25425,0.3125,-1.0174399375,-0.3849110125,11.7410117125,86750.0,188750.0,-479250.0,97090.782165,53.28,18.66052207943,-3.748763243333333,-39.06692123333333,-54.57157008,-3.96333313,-264.0706431,-27.953316366666662,115.33333333333331
2018-07-21 01:05:32.440,-0.026,-0.244,0.316,-1.0395049,-0.42168595,11.62088025,85000.0,188000.0,-480000.0,97092.3645,53.28,18.61609764096,-3.6082465251666656,-39.329994201666665,-56.20631536,-3.916666508,-257.6466268,-28.47740109333333,115.66666666666669
2018-07-21 01:05:32.480,-0.032,-0.259,0.336,-1.04931155,-0.5099458,11.77778665,79000.0,184000.0,-482000.0,97092.3645,53.28,18.57167320249,-3.467729807,-39.59306717,-57.84106064,-3.869999886,-251.2226105,-29.00148582,116.0
2018-07-21 01:05:32.520,-0.0093333333333333,-0.2536666666666666,0.3396666666666667,-1.0002783000000002,-0.42168595,11.7287534,76666.66666666667,183000.0,-483000.0,97091.93522,53.28,18.52724876402,-3.467729807,-39.59306717,-57.84106064,-3.74000001,-239.8935242,-30.52814293,116.0
2018-07-21 01:05:32.560,0.0133333333333333,-0.2483333333333333,0.3433333333333333,-0.95124505,-0.3334261,11.67972015,74333.33333333333,182000.0,-484000.0,97091.50594,53.28,18.48282432555,-3.467729807,-39.59306717,-57.84106064,-3.74000001,-239.8935242,-30.52814293,116.0
2018-07-21 01:05:32.600,0.036,-0.243,0.347,-0.9022118,-0.24516625,11.6306869,72000.0,181000.0,-485000.0,97091.07666,53.28,18.43839988708,-3.467729807,-39.59306717,-57.84106064,-3.74000001,-239.8935242,-30.52814293,116.0
2018-07-21 01:05:32.640,0.0544999999999999,-0.248,0.3585,-0.818855275,-0.171616375,11.6503002,69500.0,179500.0,-486500.0,97093.71948,53.28,18.39397544861,-3.467729807,-39.59306717,-57.84106064,-3.599999905,-239.0716553,-31.99184036,117.0
2018-07-21 01:05:32.680,0.073,-0.253,0.37,-0.73549875,-0.0980665,11.6699135,67000.0,178000.0,-488000.0,97096.3623,53.28,18.34955101014,-3.467729807,-39.59306717,-57.84106064,-3.599999905,-239.0716553,-31.99184036,117.0
2018-07-21 01:05:32.720,0.0389999999999999,-0.253,0.373,-0.7820803375,-0.2034879875,11.6674618375,65250.0,176250.0,-489000.0,97096.5316725,53.2825,18.30512657167,-3.467729807,-39.59306717,-57.84106064,-3.524999857,-232.5709381,-32.69723129,117.0
2018-07-21 01:05:32.760,0.0049999999999999,-0.253,0.376,-0.828661925,-0.308909475,11.665010175,63500.0,174500.0,-490000.0,97096.701045,53.285,18.2607021332,-3.467729807,-39.59306717,-57.84106064,-3.449999809,-226.0702209,-33.40262222,117.0
2018-07-21 01:05:32.800,-0.029,-0.253,0.379,-0.8752435125,-0.4143309625,11.6625585125,61750.0,172750.0,-491000.0,97096.8704175,53.2875,18.209469556825,-3.649028182,-39.22467804,-63.429540635,-3.4149998425,-223.17791745,-33.7377529125,117.0
2018-07-21 01:05:32.840,-0.063,-0.253,0.382,-0.9218251,-0.51975245,11.66010685,60000.0,171000.0,-492000.0,97097.03979,53.29,18.15823698045,-3.830326557,-38.85628891,-69.01802063,-3.379999876,-220.285614,-34.072883605,117.0
2018-07-21 01:05:32.880,-0.031,-0.258,0.391,-0.7453054,-0.2549729,11.4149406,54000.0,164000.0,-494000.0,97096.20972,53.29,18.107004404075,-3.830326557,-38.85628891,-69.01802063,-3.309999943,-214.5010071,-34.74314499,117.0
2018-07-21 01:05:32.920,-0.01875,-0.25075,0.394,-0.7526603875,-0.1838746875,11.30706745,51250.0,162250.0,-495250.0,97096.9284075,53.2875,18.0557718277,-3.830326557,-38.85628891,-69.01802063,-3.259999911,-209.11814883333332,-35.17935053666667,117.33333333333331
2018-07-21 01:05:32.960,-0.0064999999999999,-0.2435,0.397,-0.760015375,-0.1127764749999999,11.199194299999998,48500.0,160500.0,-496500.0,97097.647095,53.285,18.004539251325,-3.830326557,-38.85628891,-69.01802063,-3.209999879,-203.73529056666663,-35.61555608333333,117.66666666666669
2018-07-21 01:05:33.000,0.00575,-0.23625,0.4,-0.7673703625,-0.0416782624999999,11.09132115,45750.0,158750.0,-497750.0,97098.3657825,53.2825,17.95330667495,-3.830326557,-38.85628891,-69.01802063,-3.159999847,-198.3524323,-36.05176163,118.0
2018-07-21 01:05:33.040,0.018,-0.229,0.403,-0.77472535,0.02941995,10.983448,43000.0,157000.0,-499000.0,97099.08447,53.28,17.902074098575,-3.830326557,-38.85628891,-69.01802063,-3.0,-185.0841522,-37.3001442,118.0
2018-07-21 01:05:33.080,0.058,-0.22,0.387,-0.8237586,-0.0392266,11.4737805,43000.0,157000.0,-499000.0,97099.08447,53.28,17.8508415222,-3.830326557,-38.85628891,-69.01802063,-3.0,-185.0841522,-37.3001442,118.0
2018-07-21 01:05:33.120,0.1,-0.2353333333333333,0.3806666666666666,-0.79433865,-0.1274864499999999,11.725484516666668,41333.333333333336,155000.0,-499666.6666666667,97100.39876,53.28333333333333,17.84727973936,-4.346309662,-38.595315935,-73.29208374,-2.914999962,-188.62018585,-37.891038895,118.0
2018-07-21 01:05:33.160,0.142,-0.2506666666666667,0.3743333333333333,-0.7649187,-0.2157462999999999,11.977188533333331,39666.66666666666,153000.0,-500333.3333333333,97101.71305,53.28666666666667,17.84371795652,-4.862292767,-38.33434296,-77.56614685,-2.829999924,-192.1562195,-38.48193359,118.0
2018-07-21 01:05:33.200,0.184,-0.266,0.368,-0.73549875,-0.30400615,12.22889255,38000.0,151000.0,-501000.0,97103.02734,53.29,17.84015617368,-4.862292767,-38.33434296,-77.56614685,-2.829999924,-192.1562195,-38.48193359,118.0
2018-07-21 01:05:33.240,0.076,-0.243,0.3665,-0.8237586,-0.2549729,11.733656725,34500.0,146000.0,-502500.0,97103.726195,53.285,17.83659439084,-4.862292767,-38.33434296,-77.56614685,-2.669999838,-182.6322632,-39.60713196,118.0
2018-07-21 01:05:33.280,-0.032,-0.22,0.365,-0.91201845,-0.20593965,11.2384209,31000.0,141000.0,-504000.0,97104.42505,53.28,17.833032608,-4.862292767,-38.33434296,-77.56614685,-2.669999838,-182.6322632,-39.60713196,118.0
2018-07-21 01:05:33.320,-0.0543333333333333,-0.215,0.36,-0.9054806833333332,-0.18632635,11.039019016666666,29000.0,138666.66666666666,-504666.6666666667,97104.20125333332,53.28,17.82947082516,-4.862292767,-38.33434296,-77.56614685,-2.5,-179.838562,-40.6858139,118.0
2018-07-21 01:05:33.360,-0.0766666666666666,-0.21,0.355,-0.8989429166666667,-0.16671305,10.839617133333334,27000.0,136333.33333333334,-505333.3333333333,97103.97745666667,53.28,17.82590904232,-4.862292767,-38.33434296,-77.56614685,-2.5,-179.838562,-40.6858139,118.0
2018-07-21 01:05:33.400,-0.099,-0.205,0.35,-0.89240515,-0.14709975,10.64021525,25000.0,134000.0,-506000.0,97103.75366,53.28,17.82234725948,-4.862292767,-38.33434296,-77.56614685,-2.5,-179.838562,-40.6858139,118.0
2018-07-21 01:05:33.440,-0.0895,-0.218,0.3565,-0.9218251,-0.2157463,10.684345175,21500.0,133500.0,-507000.0,97107.69348,53.285,17.81878547664,-4.862292767,-38.33434296,-77.56614685,-2.319999933,-181.5223694,-41.69057083,119.0
2018-07-21 01:05:33.480,-0.08,-0.231,0.363,-0.95124505,-0.28439285,10.7284751,18000.0,133000.0,-508000.0,97111.6333,53.29,17.8152236938,-4.862292767,-38.33434296,-77.56614685,-2.319999933,-181.5223694,-41.69057083,119.0
2018-07-21 01:05:33.520,-0.0584999999999999,-0.2275,0.3602499999999999,-0.9414384,-0.3162644624999999,10.71866845,15250.0,133750.0,-508000.0,97111.331175,53.2875,17.78950676546923,-5.669800758,-37.43226242,-87.63975525,-2.139999866,-178.5581665,-42.6487999,119.0
2018-07-21 01:05:33.560,-0.037,-0.224,0.3575,-0.93163175,-0.348136075,10.7088618,12500.0,134500.0,-508000.0,97111.02905,53.285,17.76378983713846,-5.669800758,-37.43226242,-87.63975525,-2.139999866,-178.5581665,-42.6487999,119.0
2018-07-21 01:05:33.600,-0.0155,-0.2205,0.35475,-0.9218251,-0.3800076875,10.69905515,9750.0,135250.0,-508000.0,97110.726925,53.2825,17.73807290880769,-5.669800758,-37.43226242,-87.63975525,-2.139999866,-178.5581665,-42.6487999,119.0
2018-07-21 01:05:33.640,0.006,-0.217,0.352,-0.91201845,-0.4118793,10.6892485,7000.0,136000.0,-508000.0,97110.4248,53.28,17.712355980476925,-5.669800758,-37.43226242,-87.63975525,-1.949999928,-164.3013,-43.54952621,119.0
2018-07-21 01:05:33.680,0.0055,-0.2225,0.367,-0.91201845,-0.392266,10.752991725,7000.0,136000.0,-508000.0,97110.4248,53.28,17.686639052146155,-5.669800758,-37.43226242,-87.63975525,-1.949999928,-164.3013,-43.54952621,119.0
2018-07-21 01:05:33.720,0.005,-0.228,0.382,-0.91201845,-0.3726527,10.81673495,7000.0,136000.0,-508000.0,97110.4248,53.28,17.660922123815386,-5.669800758,-37.43226242,-87.63975525,-1.844999969,-160.5208435,-43.971141815,119.0
2018-07-21 01:05:33.760,-0.009,-0.22,0.394,-0.85317855,-0.2745862,10.8853815,3500.0,134500.0,-508500.0,97110.85205,53.28,17.635205195484616,-5.669800758,-37.43226242,-87.63975525,-1.74000001,-156.740387,-44.39275742,119.0
2018-07-21 01:05:33.800,-0.023,-0.212,0.406,-0.79433865,-0.1765197,10.95402805,0.0,133000.0,-509000.0,97111.2793,53.28,17.609488267153846,-5.669800758,-37.43226242,-87.63975525,-1.74000001,-156.740387,-44.39275742,119.0
2018-07-21 01:05:33.840,0.0194999999999999,-0.221,0.402,-0.867888525,-0.2598762249999999,10.83634825,-1500.0,131500.0,-509000.0,97113.424685,53.28,17.583771338823077,-5.669800758,-37.43226242,-87.63975525,-1.50999999,-147.0439911,-45.17942047,119.0
2018-07-21 01:05:33.880,0.062,-0.23,0.398,-0.9414384,-0.34323275,10.71866845,-3000.0,130000.0,-509000.0,97115.57007,53.28,17.55805441049231,-5.669800758,-37.43226242,-87.63975525,-1.50999999,-147.0439911,-45.17942047,119.0
2018-07-21 01:05:33.920,0.078,-0.2233333333333333,0.398,-0.9479761666666666,-0.2909306166666666,10.54214875,-5333.333333333334,129666.66666666669,-509333.3333333333,97116.05428333332,53.28,17.53233748216154,-5.669800758,-37.43226242,-87.63975525,-1.3949999805000002,-147.5671768,-45.54400253,119.0
2018-07-21 01:05:33.960,0.094,-0.2166666666666666,0.398,-0.9545139333333332,-0.2386284833333333,10.36562905,-7666.666666666667,129333.33333333331,-509666.6666666667,97116.53849666668,53.28,17.50662055383077,-5.669800758,-37.43226242,-87.63975525,-1.279999971,-148.0903625,-45.90858459,119.0
2018-07-21 01:05:34.000,0.11,-0.21,0.398,-0.9610517,-0.18632635,10.18910935,-10000.0,129000.0,-510000.0,97117.02271,53.28,17.4809036255,-5.669800758,-37.43226242,-87.63975525,-1.279999971,-148.0903625,-45.90858459,119.0
2018-07-21 01:05:34.040,0.1075,-0.22,0.3935,-0.8825985,-0.04903325,10.086139525,-14000.0,126500.0,-510000.0,97118.359375,53.28,17.48265724183,-7.178276062,-35.93709183,-100.3947067,-1.049999952,-137.5184937,-46.5702095,118.0
2018-07-21 01:05:34.080,0.105,-0.23,0.389,-0.8041453,0.08825985,9.9831697,-18000.0,124000.0,-510000.0,97119.69604,53.28,17.48441085816,-7.178276062,-35.93709183,-100.3947067,-1.049999952,-137.5184937,-46.5702095,118.0
2018-07-21 01:05:34.120,0.0703333333333333,-0.2466666666666666,0.3796666666666666,-0.8204897166666666,-0.0359577166666666,10.646753016666668,-20333.33333333333,121666.66666666669,-510666.6666666667,97120.97371,53.28333333333333,17.48616447449,-7.178276062,-35.93709183,-100.3947067,-1.049999952,-137.5184937,-46.5702095,118.0
2018-07-21 01:05:34.160,0.0356666666666666,-0.2633333333333333,0.3703333333333333,-0.8368341333333333,-0.1601752833333333,11.310336333333332,-22666.666666666668,119333.33333333331,-511333.3333333333,97122.25138,53.28666666666667,17.48791809082,-7.178276062,-35.93709183,-100.3947067,-0.924999952,-138.42420199999998,-46.87410545,118.0
2018-07-21 01:05:34.200,0.001,-0.28,0.361,-0.85317855,-0.28439285,11.97391965,-25000.0,117000.0,-512000.0,97123.52905,53.29,17.489671707150002,-7.178276062,-35.93709183,-100.3947067,-0.799999952,-139.3299103,-47.1780014,118.0
2018-07-21 01:05:34.240,-0.072,-0.2655,0.3495,-0.8629852,-0.1569064,11.62088025,-28000.0,114500.0,-513000.0,97125.82092,53.285,17.49142532348,-7.178276062,-35.93709183,-100.3947067,-0.539999962,-137.8803253,-47.72828674,118.0
2018-07-21 01:05:34.280,-0.145,-0.251,0.338,-0.87279185,-0.02941995,11.26784085,-31000.0,112000.0,-514000.0,97128.11279,53.28,17.49317893981,-7.178276062,-35.93709183,-100.3947067,-0.539999962,-137.8803253,-47.72828674,118.0
2018-07-21 01:05:34.320,-0.175,-0.2593333333333333,0.332,-0.8401030166666666,-0.0719154333333333,11.519544866666669,-34666.666666666664,112333.33333333331,-514333.3333333333,97129.09749,53.28,17.49493255614,-7.178276062,-35.93709183,-100.3947067,-0.4099999815,-143.8621521,-47.972854615,118.0
2018-07-21 01:05:34.360,-0.205,-0.2676666666666666,0.326,-0.8074141833333334,-0.1144109166666666,11.771248883333334,-38333.333333333336,112666.66666666669,-514666.6666666667,97130.08219,53.28,17.49668617247,-7.178276062,-35.93709183,-100.3947067,-0.280000001,-149.8439789,-48.21742249,118.0
2018-07-21 01:05:34.400,-0.235,-0.276,0.32,-0.77472535,-0.1569064,12.0229529,-42000.0,113000.0,-515000.0,97131.06689,53.28,17.4984397888,-7.047193765499999,-35.739616395,-105.3771019,-0.1500000005,-154.3010712,-48.42822075,118.0
2018-07-21 01:05:34.440,-0.2754999999999999,-0.279,0.311,-0.740402075,-0.08825985,11.880756475,-47500.0,117000.0,-513500.0,97131.890865,53.28,17.51307381522222,-6.916111469,-35.54214096,-110.3594971,-0.02,-158.7581635,-48.63901901,118.0
2018-07-21 01:05:34.480,-0.316,-0.282,0.302,-0.7060788,-0.0196133,11.73856005,-53000.0,121000.0,-512000.0,97132.71484,53.28,17.527707841644443,-6.916111469,-35.54214096,-110.3594971,-0.02,-158.7581635,-48.63901901,118.0
2018-07-21 01:05:34.520,-0.328,-0.2956666666666666,0.3003333333333333,-0.6276256,0.0065377666666666,12.11121275,-57000.0,126000.0,-510666.6666666667,97133.62223,53.28,17.542341868066664,-6.916111469,-35.54214096,-110.3594971,0.239999995,-155.777359,-48.99216461,117.0
2018-07-21 01:05:34.560,-0.3399999999999999,-0.3093333333333333,0.2986666666666666,-0.5491724,0.0326888333333333,12.48386545,-61000.0,131000.0,-509333.3333333333,97134.52962,53.28,17.556975894488886,-6.916111469,-35.54214096,-110.3594971,0.239999995,-155.777359,-48.99216461,117.0
