time,field.angular_velocity.x,field.angular_velocity.y,field.angular_velocity.z,field.linear_acceleration.x,field.linear_acceleration.y,field.linear_acceleration.z,field.magnetic_field.x,field.magnetic_field.y,field.magnetic_field.z,field.fluid_pressure,field.temperature,field.alt_error,field.aspd_error,field.xtrack_error,field.wp_dist,field.measured.pitch,field.measured.roll,field.measured.yaw,fault_state,field.airspeed
58:19.4,0.631666667,-0.236,0.212666667,-1.356586583,1.9024901,11.9248864,294333.3333,174000,-366333.3333,97286.26505,38.60666667,-0.479999974,-1111.598145,-30.81369782,11.5,-0.033101872,-24.79742241,19.21140862,0,0
58:19.4,0.478333333,-0.229,0.201333333,-1.379468767,1.85345685,13.337044,293666.6667,161000,-373666.6667,97285.84188,38.60333333,-0.529999971,-1111.598145,-29.44503021,13,-0.033101872,-24.79742241,19.21140862,0,0
58:19.5,0.325,-0.222,0.19,-1.40235095,1.8044236,14.7492016,293000,148000,-381000,97285.4187,38.6,-0.680000007,-1117.021973,-26.74485397,15,-0.033101872,-24.79742241,19.21140862,0,0
58:19.5,0.318,-0.209333333,0.2,-1.4121576,1.846919083,15.06628328,291333.3333,142333.3333,-386333.3333,97285.0769,38.6,-0.680000007,-1117.021973,-26.74485397,15,-0.033101872,-24.79742241,19.21140862,0,0
58:19.6,0.311,-0.196666667,0.21,-1.42196425,1.889414567,15.38336497,289666.6667,136666.6667,-391666.6667,97284.73511,38.6,-0.680000007,-1117.021973,-26.74485397,15,-0.033101872,-24.79742241,19.21140862,0,0
58:19.6,0.304,-0.184,0.22,-1.4317709,1.93191005,15.70044665,288000,131000,-397000,97284.39331,38.6,-0.859999955,-1090.091187,-512.739502,18,-0.033101872,-24.79742241,19.21140862,0,0
58:19.6,0.132,-0.146,0.2335,-1.475900825,1.8828768,13.69989005,281000,119500,-402500,97281.44837,38.595,-0.859999955,-1090.091187,-512.739502,18,-0.033101872,-24.79742241,19.21140862,0,0
58:19.7,-0.04,-0.108,0.247,-1.52003075,1.83384355,11.69933345,274000,108000,-408000,97278.50342,38.59,-1.100000024,-990.0911255,-513.4411621,21,2.629291058,-13.66551781,13.37676144,0,0
58:19.7,-0.242333333,-0.083,0.245,-1.5298374,1.93191005,11.4541672,269000,108666.6667,-410333.3333,97276.6683,38.58666667,-1.100000024,-990.0911255,-513.4411621,21,2.629291058,-13.66551781,13.37676144,0,0
58:19.8,-0.444666667,-0.058,0.243,-1.53964405,2.02997655,11.20900095,264000,109333.3333,-412666.6667,97274.83317,38.58333333,-1.235000015,-961.282074,-513.766388,22,2.629291058,-13.66551781,13.37676144,0,0
58:19.8,-0.647,-0.033,0.241,-1.5494507,2.12804305,10.9638347,259000,110000,-415000,97272.99805,38.58,-1.370000005,-932.4730225,-514.0916138,23,2.629291058,-13.66551781,13.37676144,0,0
58:19.8,-0.718666667,0.001,0.189333333,-1.53964405,2.209765133,11.23515202,251333.3333,124000,-415666.6667,97271.78345,38.58,-1.370000005,-932.4730225,-514.0916138,23,2.629291058,-13.66551781,13.37676144,0,0
58:19.9,-0.790333333,0.035,0.137666667,-1.5298374,2.291487217,11.50646933,243666.6667,138000,-416333.3333,97270.56885,38.58,-1.519999981,-932.4730225,-514.3959046,24.5,2.629291058,-13.66551781,13.37676144,0,0
58:19.9,-0.862,0.069,0.086,-1.52003075,2.3732093,11.77778665,236000,152000,-417000,97269.35425,38.58,-1.669999957,-932.4730225,-514.7001953,26,2.629291058,-13.66551781,13.37676144,0,0
58:20.0,-0.752,0.141,-0.08,-1.569064,1.87307015,10.198916,215000,189000,-411000,97269.98291,38.57,-1.669999957,-932.4730225,-514.7001953,26,2.629291058,-13.66551781,13.37676144,0,0
58:20.0,-0.712,0.143333333,-0.118,-1.605021717,1.654054967,10.2381426,205666.6667,203333.3333,-406000,97266.50391,38.56666667,-1.769999941,-914.741923,-514.8805338,27,2.213073612,-18.01393636,12.5270106,0,0
58:20.0,-0.672,0.145666667,-0.156,-1.640979433,1.435039783,10.2773692,196333.3333,217666.6667,-401000,97263.0249,38.56333333,-1.869999925,-897.0108236,-515.0608724,28,1.796856165,-22.36235492,11.67725977,0,0
58:20.1,-0.632,0.148,-0.194,-1.67693715,1.2160246,10.3165958,187000,232000,-396000,97259.5459,38.56,-1.969999909,-879.2797241,-515.2412109,29,1.380638719,-26.71077347,10.82750893,0,0
58:20.1,-0.4815,0.1275,-0.24,-1.681840475,0.769822025,9.0417313,173000,245000,-393000,97258.77686,38.56,-2.269999981,-879.2797241,-515.7225952,31,1.380638719,-26.71077347,10.82750893,0,0
58:20.2,-0.331,0.107,-0.286,-1.6867438,0.32361945,7.7668668,159000,258000,-390000,97258.00781,38.56,-2.269999981,-879.2797241,-515.7225952,31,1.380638719,-26.71077347,10.82750893,0,0
58:20.2,-0.259333333,0.096666667,-0.258,-1.6867438,0.12748645,7.75706015,150000,266666.6667,-389333.3333,97256.76066,38.55666667,-2.539999962,-879.2797241,-516.1537476,34,1.380638719,-26.71077347,10.82750893,0,0
58:20.2,-0.187666667,0.086333333,-0.23,-1.6867438,-0.06864655,7.7472535,141000,275333.3333,-388666.6667,97255.51351,38.55333333,-2.539999962,-879.2797241,-516.1537476,34,1.380638719,-26.71077347,10.82750893,0,0
58:20.3,-0.116,0.076,-0.202,-1.6867438,-0.26477955,7.73744685,132000,284000,-388000,97254.26636,38.55,-2.659999967,-861.461731,-516.347992,35,1.380638719,-26.71077347,10.82750893,0,0
58:20.3,-0.0575,0.0865,-0.1225,-1.691647125,-0.387362675,7.546217175,126000,292500,-390000,97251.01929,38.55,-2.779999971,-843.6437378,-516.5422363,36,1.380638719,-26.71077347,10.82750893,0,0
58:20.4,0.001,0.097,-0.043,-1.69655045,-0.5099458,7.3549875,120000,301000,-392000,97247.77222,38.55,-2.779999971,-843.6437378,-516.5422363,36,1.380638719,-26.71077347,10.82750893,0,0
58:20.4,-0.002,0.097,0.02,-1.722701517,-0.542634633,7.152316733,117666.6667,304666.6667,-394333.3333,97246.57186,38.54666667,-2.879999995,-821.7145691,-516.7197876,37.5,1.315203906,-27.61684418,11.84619332,0,0
58:20.4,-0.005,0.097,0.083,-1.748852583,-0.575323467,6.949645967,115333.3333,308333.3333,-396666.6667,97245.3715,38.54333333,-2.980000019,-799.7854004,-516.8973389,39,1.249769092,-28.52291489,12.86487771,0,0
58:20.5,-0.008,0.097,0.146,-1.77500365,-0.6080123,6.7469752,113000,312000,-399000,97244.17114,38.54,-3.059999943,-799.7854004,-517.0661927,40,1.184334279,-29.42898559,13.88356209,0,0
58:20.5,-0.005,0.102,0.208,-1.770100325,-0.5295591,6.055606375,108000,313500,-401500,97243.71643,38.54,-3.139999866,-799.7854004,-517.2350464,41,1.118899465,-30.3350563,14.90224648,0,0
58:20.6,-0.002,0.107,0.27,-1.765197,-0.4511059,5.36423755,103000,315000,-404000,97243.26172,38.54,-3.139999866,-799.7854004,-517.2350464,41,1.118899465,-30.3350563,14.90224648,0,0
58:20.6,-0.034666667,0.102666667,0.285,-1.77500365,-0.336694983,5.367506433,102000,316000,-405000,97242.31771,38.53666667,-3.269999981,-799.7854004,-517.5307007,44,1.118899465,-30.3350563,14.90224648,0,0
58:20.6,-0.067333333,0.098333333,0.3,-1.7848103,-0.222284067,5.370775317,101000,317000,-406000,97241.3737,38.53333333,-3.269999981,-799.7854004,-517.5307007,44,1.118899465,-30.3350563,14.90224648,0,0
58:20.7,-0.1,0.094,0.315,-1.79461695,-0.10787315,5.3740442,100000,318000,-407000,97240.42969,38.53,-3.269999981,-799.7854004,-517.5307007,44,1.118899465,-30.3350563,14.90224648,0,0
58:20.7,-0.057,0.0995,0.3135,-1.770100325,-0.1569064,5.271074375,103000,315000,-406500,97242.19666,38.525,-3.349999905,-769.2969971,-517.8265991,46,1.118899465,-30.3350563,14.90224648,0,0
58:20.8,-0.014,0.105,0.312,-1.7455837,-0.20593965,5.16810455,106000,312000,-406000,97243.96362,38.52,-3.349999905,-769.2969971,-517.8265991,46,-2.448999643,-30.54532623,12.27596188,0,0
58:20.8,-0.051666667,0.096,0.314,-1.817499133,-0.130755333,5.387119733,111666.6667,311333.3333,-405000,97242.40519,38.52,-3.364999891,-769.2969971,-517.9532166,47,-2.448999643,-30.54532623,12.27596188,0,0
58:20.8,-0.089333333,0.087,0.316,-1.889414567,-0.055571017,5.606134917,117333.3333,310666.6667,-404000,97240.84676,38.52,-3.379999876,-769.2969971,-518.079834,48,-2.448999643,-30.54532623,12.27596188,0,0
58:20.9,-0.127,0.078,0.318,-1.96133,0.0196133,5.8251501,123000,310000,-403000,97239.28833,38.52,-3.379999876,-769.2969971,-518.079834,48,-2.448999643,-30.54532623,12.27596188,0,0
58:20.9,-0.111,0.075666667,0.305333333,-1.958061117,0.055571017,6.063778583,127666.6667,307666.6667,-401666.6667,97240.59855,38.51666667,-3.359999895,-742.12854,-518.3419189,51,-2.448999643,-30.54532623,12.27596188,0,0
58:21.0,-0.095,0.073333333,0.292666667,-1.954792233,0.091528733,6.302407067,132333.3333,305333.3333,-400333.3333,97241.90877,38.51333333,-3.359999895,-742.12854,-518.3419189,51,-2.448999643,-30.54532623,12.27596188,0,0
58:21.0,-0.079,0.071,0.28,-1.95152335,0.12748645,6.54103555,137000,303000,-399000,97243.21899,38.51,-3.289999962,-742.12854,-518.5528564,53,-2.448999643,-30.54532623,12.27596188,0,0
58:21.0,-0.1425,0.061,0.2645,-1.9221034,0.0784532,6.16838285,140500,300500,-396500,97244.15588,38.51,-3.289999962,-742.12854,-518.5528564,53,-2.448999643,-30.54532623,12.27596188,0,0
58:21.1,-0.206,0.051,0.249,-1.89268345,0.02941995,5.79573015,144000,298000,-394000,97245.09277,38.51,-3.169999838,-715.0202026,-518.7557373,56,-2.448999643,-30.54532623,12.27596188,0,0
58:21.1,-0.222,0.0475,0.246,-1.966233325,0.083356525,6.08992965,156000,300500,-391000,97244.0155,38.505,-3.169999838,-715.0202026,-518.7557373,56,-5.142229676,-31.19608593,9.771207096,0,0
58:21.2,-0.238,0.044,0.243,-2.0397832,0.1372931,6.38412915,168000,303000,-388000,97242.93823,38.5,-3.169999838,-715.0202026,-518.7557373,56,-7.835459709,-31.84684563,7.266452312,0,0
58:21.2,-0.229,0.033666667,0.228666667,-2.046320967,0.160175283,6.5704555,167000,301333.3333,-385666.6667,97245.46102,38.5,-3.089999914,-715.0202026,-518.835846,57,-7.835459709,-31.84684563,7.266452312,0,0
58:21.2,-0.22,0.023333333,0.214333333,-2.052858733,0.183057467,6.75678185,166000,299666.6667,-383333.3333,97247.9838,38.5,-3.00999999,-715.0202026,-518.9159546,58,-7.835459709,-31.84684563,7.266452312,0,0
58:21.3,-0.211,0.013,0.2,-2.0593965,0.20593965,6.9431082,165000,298000,-381000,97250.50659,38.5,-2.789999962,-684.9904785,-519.0512085,60,-7.835459709,-31.84684563,7.266452312,0,0
58:21.3,-0.192333333,0.015,0.192666667,-2.033245433,0.24516625,7.0411747,166666.6667,297666.6667,-378666.6667,97250.48625,38.49666667,-2.789999962,-684.9904785,-519.0512085,60,-7.835459709,-31.84684563,7.266452312,0,0
58:21.4,-0.173666667,0.017,0.185333333,-2.007094367,0.28439285,7.1392412,168333.3333,297333.3333,-376333.3333,97250.4659,38.49333333,-2.789999962,-684.9904785,-519.0512085,60,-7.835459709,-31.84684563,7.266452312,0,0
58:21.4,-0.155,0.019,0.178,-1.9809433,0.32361945,7.2373077,170000,297000,-374000,97250.44556,38.49,-2.664999962,-684.9904785,-519.0934449,61.5,-7.835459709,-31.84684563,7.266452312,0,0
58:21.4,-0.1535,0.0095,0.166,-1.97113665,0.161809725,7.2961476,178500,297000,-370000,97253.93677,38.485,-2.539999962,-684.9904785,-519.1356812,63,-7.835459709,-31.84684563,7.266452312,0,0
58:21.5,-0.152,1.89E-17,0.154,-1.96133,9.01E-16,7.3549875,187000,297000,-366000,97257.42798,38.48,-2.230000019,-766.7329712,-519.194519,65,-7.835459709,-31.84684563,7.266452312,0,0
58:21.5,-0.139666667,-0.007,0.165666667,-1.954792233,-0.134024217,7.459591767,188333.3333,294333.3333,-365000,97259.10441,38.48,-2.230000019,-766.7329712,-519.194519,65,-7.835459709,-31.84684563,7.266452312,0,0
58:21.6,-0.127333333,-0.014,0.177333333,-1.948254467,-0.268048433,7.564196033,189666.6667,291666.6667,-364000,97260.78085,38.48,-2.069999993,-766.7329712,-519.194519,66,-9.487955095,-33.45135594,5.28672719,0,0
58:21.6,-0.115,-0.021,0.189,-1.9417167,-0.40207265,7.6688003,191000,289000,-363000,97262.45728,38.48,-1.909999967,-766.7329712,-519.194519,67,-11.14045048,-35.05586624,3.307002068,0,0
58:21.6,-0.1115,-0.017,0.2075,-1.956426675,-0.279489525,7.801190075,201000,290500,-361000,97265.24659,38.475,-1.909999967,-766.7329712,-519.194519,67,-11.14045048,-35.05586624,3.307002068,0,0
58:21.7,-0.108,-0.013,0.226,-1.97113665,-0.1569064,7.93357985,211000,292000,-359000,97268.03589,38.47,-1.549999952,-747.4456787,-519.1688232,69,-11.14045048,-35.05586624,3.307002068,0,0
58:21.7,-0.152,-0.019,0.245333333,-1.967867767,-0.134024217,7.479205067,213000,287333.3333,-357000,97269.54753,38.47,-1.549999952,-747.4456787,-519.1688232,69,-11.14045048,-35.05586624,3.307002068,0,0
58:21.8,-0.196,-0.025,0.264666667,-1.964598883,-0.111142033,7.024830283,215000,282666.6667,-355000,97271.05916,38.47,-1.169999957,-747.4456787,-519.0927734,72,-11.14045048,-35.05586624,3.307002068,0,0
58:21.8,-0.24,-0.031,0.284,-1.96133,-0.08825985,6.5704555,217000,278000,-353000,97272.5708,38.47,-1.169999957,-747.4456787,-519.0927734,72,-11.14045048,-35.05586624,3.307002068,0,0
58:21.8,-0.195,-0.055,0.2925,-1.927006725,-0.196133,6.742071875,220500,275500,-350000,97272.61658,38.47,-1.169999957,-747.4456787,-519.0927734,72,-11.14045048,-35.05586624,3.307002068,0,0
58:21.9,-0.15,-0.079,0.301,-1.89268345,-0.30400615,6.91368825,224000,273000,-347000,97272.66235,38.47,-0.719999969,-737.9581299,-518.9824829,74,-11.14045048,-35.05586624,3.307002068,0,0
58:21.9,-0.079666667,-0.093,0.308333333,-1.89268345,-0.2353596,7.809362283,234000,269666.6667,-344666.6667,97275.95622,38.46666667,-0.719999969,-737.9581299,-518.9824829,74,-11.14045048,-35.05586624,3.307002068,0,0
58:22.0,-0.009333333,-0.107,0.315666667,-1.89268345,-0.16671305,8.705036317,244000,266333.3333,-342333.3333,97279.25008,38.46333333,-0.474999979,-733.7636719,-518.9021607,75,-12.6548276,-36.02114296,0.639414906,0,0
58:22.0,0.061,-0.121,0.323,-1.89268345,-0.0980665,9.60071035,254000,263000,-340000,97282.54395,38.46,-0.229999989,-729.5692139,-518.8218384,76,-14.16920471,-36.98641968,-2.028172255,0,0
58:22.0,0.065666667,-0.122333333,0.319666667,-1.8632635,-0.101335383,9.731465683,260333.3333,258000,-339666.6667,97284.9406,38.45666667,-0.229999989,-729.5692139,-518.8218384,76,-14.16920471,-36.98641968,-2.028172255,0,0
58:22.1,0.070333333,-0.123666667,0.316333333,-1.83384355,-0.104604267,9.862221017,266666.6667,253000,-339333.3333,97287.33724,38.45333333,0.025000006,-729.5692139,-518.720398,77.5,-14.16920471,-36.98641968,-2.028172255,0,0
58:22.1,0.075,-0.125,0.313,-1.8044236,-0.10787315,9.99297635,273000,248000,-339000,97289.73389,38.45,0.280000001,-729.5692139,-518.6189575,79,-14.16920471,-36.98641968,-2.028172255,0,0
58:22.2,0.073,-0.14,0.3075,-1.809326925,0.014709975,10.395049,287500,237500,-338500,97293.34717,38.45,0.280000001,-729.5692139,-518.6189575,79,-14.16920471,-36.98641968,-2.028172255,0,0
58:22.2,0.071,-0.155,0.302,-1.81423025,0.1372931,10.79712165,302000,227000,-338000,97296.96045,38.45,0.810000002,-728.2886353,-518.3565674,81,-14.16920471,-36.98641968,-2.028172255,0,0
58:22.2,0.0505,-0.159,0.3035,-1.819133575,0.0980665,10.44408225,312000,217500,-338500,97299.48426,38.445,0.810000002,-728.2886353,-518.3565674,81,-14.16920471,-36.98641968,-2.028172255,0,0
58:22.3,0.03,-0.163,0.305,-1.8240369,0.0588399,10.09104285,322000,208000,-339000,97302.00806,38.44,1.080000013,-728.2886353,-518.1875306,82,-14.96781635,-35.36161995,-5.40860498,0,0
58:22.3,-0.0295,-0.1705,0.2925,-1.779906975,0.112776475,9.9243298,328000,199000,-339500,97308.47474,38.44,1.350000024,-728.2886353,-518.0184937,83,-15.76642799,-33.73682022,-8.789037704,0,0
58:22.4,-0.089,-0.178,0.28,-1.73577705,0.16671305,9.75761675,334000,190000,-340000,97314.94141,38.44,1.350000024,-728.2886353,-518.0184937,83,-15.76642799,-33.73682022,-8.789037704,0,0
58:22.4,-0.059,-0.199666667,0.269333333,-1.703088217,0.228821833,11.11093445,341333.3333,185333.3333,-339666.6667,97317.92399,38.43666667,1.620000005,-734.8586121,-517.8280945,84,-15.76642799,-33.73682022,-8.789037704,0,0
58:22.4,-0.029,-0.221333333,0.258666667,-1.670399383,0.290930617,12.46425215,348666.6667,180666.6667,-339333.3333,97320.90658,38.43333333,1.889999986,-741.4285889,-517.6376953,85,-15.76642799,-33.73682022,-8.789037704,0,0
58:22.5,0.001,-0.243,0.248,-1.63771055,0.3530394,13.81756985,356000,176000,-339000,97323.88916,38.43,2.175000012,-741.4285889,-517.4094849,86.5,-15.76642799,-33.73682022,-8.789037704,0,0
58:22.5,-0.02125,-0.2485,0.2335,-1.573967325,0.247617913,14.15835094,360000,171000,-338250,97325.78583,38.43,2.460000038,-741.4285889,-517.1812744,88,-15.76642799,-33.73682022,-8.789037704,0,0
58:22.6,-0.0435,-0.254,0.219,-1.5102241,0.142196425,14.49913203,364000,166000,-337500,97327.6825,38.43,2.460000038,-741.4285889,-517.1812744,88,-15.76642799,-33.73682022,-8.789037704,0,0
58:22.6,-0.06575,-0.2595,0.2045,-1.446480875,0.036774938,14.83991311,368000,161000,-336750,97329.57916,38.43,2.735000014,-741.4285889,-516.9147339,89,-15.76642799,-33.73682022,-8.789037704,0,0
58:22.6,-0.088,-0.265,0.19,-1.38273765,-0.06864655,15.1806942,372000,156000,-336000,97331.47583,38.43,3.00999999,-741.4285889,-516.6481934,90,-15.76642799,-33.73682022,-8.789037704,0,0
58:22.7,-0.1645,-0.2605,0.2045,-1.348414375,0.034323275,15.1806942,375000,151000,-336500,97337.25891,38.425,3.00999999,-741.4285889,-516.6481934,90,-15.13513947,-32.63394547,-15.81705189,0,0
58:22.7,-0.241,-0.256,0.219,-1.3140911,0.1372931,15.1806942,378000,146000,-337000,97343.04199,38.42,3.539999962,-743.5960693,-516.0395508,92,-15.13513947,-32.63394547,-15.81705189,0,0
58:22.8,-0.2295,-0.273,0.222,-1.36312435,0.2745862,15.07282105,392500,138000,-331500,97344.86694,38.42,3.539999962,-743.5960693,-516.0395508,92,-15.13513947,-32.63394547,-15.81705189,0,0
58:22.8,-0.218,-0.29,0.225,-1.4121576,0.4118793,14.9649479,407000,130000,-326000,97346.69189,38.42,4.059999943,-743.5960693,-515.3379517,94,-15.13513947,-32.63394547,-15.81705189,0,0
58:22.8,-0.1575,-0.2935,0.204,-1.407254275,0.2353596,14.55797193,409000,125500,-327500,97352.45667,38.415,4.059999943,-743.5960693,-515.3379517,94,-15.13513947,-32.63394547,-15.81705189,0,0
58:22.9,-0.097,-0.297,0.183,-1.40235095,0.0588399,14.15099595,411000,121000,-329000,97358.22144,38.41,4.059999943,-743.5960693,-515.3379517,94,-15.13513947,-32.63394547,-15.81705189,0,0
58:22.9,-0.1,-0.3,0.182333333,-1.3533177,0.016344417,13.9842829,416666.6667,117666.6667,-327666.6667,97359.04745,38.41,4.539999962,-784.0332031,-514.5513306,97,-15.13513947,-32.63394547,-15.81705189,0,0
58:23.0,-0.103,-0.303,0.181666667,-1.30428445,-0.026151067,13.81756985,422333.3333,114333.3333,-326333.3333,97359.87345,38.41,4.539999962,-784.0332031,-514.5513306,97,-15.13513947,-32.63394547,-15.81705189,0,0
58:23.0,-0.106,-0.306,0.181,-1.2552512,-0.06864655,13.6508568,428000,111000,-325000,97360.69946,38.41,4.779999972,-784.0332031,-514.1117554,98,-15.13513947,-32.63394547,-15.81705189,0,0
58:23.0,-0.147,-0.314,0.1965,-1.22583125,-0.04903325,13.87150643,435000,104000,-324000,97365.68604,38.405,5.019999981,-784.0332031,-513.6721802,99,-15.13513947,-32.63394547,-15.81705189,0,0
58:23.1,-0.188,-0.322,0.212,-1.1964113,-0.02941995,14.09215605,442000,97000,-323000,97370.67261,38.4,5.25,-796.6418152,-513.1987,100,-15.13513947,-32.63394547,-15.81705189,0,0
58:23.1,-0.165,-0.3355,0.2225,-1.152281375,-0.044129925,14.19022255,446500,89000,-322000,97375.47608,38.4,5.480000019,-809.2504272,-512.7252197,101,-15.13513947,-32.63394547,-15.81705189,0,0
58:23.2,-0.142,-0.349,0.233,-1.10815145,-0.0588399,14.28828905,451000,81000,-321000,97380.27954,38.4,5.480000019,-809.2504272,-512.7252197,101,-11.9159708,-34.54034042,-25.14848328,0,0
58:23.2,-0.131333333,-0.354,0.242333333,-1.062387083,-0.04903325,14.68709282,454333.3333,81000,-321666.6667,97382.98543,38.4,5.704999924,-809.2504272,-512.2137909,102,-11.9159708,-34.54034042,-25.14848328,0,0
58:23.2,-0.120666667,-0.359,0.251666667,-1.016622717,-0.0392266,15.08589658,457666.6667,81000,-322333.3333,97385.69133,38.4,5.929999828,-809.2504272,-511.7023621,103,-11.9159708,-34.54034042,-25.14848328,0,0
58:23.3,-0.11,-0.364,0.261,-0.97085835,-0.02941995,15.48470035,461000,81000,-323000,97388.39722,38.4,5.929999828,-809.2504272,-511.7023621,103,-11.9159708,-34.54034042,-25.14848328,0,0
58:23.3,-0.0715,-0.37,0.252,-0.926728425,0,15.36211723,464000,70500,-322000,97390.46021,38.395,6.359999657,-794.8270874,-510.6034546,106,-11.9159708,-34.54034042,-25.14848328,0,0
58:23.4,-0.033,-0.376,0.243,-0.8825985,0.02941995,15.2395341,467000,60000,-321000,97392.52319,38.39,6.359999657,-794.8270874,-510.6034546,106,-11.9159708,-34.54034042,-25.14848328,0,0
58:23.4,-0.038333333,-0.378333333,0.244,-0.83356525,0.081722083,15.28856735,473666.6667,58666.66667,-320000,97396.15275,38.39,6.496666432,-800.0839844,-510.206014,106.6666667,-11.9159708,-34.54034042,-25.14848328,0,0
58:23.4,-0.043666667,-0.380666667,0.245,-0.784532,0.134024217,15.3376006,480333.3333,57333.33333,-319000,97399.78231,38.39,6.633333206,-805.3408813,-509.8085734,107.3333333,-11.9159708,-34.54034042,-25.14848328,0,0
58:23.5,-0.049,-0.383,0.246,-0.73549875,0.18632635,15.38663385,487000,56000,-318000,97403.41187,38.39,6.769999981,-810.5977783,-509.4111328,108,-11.9159708,-34.54034042,-25.14848328,0,0
58:23.5,-0.056666667,-0.392,0.243,-0.683196617,0.16671305,15.96849508,490333.3333,48666.66667,-320000,97404.28874,38.38666667,7.159999847,-810.5977783,-508.1347046,110,-11.9159708,-34.54034042,-25.14848328,0,0
58:23.6,-0.064333333,-0.401,0.24,-0.630894483,0.14709975,16.55035632,493666.6667,41333.33333,-322000,97405.16561,38.38333333,7.159999847,-810.5977783,-508.1347046,110,-8.609779358,-34.55365753,-34.71723175,0,0
58:23.6,-0.072,-0.41,0.237,-0.57859235,0.12748645,17.13221755,497000,34000,-324000,97406.04248,38.38,7.349999905,-810.5977783,-507.4820862,111,-8.609779358,-34.55365753,-34.71723175,0,0
58:23.6,-0.008,-0.3885,0.2375,-0.59820565,-0.014709975,16.7105316,493000,33000,-326000,97407.33643,38.38,7.539999962,-810.5977783,-506.8294678,112,-8.609779358,-34.55365753,-34.71723175,0,0
58:23.7,0.056,-0.367,0.238,-0.61781895,-0.1569064,16.28884565,489000,32000,-328000,97408.63037,38.38,7.879999638,-843.2537231,-505.4501343,114,-8.609779358,-34.55365753,-34.71723175,0,0
58:23.7,0.143,-0.365,0.237333333,-0.624356717,-0.0588399,16.11886372,494666.6667,25000,-329000,97412.05851,38.37666667,7.879999638,-843.2537231,-505.4501343,114,-8.609779358,-34.55365753,-34.71723175,0,0
58:23.8,0.23,-0.363,0.236666667,-0.630894483,0.0392266,15.94888178,500333.3333,18000,-330000,97415.48665,38.37333333,7.879999638,-843.2537231,-505.4501343,114,-8.609779358,-34.55365753,-34.71723175,0,0
58:23.8,0.317,-0.361,0.236,-0.63743225,0.1372931,15.77889985,506000,11000,-331000,97418.91479,38.37,8.034999609,-843.7537842,-504.6981964,115,-8.609779358,-34.55365753,-34.71723175,0,0
58:23.8,0.202,-0.3785,0.2345,-0.5099458,0.0588399,16.19077915,502500,500,-334500,97419.9646,38.37,8.18999958,-844.2538452,-503.9462585,116,-8.609779358,-34.55365753,-34.71723175,0,0
58:23.9,0.087,-0.396,0.233,-0.38245935,-0.0196133,16.60265845,499000,-10000,-338000,97421.0144,38.37,8.470000267,-830.4036255,-502.4451294,118,-8.609779358,-34.55365753,-34.71723175,0,0
58:23.9,0.119666667,-0.393,0.236666667,-0.405341533,0.045764367,16.9851178,494333.3333,-17000,-339000,97422.73559,38.36666667,8.470000267,-830.4036255,-502.4451294,118,-8.609779358,-34.55365753,-34.71723175,0,0
58:24.0,0.152333333,-0.39,0.240333333,-0.428223717,0.111142033,17.36757715,489666.6667,-24000,-340000,97424.45679,38.36333333,8.470000267,-830.4036255,-502.4451294,118,-8.609779358,-34.55365753,-34.71723175,0,0
58:24.0,0.185,-0.387,0.244,-0.4511059,0.1765197,17.7500365,485000,-31000,-341000,97426.17798,38.36,8.550000191,-830.4036255,-501.8939006,118.6666667,-8.609779358,-34.55365753,-34.71723175,0,0
58:24.0,0.2795,-0.366,0.235,-0.44129925,0.299102825,17.27441398,493000,-29500,-347500,97426.66931,38.36,8.630000114,-830.4036255,-501.3426717,119.3333333,-8.609779358,-34.55365753,-34.71723175,0,0
58:24.1,0.374,-0.345,0.226,-0.4314926,0.42168595,16.79879145,501000,-28000,-354000,97427.16064,38.36,8.710000038,-830.4036255,-500.7914429,120,-8.609779358,-34.55365753,-34.71723175,0,0
58:24.1,0.425,-0.337,0.209,-0.38245935,0.348136075,16.68601498,492000,-54000,-354000,97427.70691,38.355,8.799999714,-827.5735779,-500.18042,121,-5.727750898,-31.36190987,-41.23321343,0,0
58:24.2,0.476,-0.329,0.192,-0.3334261,0.2745862,16.5732385,483000,-80000,-354000,97428.25317,38.35,8.88999939,-824.7435303,-499.569397,122,-2.845722437,-28.1701622,-47.7491951,0,0
58:24.2,0.508,-0.327,0.183333333,-0.30400615,0.24516625,16.75956485,474000,-89000,-357000,97428.81469,38.35,8.964999676,-824.2434693,-498.6637726,123,-2.845722437,-28.1701622,-47.7491951,0,0
58:24.2,0.54,-0.325,0.174666667,-0.2745862,0.2157463,16.9458912,465000,-98000,-360000,97429.37622,38.35,9.039999962,-823.7434082,-497.7581482,124,-2.845722437,-28.1701622,-47.7491951,0,0
58:24.3,0.572,-0.323,0.166,-0.24516625,0.18632635,17.13221755,456000,-107000,-363000,97429.93774,38.35,9.079999924,-827.0988159,-496.8537293,125,-2.845722437,-28.1701622,-47.7491951,0,0
58:24.3,0.6005,-0.3015,0.165,-0.240262925,0.259876225,16.9458912,466500,-110500,-371000,97435.25696,38.345,9.119999886,-830.4542236,-495.9493103,126,-2.845722437,-28.1701622,-47.7491951,0,0
58:24.4,0.629,-0.28,0.164,-0.2353596,0.3334261,16.75956485,477000,-114000,-379000,97440.57617,38.34,9.119999886,-830.4542236,-495.9493103,126,-2.845722437,-28.1701622,-47.7491951,0,0
58:24.4,0.634666667,-0.268,0.152,-0.268048433,0.32361945,16.60265845,456000,-128333.3333,-382000,97439.14184,38.34,9.159999847,-831.4543457,-493.7318115,128,0.677727103,-18.74361229,-52.97920227,0,0
58:24.4,0.640333333,-0.256,0.14,-0.300737267,0.3138128,16.44575205,435000,-142666.6667,-385000,97437.70752,38.34,9.159999847,-831.4543457,-493.7318115,128,0.677727103,-18.74361229,-52.97920227,0,0
58:24.5,0.646,-0.244,0.128,-0.3334261,0.30400615,16.28884565,414000,-157000,-388000,97436.27319,38.34,9.159999847,-831.4543457,-493.7318115,128,0.677727103,-18.74361229,-52.97920227,0,0
58:24.5,0.678666667,-0.237,0.123666667,-0.356308283,0.349770517,16.43921428,417000,-160000,-389000,97434.63745,38.33666667,9.139999867,-829.5932007,-492.7355042,129,0.677727103,-18.74361229,-52.97920227,0,0
58:24.6,0.711333333,-0.23,0.119333333,-0.379190467,0.395534883,16.58958292,420000,-163000,-390000,97433.00171,38.33333333,9.119999886,-827.7320557,-491.7391968,130,0.677727103,-18.74361229,-52.97920227,0,0
58:24.6,0.744,-0.223,0.115,-0.40207265,0.44129925,16.73995155,423000,-166000,-391000,97431.36597,38.33,9.029999733,-827.7320557,-488.4237671,131,0.677727103,-18.74361229,-52.97920227,0,0
58:24.6,0.758,-0.1975,0.099,-0.4707192,0.514849125,16.18587583,411000,-182500,-396500,97434.17054,38.33,9.029999733,-827.7320557,-488.4237671,131,0.677727103,-18.74361229,-52.97920227,0,0
58:24.7,0.772,-0.172,0.083,-0.53936575,0.588399,15.6318001,399000,-199000,-402000,97436.9751,38.33,8.880000114,-799.7957153,-486.3840332,133,0.677727103,-18.74361229,-52.97920227,0,0
58:24.7,0.7685,-0.1585,0.054,-0.485429175,0.51975245,15.20521083,393000,-211500,-404000,97434.57337,38.325,8.880000114,-799.7957153,-486.3840332,133,0.677727103,-18.74361229,-52.97920227,0,0
58:24.8,0.765,-0.145,0.025,-0.4314926,0.4511059,14.77862155,387000,-224000,-406000,97432.17163,38.32,8.880000114,-799.7957153,-486.3840332,133,0.677727103,-18.74361229,-52.97920227,0,0
58:24.8,0.760666667,-0.124333333,0.01,-0.483794733,0.46091255,14.01370285,382666.6667,-232333.3333,-403666.6667,97431.78914,38.32,8.779999733,-799.7957153,-482.6848297,134,0.677727103,-18.74361229,-52.97920227,0,0
58:24.8,0.756333333,-0.103666667,-0.005,-0.536096867,0.4707192,13.24878415,378333.3333,-240666.6667,-401333.3333,97431.40666,38.32,8.679999352,-799.7957153,-478.9856262,135,0.677727103,-18.74361229,-52.97920227,0,0
58:24.9,0.752,-0.083,-0.02,-0.588399,0.48052585,12.48386545,374000,-249000,-399000,97431.02417,38.32,8.679999352,-799.7957153,-478.9856262,135,5.064606667,0.694295168,-56.66126633,0,0
58:24.9,0.7605,-0.0835,-0.0315,-0.5687857,0.36284605,12.36128233,366500,-267000,-395500,97427.26746,38.32,8.420000076,-772.0384521,-476.8840637,137,5.064606667,0.694295168,-56.66126633,0,0
58:25.0,0.769,-0.084,-0.043,-0.5491724,0.24516625,12.2386992,359000,-285000,-392000,97423.51074,38.32,8.420000076,-772.0384521,-476.8840637,137,5.064606667,0.694295168,-56.66126633,0,0
58:25.0,0.730333333,-0.077666667,-0.041333333,-0.555710167,0.3334261,12.0229529,357000,-294000,-387000,97421.30534,38.31666667,8.284999848,-772.0384521,-475.8560028,137.5,5.064606667,0.694295168,-56.66126633,0,0
58:25.0,0.691666667,-0.071333333,-0.039666667,-0.562247933,0.42168595,11.8072066,355000,-303000,-382000,97419.09993,38.31333333,8.149999619,-772.0384521,-474.8279419,138,5.064606667,0.694295168,-56.66126633,0,0
58:25.1,0.653,-0.065,-0.038,-0.5687857,0.5099458,11.5914603,353000,-312000,-377000,97416.89453,38.31,7.839999676,-725.8421021,-466.1571655,140,5.064606667,0.694295168,-56.66126633,0,0
58:25.1,0.6215,-0.05,-0.0595,-0.59820565,0.57859235,11.2580342,344000,-328000,-372500,97419.50073,38.31,7.839999676,-725.8421021,-466.1571655,140,5.064606667,0.694295168,-56.66126633,0,0
58:25.2,0.59,-0.035,-0.081,-0.6276256,0.6472389,10.9246081,335000,-344000,-368000,97422.10693,38.31,7.839999676,-725.8421021,-466.1571655,140,5.064606667,0.694295168,-56.66126633,0,0
58:25.2,0.548333333,-0.031666667,-0.102333333,-0.643970017,0.601474533,10.85269267,340666.6667,-347666.6667,-365666.6667,97420.17822,38.30666667,7.733333111,-726.1754761,-465.4584961,140.6666667,5.064606667,0.694295168,-56.66126633,0,0
58:25.2,0.506666667,-0.028333333,-0.123666667,-0.660314433,0.555710167,10.78077723,346333.3333,-351333.3333,-363333.3333,97418.24951,38.30333333,7.626666546,-726.5088501,-464.7598266,141.3333333,5.064606667,0.694295168,-56.66126633,0,0
58:25.3,0.465,-0.025,-0.145,-0.67665885,0.5099458,10.7088618,352000,-355000,-361000,97416.3208,38.3,7.519999981,-726.8422241,-464.0611572,142,5.064606667,0.694295168,-56.66126633,0,0
58:25.3,0.502,-0.0245,-0.1515,-0.6472389,0.4511059,10.56176205,348500,-362000,-351000,97414.54468,38.3,7.199999809,-697.7759399,-428.7309265,144,6.083191872,19.78153992,-54.83953094,0,0
58:25.4,0.539,-0.024,-0.158,-0.61781895,0.392266,10.4146623,345000,-369000,-341000,97412.76855,38.3,7.199999809,-697.7759399,-428.7309265,144,6.083191872,19.78153992,-54.83953094,0,0
58:25.4,0.417666667,-0.025,-0.151666667,-0.621087833,0.395534883,9.898178733,344666.6667,-381333.3333,-335000,97412.40844,38.29666667,7.044999838,-697.2758789,-247.6413689,145,6.083191872,19.78153992,-54.83953094,0,0
58:25.4,0.296333333,-0.026,-0.145333333,-0.624356717,0.398803767,9.381695167,344333.3333,-393666.6667,-329000,97412.04834,38.29333333,6.889999866,-696.7758179,-66.55181122,146,6.083191872,19.78153992,-54.83953094,0,0
58:25.5,0.175,-0.027,-0.139,-0.6276256,0.40207265,8.8652116,344000,-406000,-323000,97411.68823,38.29,6.589999676,-675.3572388,-65.56641388,148,6.083191872,19.78153992,-54.83953094,0,0
58:25.5,-0.209333333,-0.026666667,-0.101,-0.643970017,0.61781895,8.960009217,340666.6667,-403000,-323000,97407.94474,38.29,6.589999676,-675.3572388,-65.56641388,148,6.083191872,19.78153992,-54.83953094,0,0
58:25.6,-0.593666667,-0.026333333,-0.063,-0.660314433,0.83356525,9.054806833,337333.3333,-400000,-323000,97404.20125,38.29,6.44999981,-659.6549073,-64.25707436,149,6.083191872,19.78153992,-54.83953094,0,0
58:25.6,-0.978,-0.026,-0.025,-0.67665885,1.04931155,9.14960445,334000,-397000,-323000,97400.45776,38.29,6.309999943,-643.9525757,-62.94773483,150,6.083191872,19.78153992,-54.83953094,0,0
58:25.6,-1.158,0.009,-0.042,-0.709347683,1.222562367,9.921060917,333000,-385333.3333,-334666.6667,97400.07527,38.28666667,6.309999943,-643.9525757,-62.94773483,150,5.590481281,20.75027084,-52.98260117,0,0
58:25.7,-1.338,0.044,-0.059,-0.742036517,1.395813183,10.69251738,332000,-373666.6667,-346333.3333,97399.69279,38.28333333,6.179999829,-644.4526368,-62.52315903,151,5.590481281,20.75027084,-52.98260117,0,0
58:25.7,-1.518,0.079,-0.076,-0.77472535,1.569064,11.46397385,331000,-362000,-358000,97399.3103,38.28,6.049999714,-644.9526978,-62.09858322,152,5.590481281,20.75027084,-52.98260117,0,0
58:25.8,-1.386,0.103,-0.144,-0.67665885,1.61809725,12.0621795,305000,-294000,-394000,97396.09375,38.28,6.049999714,-644.9526978,-62.09858322,152,5.590481281,20.75027084,-52.98260117,0,0
58:25.8,-1.311666667,0.121,-0.182333333,-0.6864655,1.4709975,11.40513395,302333.3333,-273000,-405333.3333,97394.11418,38.27666667,5.918333133,-639.3630066,-60.56315295,153,5.590481281,20.75027084,-52.98260117,0,0
58:25.8,-1.237333333,0.139,-0.220666667,-0.69627215,1.32389775,10.7480884,299666.6667,-252000,-416666.6667,97392.1346,38.27333333,5.786666552,-633.7733155,-59.02772268,154,5.590481281,20.75027084,-52.98260117,0,0
58:25.9,-1.163,0.157,-0.259,-0.7060788,1.176798,10.09104285,297000,-231000,-428000,97390.15503,38.27,5.654999972,-628.1836243,-57.49229241,155,5.590481281,20.75027084,-52.98260117,0,0
58:25.9,-1.087333333,0.158666667,-0.257,-0.7453054,0.9414384,9.447072833,293000,-210666.6667,-433333.3333,97388.77157,38.27,5.519999981,-611.4145508,-57.15863037,156,5.590481281,20.75027084,-52.98260117,0,0
58:26.0,-1.011666667,0.160333333,-0.255,-0.784532,0.7060788,8.803102817,289000,-190333.3333,-438666.6667,97387.3881,38.27,5.379999876,-611.4145508,-53.99547959,157,4.335816503,8.652942537,-51.4733696,0,0
58:26.0,-0.936,0.162,-0.253,-0.8237586,0.4707192,8.1591328,285000,-170000,-444000,97386.00464,38.27,5.239999771,-611.4145508,-50.8323288,158,3.081151724,-3.444385767,-49.96413803,0,0
58:26.0,-0.8725,0.1415,-0.2315,-0.8433719,0.2353596,8.09048625,280500,-144000,-448000,97387.33826,38.27,5.239999771,-611.4145508,-50.8323288,158,3.081151724,-3.444385767,-49.96413803,0,0
58:26.1,-0.809,0.121,-0.21,-0.8629852,9.82E-16,8.0218397,276000,-118000,-452000,97388.67188,38.27,5.239999771,-611.4145508,-50.8323288,158,3.081151724,-3.444385767,-49.96413803,0,0
58:26.1,-0.749666667,0.110666667,-0.151333333,-0.846640783,-0.238628483,7.220963283,273000,-102333.3333,-454666.6667,97386.61703,38.26666667,4.980000019,-587.9862061,-50.35739136,160,3.081151724,-3.444385767,-49.96413803,0,0
58:26.2,-0.690333333,0.100333333,-0.092666667,-0.830296367,-0.477256967,6.420086867,270000,-86666.66667,-457333.3333,97384.56217,38.26333333,4.980000019,-587.9862061,-50.35739136,160,3.081151724,-3.444385767,-49.96413803,0,0
58:26.2,-0.631,0.09,-0.034,-0.81395195,-0.71588545,5.61921045,267000,-71000,-460000,97382.50732,38.26,4.859999895,-587.9862061,-50.11654282,161,3.081151724,-3.444385767,-49.96413803,0,0
58:26.2,-0.622,0.0675,0.036,-0.799241975,-0.740402075,5.271074375,266500,-56500,-460000,97379.44336,38.255,4.739999771,-587.9862061,-49.87569427,162,3.081151724,-3.444385767,-49.96413803,0,0
58:26.3,-0.613,0.045,0.106,-0.784532,-0.7649187,4.9229383,266000,-42000,-460000,97376.37939,38.25,4.549999714,-559.5889893,-47.48519135,164,3.081151724,-3.444385767,-49.96413803,0,0
58:26.3,-0.565666667,0.030333333,0.166666667,-0.784532,-0.562247933,5.338086483,266000,-33333.33333,-458666.6667,97375.44555,38.25,4.549999714,-559.5889893,-47.48519135,164,3.081151724,-3.444385767,-49.96413803,0,0
58:26.4,-0.518333333,0.015666667,0.227333333,-0.784532,-0.359577167,5.753234667,266000,-24666.66667,-457333.3333,97374.51172,38.25,4.549999714,-559.5889893,-47.48519135,164,0.768033326,-18.86667633,-48.04845428,0,0
58:26.4,-0.471,0.001,0.288,-0.784532,-0.1569064,6.16838285,266000,-16000,-456000,97373.57788,38.25,4.484999895,-559.5889893,-47.26903344,164.5,0.768033326,-18.86667633,-48.04845428,0,0
58:26.4,-0.4005,-0.015,0.3095,-0.8041453,0.024516625,8.48275225,268000,-7500,-456000,97374.18518,38.25,4.420000076,-559.5889893,-47.05287552,165,0.768033326,-18.86667633,-48.04845428,0,0
58:26.5,-0.33,-0.031,0.331,-0.8237586,0.20593965,10.79712165,270000,1000,-456000,97374.79248,38.25,4.420000076,-559.5889893,-47.05287552,165,0.768033326,-18.86667633,-48.04845428,0,0
58:26.5,-0.389666667,-0.025666667,0.314666667,-0.876060733,0.3334261,11.13054775,272666.6667,3666.666667,-455000,97373.91764,38.24666667,4.329999924,-527.8287964,-44.74149323,167,0.768033326,-18.86667633,-48.04845428,0,0
58:26.6,-0.449333333,-0.020333333,0.298333333,-0.928362867,0.46091255,11.46397385,275333.3333,6333.333333,-454000,97373.04281,38.24333333,4.329999924,-527.8287964,-44.74149323,167,0.768033326,-18.86667633,-48.04845428,0,0
58:26.6,-0.509,-0.015,0.282,-0.980665,0.588399,11.79739995,278000,9000,-453000,97372.16797,38.24,4.284999848,-527.8287964,-44.53024865,168,0.768033326,-18.86667633,-48.04845428,0,0
58:26.6,-0.4255,-0.0225,0.2525,-0.936535075,0.53936575,10.69415183,273500,16000,-449500,97371.71631,38.24,4.239999771,-527.8287964,-44.31900406,169,0.768033326,-18.86667633,-48.04845428,0,0
58:26.7,-0.342,-0.03,0.223,-0.89240515,0.4903325,9.5909037,269000,23000,-446000,97371.26465,38.24,4.239999771,-527.8287964,-44.31900406,169,0.768033326,-18.86667633,-48.04845428,0,0
58:26.7,-0.349,-0.024,0.2,-0.936535075,0.544269075,9.6693569,275500,29000,-444000,97370.30945,38.24,4.170000076,-524.1148071,-43.85659409,171,-1.597818971,-27.191679,-53.64864731,0,0
58:26.8,-0.356,-0.018,0.177,-0.980665,0.59820565,9.7478101,282000,35000,-442000,97369.35425,38.24,4.170000076,-524.1148071,-43.85659409,171,-1.597818971,-27.191679,-53.64864731,0,0
58:26.8,-0.320333333,-0.012333333,0.160666667,-0.954513933,0.621087833,9.407846233,277666.6667,34000,-438000,97369.03483,38.23666667,4.140000105,-524.1148071,-40.8129654,172,-1.597818971,-27.191679,-53.64864731,0,0
58:26.8,-0.284666667,-0.006666667,0.144333333,-0.928362867,0.643970017,9.067882367,273333.3333,33000,-434000,97368.71542,38.23333333,4.110000134,-524.1148071,-37.7693367,173,-1.597818971,-27.191679,-53.64864731,0,0
58:26.9,-0.249,-0.001,0.128,-0.9022118,0.6668522,8.7279185,269000,32000,-430000,97368.396,38.23,4.049999714,-491.4730225,-37.42183685,175,-1.597818971,-27.191679,-53.64864731,0,0
58:26.9,-0.222,-0.016,0.108333333,-0.876060733,0.496870267,8.499096667,273333.3333,35666.66667,-430666.6667,97368.94125,38.22666667,4.049999714,-491.4730225,-37.42183685,175,-1.597818971,-27.191679,-53.64864731,0,0
58:27.0,-0.195,-0.031,0.088666667,-0.849909667,0.326888333,8.270274833,277666.6667,39333.33333,-431333.3333,97369.48649,38.22333333,4.049999714,-491.4730225,-37.42183685,175,-1.597818971,-27.191679,-53.64864731,0,0
58:27.0,-0.168,-0.046,0.069,-0.8237586,0.1569064,8.041453,282000,43000,-432000,97370.03174,38.22,4.009999752,-491.4730225,-37.02506638,176,-1.597818971,-27.191679,-53.64864731,0,0
58:27.0,-0.053333333,-0.069666667,0.075333333,-0.8041453,-0.003268883,9.097302317,281000,45666.66667,-431333.3333,97368.89038,38.22,4.009999752,-491.4730225,-37.02506638,176,-1.597818971,-27.191679,-53.64864731,0,0
58:27.1,0.061333333,-0.093333333,0.081666667,-0.784532,-0.163444167,10.15315163,280000,48333.33333,-430666.6667,97367.74903,38.22,4.009999752,-480.4189759,-36.80251313,177,-1.597818971,-27.191679,-53.64864731,0,0
58:27.1,0.176,-0.117,0.088,-0.7649187,-0.32361945,11.20900095,279000,51000,-430000,97366.60767,38.22,4.009999752,-469.3649292,-36.57995987,178,-1.597818971,-27.191679,-53.64864731,0,0
58:27.2,0.2035,-0.111,0.1275,-0.760015375,-0.32361945,11.26784085,282500,45000,-430000,97369.6106,38.215,4.009999752,-469.3649292,-36.57995987,178,-1.597818971,-27.191679,-53.64864731,0,0
58:27.2,0.231,-0.105,0.167,-0.75511205,-0.32361945,11.32668075,286000,39000,-430000,97372.61353,38.21,4,-469.3649292,-36.08650208,180,-2.352523804,-29.92216492,-56.76832962,0,0
58:27.2,0.2265,-0.0835,0.197,-0.760015375,-0.220649625,9.95374975,290500,34500,-433500,97371.9574,38.21,4,-469.3649292,-36.08650208,180,-2.352523804,-29.92216492,-56.76832962,0,0
58:27.3,0.222,-0.062,0.227,-0.7649187,-0.1176798,8.58081875,295000,30000,-437000,97371.30127,38.21,4.009999752,-452.1385193,-32.03949356,182,-2.352523804,-29.92216492,-56.76832962,0,0
58:27.3,0.203333333,-0.075666667,0.240666667,-0.758380933,-0.065377667,9.1790244,292000,26333.33333,-439000,97370.63599,38.20666667,4.009999752,-452.1385193,-32.03949356,182,-2.352523804,-29.92216492,-56.76832962,0,0
58:27.4,0.184666667,-0.089333333,0.254333333,-0.751843167,-0.013075533,9.77723005,289000,22666.66667,-441000,97369.9707,38.20333333,4.009999752,-452.1385193,-32.03949356,182,-2.352523804,-29.92216492,-56.76832962,0,0
58:27.4,0.166,-0.103,0.268,-0.7453054,0.0392266,10.3754357,286000,19000,-443000,97369.30542,38.2,4.019999743,-452.6385804,-31.81895542,182.5,-2.352523804,-29.92216492,-56.76832962,0,0
58:27.4,0.129333333,-0.099,0.268,-0.748574283,0.06864655,10.40812453,284000,16333.33333,-444333.3333,97369.65332,38.2,4.029999733,-453.1386414,-31.59841728,183,-2.352523804,-29.92216492,-56.76832962,0,0
58:27.5,0.092666667,-0.095,0.268,-0.751843167,0.0980665,10.44081337,282000,13666.66667,-445666.6667,97370.00122,38.2,4.049999714,-446.5173798,-31.35615444,184,-2.685885907,-27.92799282,-59.0235157,0,0
58:27.5,0.056,-0.091,0.268,-0.75511205,0.12748645,10.4735022,280000,11000,-447000,97370.34912,38.2,4.069999695,-439.8961182,-31.1138916,185,-3.019248009,-25.93382072,-61.27870178,0,0
58:27.6,0.024,-0.089,0.266,-0.6864655,0.2353596,10.01258965,277000,1000,-450000,97366.35742,38.2,4.069999695,-439.8961182,-31.1138916,185,-3.019248009,-25.93382072,-61.27870178,0,0
58:27.6,-0.003666667,-0.088,0.252666667,-0.699541033,0.241897367,9.97336305,275000,-1333.333333,-450333.3333,97366.88639,38.19666667,4.1049999,-440.2232743,-30.7079978,186,-3.019248009,-25.93382072,-61.27870178,0,0
58:27.6,-0.031333333,-0.087,0.239333333,-0.712616567,0.248435133,9.93413645,273000,-3666.666667,-450666.6667,97367.41537,38.19333333,4.140000105,-440.5504303,-30.302104,187,-3.019248009,-25.93382072,-61.27870178,0,0
58:27.7,-0.059,-0.086,0.226,-0.7256921,0.2549729,9.89490985,271000,-6000,-451000,97367.94434,38.19,4.155000091,-440.8775864,-30.16318464,187.5,-3.019248009,-25.93382072,-61.27870178,0,0
58:27.7,-0.073,-0.0935,0.2205,-0.69627215,0.426589275,10.74318508,278000,-5500,-451000,97368.41736,38.19,4.170000076,-441.2047424,-30.02426529,188,-3.019248009,-25.93382072,-61.27870178,0,0
58:27.8,-0.087,-0.101,0.215,-0.6668522,0.59820565,11.5914603,285000,-5000,-451000,97368.89038,38.19,4.170000076,-441.2047424,-30.02426529,188,-3.019248009,-25.93382072,-61.27870178,0,0
58:27.8,-0.078333333,-0.086333333,0.187,-0.6864655,0.438030367,11.03901902,284000,-7666.666667,-448333.3333,97368.93921,38.19,4.204999924,-441.2047424,-27.2700615,189,-3.019248009,-25.93382072,-61.27870178,0,0
58:27.8,-0.069666667,-0.071666667,0.159,-0.7060788,0.277855083,10.48657773,283000,-10333.33333,-445666.6667,97368.98804,38.19,4.239999771,-441.2047424,-24.5158577,190,-3.019248009,-25.93382072,-61.27870178,0,0
58:27.9,-0.061,-0.057,0.131,-0.7256921,0.1176798,9.93413645,282000,-13000,-443000,97369.03687,38.19,4.309999943,-434.1009216,-24.06969833,191,-3.862110376,-26.0257206,-66.56898499,0,0
58:27.9,-0.031,-0.057333333,0.133,-0.73549875,0.1176798,9.75761675,278666.6667,-18333.33333,-443666.6667,97368.12541,38.18666667,4.309999943,-434.1009216,-24.06969833,191,-3.862110376,-26.0257206,-66.56898499,0,0
58:28.0,-0.001,-0.057666667,0.135,-0.7453054,0.1176798,9.58109705,275333.3333,-23666.66667,-444333.3333,97367.21395,38.18333333,4.309999943,-434.1009216,-24.06969833,191,-3.862110376,-26.0257206,-66.56898499,0,0
58:28.0,0.029,-0.058,0.137,-0.75511205,0.1176798,9.40457735,272000,-29000,-445000,97366.30249,38.18,4.345000029,-434.1009216,-23.82831478,192,-3.862110376,-26.0257206,-66.56898499,0,0
58:28.0,0.1065,-0.061,0.141,-0.7256921,0.093163175,9.7085835,272500,-32000,-443000,97368.17627,38.18,4.380000114,-434.1009216,-23.58693123,193,-3.862110376,-26.0257206,-66.56898499,0,0
58:28.1,0.184,-0.064,0.145,-0.69627215,0.06864655,10.01258965,273000,-35000,-441000,97370.05005,38.18,4.46999979,-414.6226807,-23.05888367,194,-3.862110376,-26.0257206,-66.56898499,0,0
58:28.1,0.216,-0.06,0.153333333,-0.71588545,-0.013075533,10.00932077,279333.3333,-37333.33333,-441666.6667,97371.88924,38.17666667,4.46999979,-414.6226807,-23.05888367,194,-3.862110376,-26.0257206,-66.56898499,0,0
58:28.2,0.248,-0.056,0.161666667,-0.73549875,-0.094797617,10.00605188,285666.6667,-39666.66667,-442333.3333,97373.72844,38.17333333,4.46999979,-414.6226807,-23.05888367,194,-3.862110376,-26.0257206,-66.56898499,0,0
58:28.2,0.28,-0.052,0.17,-0.75511205,-0.1765197,10.002783,292000,-42000,-443000,97375.56763,38.17,4.533333142,-414.4336039,-22.18333372,195,-3.862110376,-26.0257206,-66.56898499,0,0
58:28.2,0.42,-0.06,0.185,-0.69627215,-0.0196133,10.6304086,290000,-49000,-445000,97377.20032,38.17,4.596666495,-414.2445272,-21.30778376,196,-3.862110376,-26.0257206,-66.56898499,0,0
58:28.3,0.56,-0.068,0.2,-0.63743225,0.1372931,11.2580342,288000,-56000,-447000,97378.83301,38.17,4.659999847,-414.0554504,-20.43223381,197,-3.862110376,-26.0257206,-66.56898499,0,0
58:28.3,0.5105,-0.0665,0.196,-0.6864655,0.2157463,11.33158408,287500,-69000,-447000,97379.4159,38.17,4.659999847,-414.0554504,-20.43223381,197,-4.127939105,-23.42912388,-68.61339951,0,0
58:28.4,0.461,-0.065,0.192,-0.73549875,0.2941995,11.40513395,287000,-82000,-447000,97379.99878,38.17,4.659999847,-414.0554504,-20.43223381,197,-4.393767834,-20.83252716,-70.65781403,0,0
58:28.4,0.393,-0.066666667,0.186,-0.748574283,0.196133,11.37898288,286000,-89333.33333,-447333.3333,97379.12598,38.16666667,4.759999752,-414.0554504,-19.86541748,198,-4.393767834,-20.83252716,-70.65781403,0,0
58:28.4,0.325,-0.068333333,0.18,-0.761649817,0.0980665,11.35283182,285000,-96666.66667,-447666.6667,97378.25317,38.16333333,4.759999752,-414.0554504,-19.86541748,198,-4.393767834,-20.83252716,-70.65781403,0,0
58:28.5,0.257,-0.07,0.174,-0.77472535,1.39E-15,11.32668075,284000,-104000,-448000,97377.38037,38.16,4.759999752,-414.0554504,-19.86541748,198,-4.393767834,-20.83252716,-70.65781403,0,0
58:28.5,0.189,-0.0585,0.1865,-0.710982125,0.24516625,10.49801883,283000,-110000,-448500,97380.26734,38.16,4.849999905,-417.4295349,-17.87812042,200,-4.479634762,-15.71188164,-72.92396545,0,0
58:28.6,0.121,-0.047,0.199,-0.6472389,0.4903325,9.6693569,282000,-116000,-449000,97383.1543,38.16,4.929999828,-417.4295349,-17.33111763,201,-4.479634762,-15.71188164,-72.92396545,0,0
58:28.6,0.096666667,-0.054666667,0.177666667,-0.6472389,0.496870267,9.9243298,283333.3333,-118000,-449000,97383.18482,38.15666667,4.929999828,-417.4295349,-17.33111763,201,-4.479634762,-15.71188164,-72.92396545,0,0
58:28.6,0.072333333,-0.062333333,0.156333333,-0.6472389,0.503408033,10.1793027,284666.6667,-120000,-449000,97383.21533,38.15333333,4.929999828,-417.4295349,-17.33111763,201,-4.479634762,-15.71188164,-72.92396545,0,0
58:28.7,0.048,-0.07,0.135,-0.6472389,0.5099458,10.4342756,286000,-122000,-449000,97383.24585,38.15,4.929999828,-417.4295349,-17.33111763,201,-4.479634762,-15.71188164,-72.92396545,0,0
58:28.7,0.171,-0.055,0.097666667,-0.6668522,0.307275033,9.937405333,283666.6667,-125666.6667,-449666.6667,97383.95996,38.15,5.019999981,-410.6674194,-13.99141693,203,-4.479634762,-15.71188164,-72.92396545,0,0
58:28.8,0.294,-0.04,0.060333333,-0.6864655,0.104604267,9.440535067,281333.3333,-129333.3333,-450333.3333,97384.67407,38.15,5.064999819,-410.6674194,-13.75976038,203.5,-4.479634762,-15.71188164,-72.92396545,0,0
58:28.8,0.417,-0.025,0.023,-0.7060788,-0.0980665,8.9436648,279000,-133000,-451000,97385.38818,38.15,5.109999657,-410.6674194,-13.52810383,204,-4.479634762,-15.71188164,-72.92396545,0,0
58:28.8,0.4465,-0.023,0.0445,-0.671755525,-0.196133,9.213347675,291500,-140000,-446500,97383.36792,38.145,5.109999657,-410.6674194,-13.52810383,204,-4.479634762,-15.71188164,-72.92396545,0,0
58:28.9,0.476,-0.021,0.066,-0.63743225,-0.2941995,9.48303055,304000,-147000,-442000,97381.34766,38.14,5.159999848,-410.8710327,-13.30031395,204.5,-4.473246098,-12.91307211,-74.52550507,0,0
58:28.9,0.456666667,-0.026,0.092333333,-0.670121083,-0.209208533,9.702045733,301000,-156333.3333,-441666.6667,97381.32528,38.14,5.210000038,-411.074646,-13.07252407,205,-4.466857433,-10.11426258,-76.12704468,0,0
58:29.0,0.437333333,-0.031,0.118666667,-0.702809917,-0.124217567,9.921060917,298000,-165666.6667,-441333.3333,97381.3029,38.14,5.210000038,-411.074646,-13.07252407,205,-4.466857433,-10.11426258,-76.12704468,0,0
58:29.0,0.418,-0.036,0.145,-0.73549875,-0.0392266,10.1400761,295000,-175000,-441000,97381.28052,38.14,5.329999924,-411.074646,-11.30911255,207,-4.466857433,-10.11426258,-76.12704468,0,0
58:29.0,0.417,-0.046,0.1545,-0.65704555,0.00980665,10.39014568,292000,-187000,-437500,97382.42798,38.14,5.329999924,-411.074646,-11.30911255,207,-4.466857433,-10.11426258,-76.12704468,0,0
58:29.1,0.416,-0.056,0.164,-0.57859235,0.0588399,10.64021525,289000,-199000,-434000,97383.57544,38.14,5.384999991,-412.8210144,-11.10032559,207.5,-4.408286333,-7.389775276,-76.9226265,0,0
58:29.1,0.361,-0.047,0.163,-0.594936767,0.101335383,10.48984662,294333.3333,-208000,-432000,97385.77271,38.13666667,5.440000057,-414.5673828,-10.89153862,208,-4.349715233,-4.665287972,-77.71820831,0,0
58:29.2,0.306,-0.038,0.162,-0.611281183,0.143830867,10.33947798,299666.6667,-217000,-430000,97387.96997,38.13333333,5.440000057,-414.5673828,-10.89153862,208,-4.349715233,-4.665287972,-77.71820831,0,0
58:29.2,0.251,-0.029,0.161,-0.6276256,0.18632635,10.18910935,305000,-226000,-428000,97390.16724,38.13,5.549999714,-414.5673828,-9.252941132,210,-4.349715233,-4.665287972,-77.71820831,0,0
58:29.2,0.1985,-0.047,0.159,-0.61781895,0.357942725,10.591182,300500,-230000,-426000,97390.6128,38.13,5.549999714,-414.5673828,-9.252941132,210,-4.349715233,-4.665287972,-77.71820831,0,0
58:29.3,0.146,-0.065,0.157,-0.6080123,0.5295591,10.99325465,296000,-234000,-424000,97391.05835,38.13,5.59499979,-411.2647095,-9.084445,210.5,-4.349715233,-4.665287972,-77.71820831,0,0
58:29.3,0.108333333,-0.066333333,0.130666667,-0.59820565,0.634163367,11.16977435,295666.6667,-235666.6667,-423666.6667,97390.41138,38.12666667,5.639999866,-407.9620361,-8.915948868,211,-4.349715233,-4.665287972,-77.71820831,0,0
58:29.4,0.070666667,-0.067666667,0.104333333,-0.588399,0.738767633,11.34629405,295333.3333,-237333.3333,-423333.3333,97389.7644,38.12333333,5.639999866,-407.9620361,-8.915948868,211,-4.349715233,-4.665287972,-77.71820831,0,0
58:29.4,0.033,-0.069,0.078,-0.57859235,0.8433719,11.52281375,295000,-239000,-423000,97389.11743,38.12,5.730000019,-407.9620361,-4.947604179,213,-4.349715233,-4.665287972,-77.71820831,0,0
58:29.4,-0.0025,-0.065,0.0495,-0.588399,0.809048625,11.3168741,303500,-242500,-418000,97390.4419,38.12,5.730000019,-407.9620361,-4.947604179,213,-4.349715233,-4.665287972,-77.71820831,0,0
58:29.5,-0.038,-0.061,0.021,-0.59820565,0.77472535,11.11093445,312000,-246000,-413000,97391.76636,38.12,5.730000019,-407.9620361,-4.947604179,213,-4.349715233,-4.665287972,-77.71820831,0,0
58:29.5,-0.065,-0.056,-0.0245,-0.6080123,0.603108975,10.77750835,302000,-250500,-416000,97392.13562,38.12,5.809999943,-411.2980957,-4.814797878,214,-3.494385719,-0.10590139,-80.87224579,0,0
58:29.6,-0.092,-0.051,-0.07,-0.61781895,0.4314926,10.44408225,292000,-255000,-419000,97392.50488,38.12,5.809999943,-411.2980957,-4.814797878,214,-3.494385719,-0.10590139,-80.87224579,0,0
58:29.6,-0.075666667,-0.050333333,-0.075,-0.624356717,0.320350567,10.13026945,291666.6667,-251333.3333,-419333.3333,97393.26782,38.11666667,5.844999791,-411.2980957,-4.73797679,214.5,-3.494385719,-0.10590139,-80.87224579,0,0
58:29.6,-0.059333333,-0.049666667,-0.08,-0.630894483,0.209208533,9.81645665,291333.3333,-247666.6667,-419666.6667,97394.03076,38.11333333,5.879999638,-411.2980957,-4.661155701,215,-3.494385719,-0.10590139,-80.87224579,0,0
58:29.7,-0.043,-0.049,-0.085,-0.63743225,0.0980665,9.50264385,291000,-244000,-420000,97394.7937,38.11,5.879999638,-411.2980957,-4.661155701,215,-3.494385719,-0.10590139,-80.87224579,0,0
58:29.7,-0.019,-0.066,-0.069333333,-0.653776667,0.0392266,10.2773692,292666.6667,-248333.3333,-418666.6667,97393.96566,38.11,5.940000057,-410.6387024,-3.406003237,217,-3.494385719,-0.10590139,-80.87224579,0,0
58:29.8,0.005,-0.083,-0.053666667,-0.670121083,-0.0196133,11.05209455,294333.3333,-252666.6667,-417333.3333,97393.13761,38.11,6.009999752,-409.6386108,-3.323982477,218,-3.494385719,-0.10590139,-80.87224579,0,0
58:29.8,0.029,-0.1,-0.038,-0.6864655,-0.0784532,11.8268199,296000,-257000,-416000,97392.30957,38.11,6.009999752,-409.6386108,-3.323982477,218,-3.494385719,-0.10590139,-80.87224579,0,0
58:29.8,0.148,-0.1005,-0.0155,-0.612915625,-0.044129925,12.38089563,295000,-256500,-412500,97394.83643,38.11,6.009999752,-409.6386108,-3.323982477,218,-3.494385719,-0.10590139,-80.87224579,0,0
58:29.9,0.267,-0.101,0.007,-0.53936575,-0.00980665,12.93497135,294000,-256000,-409000,97397.36328,38.11,6.009999752,-409.6386108,-3.323982477,218,-3.494385719,-0.10590139,-80.87224579,0,0
58:29.9,0.223,-0.09975,0.02925,-0.566334038,-0.071098213,12.73148336,293500,-259250,-408750,97397.0459,38.1075,6.059999943,-400.6418152,-2.211978912,220,-3.494385719,-0.10590139,-80.87224579,0,0
58:30.0,0.179,-0.0985,0.0515,-0.593302325,-0.132389775,12.52799538,293000,-262500,-408500,97396.72852,38.105,6.07499981,-400.6418152,-2.209219337,220.5,-2.657656193,0.812534139,-80.41265487,0,0
58:30.0,0.135,-0.09725,0.07375,-0.620270612,-0.193681338,12.32450739,292500,-265750,-408250,97396.41113,38.1025,6.089999676,-400.6418152,-2.206459761,221,-1.820926666,1.730969667,-79.95306396,0,0
58:30.0,0.091,-0.096,0.096,-0.6472389,-0.2549729,12.1210194,292000,-269000,-408000,97396.09375,38.1,6.089999676,-400.6418152,-2.206459761,221,-1.820926666,1.730969667,-79.95306396,0,0
58:30.1,0.073,-0.092,0.111,-0.588399,-0.18632635,11.6306869,289000,-274000,-409000,97394.15283,38.1,6.089999676,-400.6418152,-2.206459761,221,-1.820926666,1.730969667,-79.95306396,0,0
58:30.1,0.117333333,-0.067666667,0.132,-0.572054583,-0.150368633,10.50292215,285333.3333,-277333.3333,-408666.6667,97394.83032,38.1,6.089999676,-397.9936523,-2.215047359,223,-1.820926666,1.730969667,-79.95306396,0,0
58:30.2,0.161666667,-0.043333333,0.153,-0.555710167,-0.114410917,9.3751574,281666.6667,-280666.6667,-408333.3333,97395.50781,38.1,6.089999676,-397.9936523,-2.215047359,223,-1.820926666,1.730969667,-79.95306396,0,0
58:30.2,0.206,-0.019,0.174,-0.53936575,-0.0784532,8.24739265,278000,-284000,-408000,97396.1853,38.1,6.079999924,-397.9936523,1.615304828,224,-1.820926666,1.730969667,-79.95306396,0,0
58:30.2,0.0345,-0.041,0.187,-0.554075725,0.230456275,8.703401875,279500,-288000,-406000,97396.71936,38.095,6.079999924,-397.9936523,1.615304828,224,-1.820926666,1.730969667,-79.95306396,0,0
58:30.3,-0.137,-0.063,0.2,-0.5687857,0.53936575,9.1594111,281000,-292000,-404000,97397.25342,38.09,6.079999924,-397.9936523,1.615304828,224,-1.820926666,1.730969667,-79.95306396,0,0
58:30.3,-0.197,-0.059666667,0.189,-0.562247933,0.67665885,9.427459533,279000,-290333.3333,-404000,97396.07951,38.09,6.069999695,-396.8576355,1.291957855,226,-1.820926666,1.730969667,-79.95306396,0,0
58:30.4,-0.257,-0.056333333,0.178,-0.555710167,0.81395195,9.695507967,277000,-288666.6667,-404000,97394.9056,38.09,6.069999695,-396.8576355,1.291957855,226,-1.820926666,1.730969667,-79.95306396,0,0
58:30.4,-0.317,-0.053,0.167,-0.5491724,0.95124505,9.9635564,275000,-287000,-404000,97393.73169,38.09,6.069999695,-396.8576355,0.978378892,227,-0.44040063,3.971514225,-83.39266205,0,0
58:30.4,-0.415,-0.03,0.0985,-0.485429175,1.171894675,10.7088618,272500,-288000,-406000,97395.23621,38.085,6.069999695,-396.8576355,0.978378892,227,-0.44040063,3.971514225,-83.39266205,0,0
58:30.5,-0.513,-0.007,0.03,-0.42168595,1.3925443,11.4541672,270000,-289000,-408000,97396.74072,38.08,6.079999924,-388.6161804,0.641534507,229,-0.44040063,3.971514225,-83.39266205,0,0
58:30.5,-0.495666667,0.001333333,-0.013333333,-0.424954833,1.229100133,11.52608263,266333.3333,-277666.6667,-411000,97396.58203,38.08,6.079999924,-388.6161804,0.641534507,229,-0.44040063,3.971514225,-83.39266205,0,0
58:30.6,-0.478333333,0.009666667,-0.056666667,-0.428223717,1.065655967,11.59799807,262666.6667,-266333.3333,-414000,97396.42334,38.08,6.07499981,-388.6161804,2.304941386,229.5,-0.44040063,3.971514225,-83.39266205,0,0
58:30.6,-0.461,0.018,-0.1,-0.4314926,0.9022118,11.6699135,259000,-255000,-417000,97396.26465,38.08,6.069999695,-388.6161804,3.968348265,230,-0.44040063,3.971514225,-83.39266205,0,0
58:30.6,-0.4755,0.0145,-0.1235,-0.505042475,0.75511205,11.20900095,261500,-246500,-421000,97397.07642,38.08,6.059999705,-379.3540955,3.679067493,231,-0.44040063,3.971514225,-83.39266205,0,0
58:30.7,-0.49,0.011,-0.147,-0.57859235,0.6080123,10.7480884,264000,-238000,-425000,97397.88818,38.08,6.049999714,-370.0920105,3.38978672,232,-0.44040063,3.971514225,-83.39266205,0,0
58:30.7,-0.491,0.012,-0.139666667,-0.591667883,0.604743417,10.49965327,265000,-228000,-427000,97396.62068,38.07666667,6.049999714,-370.0920105,3.38978672,232,-0.44040063,3.971514225,-83.39266205,0,0
58:30.8,-0.492,0.013,-0.132333333,-0.604743417,0.601474533,10.25121813,266000,-218000,-429000,97395.35319,38.07333333,6.049999714,-370.0920105,3.38978672,232,-0.44040063,3.971514225,-83.39266205,0,0
58:30.8,-0.493,0.014,-0.125,-0.61781895,0.59820565,10.002783,267000,-208000,-431000,97394.08569,38.07,6.039999724,-370.0920105,3.117203355,232.5,-0.44040063,3.971514225,-83.39266205,0,0
58:30.8,-0.4,0.005,-0.1265,-0.53936575,0.505042475,10.09104285,267500,-199500,-432000,97394.10706,38.07,6.029999733,-370.0920105,2.844619989,233,-0.44040063,3.971514225,-83.39266205,0,0
58:30.9,-0.307,-0.004,-0.128,-0.46091255,0.4118793,10.1793027,268000,-191000,-433000,97394.12842,38.07,6,-358.7675171,3.157005072,235,-0.466056317,-8.349556923,-81.88703918,0,0
58:30.9,-0.292,-0.004,-0.123666667,-0.457643667,0.30400615,10.17276493,265333.3333,-188000,-435333.3333,97393.72355,38.07,6,-358.7675171,3.157005072,235,-0.466056317,-8.349556923,-81.88703918,0,0
58:31.0,-0.277,-0.004,-0.119333333,-0.454374783,0.196133,10.16622717,262666.6667,-185000,-437666.6667,97393.31869,38.07,5.997499943,-355.0098953,3.015217901,235.25,-0.466056317,-8.349556923,-81.88703918,0,0
58:31.0,-0.262,-0.004,-0.115,-0.4511059,0.08825985,10.1596894,260000,-182000,-440000,97392.91382,38.07,5.994999886,-351.2522736,2.873430729,235.5,-0.466056317,-8.349556923,-81.88703918,0,0
58:31.0,-0.25,-0.018,-0.078,-0.4511059,0.093163175,10.30678915,260500,-174500,-441000,97394.66553,38.065,5.989999771,-343.73703,2.589856386,236,-0.466056317,-8.349556923,-81.88703918,0,0
58:31.1,-0.238,-0.032,-0.041,-0.4511059,0.0980665,10.4538889,261000,-167000,-442000,97396.41724,38.06,5.96999979,-343.73703,5.381496906,238,-0.466056317,-8.349556923,-81.88703918,0,0
58:31.1,-0.277333333,-0.035666667,-0.007666667,-0.4314926,0.104604267,10.47677108,261333.3333,-165333.3333,-442333.3333,97395.9961,38.06,5.96999979,-343.73703,5.381496906,238,-0.466056317,-8.349556923,-81.88703918,0,0
58:31.2,-0.316666667,-0.039333333,0.025666667,-0.4118793,0.111142033,10.49965327,261666.6667,-163666.6667,-442666.6667,97395.57495,38.06,5.9599998,-343.73703,4.990828276,238.5,-0.466056317,-8.349556923,-81.88703918,0,0
58:31.2,-0.356,-0.043,0.059,-0.392266,0.1176798,10.52253545,262000,-162000,-443000,97395.15381,38.06,5.949999809,-343.73703,4.600159645,239,-0.466056317,-8.349556923,-81.88703918,0,0
58:31.2,-0.3765,-0.042,0.072,-0.416782625,0.0588399,10.6304086,260500,-155000,-442000,97396.76819,38.06,5.949999809,-343.73703,4.600159645,239,-0.466056317,-8.349556923,-81.88703918,0,0
58:31.3,-0.397,-0.041,0.085,-0.44129925,1.32E-15,10.73828175,259000,-148000,-441000,97398.38257,38.06,5.929999828,-330.3750916,4.669473648,241,-0.033878271,-14.13401985,-80.99214935,0,0
58:31.3,-0.369666667,-0.046666667,0.102333333,-0.418417067,-0.094797617,10.87884373,254333.3333,-142000,-444000,97396.76514,38.05666667,5.929999828,-330.3750916,4.669473648,241,-0.033878271,-14.13401985,-80.99214935,0,0
58:31.4,-0.342333333,-0.052333333,0.119666667,-0.395534883,-0.189595233,11.01940572,249666.6667,-136000,-447000,97395.1477,38.05333333,5.929999828,-330.3750916,4.669473648,241,-0.033878271,-14.13401985,-80.99214935,0,0
58:31.4,-0.315,-0.058,0.137,-0.3726527,-0.28439285,11.1599677,245000,-130000,-450000,97393.53027,38.05,5.914999962,-330.3750916,4.274807692,241.5,-0.033878271,-14.13401985,-80.99214935,0,0
58:31.4,-0.304,-0.071,0.1845,-0.36284605,-0.230456275,11.34139073,251500,-119500,-450000,97393.97583,38.05,5.900000095,-330.3750916,3.880141735,242,-0.033878271,-14.13401985,-80.99214935,0,0
