time,field.angular_velocity.x,field.angular_velocity.y,field.angular_velocity.z,field.linear_acceleration.x,field.linear_acceleration.y,field.linear_acceleration.z,field.magnetic_field.x,field.magnetic_field.y,field.magnetic_field.z,field.fluid_pressure,field.temperature,field.alt_error,field.aspd_error,field.xtrack_error,field.wp_dist,field.measured.pitch,field.measured.roll,field.measured.yaw,fault_state,field.airspeed
2018-09-11 18:27:30.400,0.728,0.093,-0.077,0.7060788,1.0002783,10.5715687,-42000.0,-175000.0,-462000.0,97302.37427,41.25,-0.389999986,-361.223999,-37.31904221,7.0,1.685798407,12.40799141,-86.01924896,0.0,0.0
2018-09-11 18:27:30.440,0.728,0.093,-0.077,0.7060788,1.0002783,10.5715687,-42000.0,-175000.0,-462000.0,97302.37427,41.25,-0.389999986,-361.223999,-37.31904221,7.0,1.685798407,12.40799141,-86.01924896,0.0,0.0
2018-09-11 18:27:30.480,0.728,0.093,-0.077,0.7060788,1.0002783,10.5715687,-42000.0,-175000.0,-462000.0,97302.37427,41.25,-0.389999986,-361.223999,-37.31904221,7.0,1.685798407,12.40799141,-86.01924896,0.0,0.0
2018-09-11 18:27:30.520,0.7243333333333333,0.0423333333333333,-0.103,0.38245935,1.04931155,10.695786266666667,-40333.333333333336,-186666.66666666663,-462000.0,97300.37435,41.25,-0.539999962,-382.2584229,-35.32216263,9.0,1.685798407,12.40799141,-86.01924896,0.0,0.0
2018-09-11 18:27:30.560,0.7206666666666667,-0.0083333333333333,-0.129,0.0588399,1.0983448,10.820003833333333,-38666.66666666666,-198333.3333333333,-462000.0,97298.37443,41.25,-0.539999962,-382.2584229,-35.32216263,9.0,1.685798407,12.40799141,-86.01924896,0.0,0.0
2018-09-11 18:27:30.600,0.717,-0.059,-0.155,-0.26477955,1.14737805,10.9442214,-37000.0,-210000.0,-462000.0,97296.37451,41.25,-0.539999962,-382.2584229,-35.32216263,9.0,1.685798407,12.40799141,-86.01924896,0.0,0.0
2018-09-11 18:27:30.640,0.757,-0.005,-0.219,-0.53936575,0.6864655,11.13054775,-32000.0,-243000.0,-442000.0,97286.96899,41.25,-0.680000007,-382.2584229,-78.4018631,11.0,1.685798407,12.40799141,-86.01924896,0.0,0.0
2018-09-11 18:27:30.680,0.405,-0.00425,-0.1985,-0.63743225,0.6080123,10.6769901875,-32000.0,-249500.0,-437250.0,97285.53314,41.25,-0.75,-337.54959110000004,-78.46865463500001,12.0,1.22253418,18.1947279,-84.95846939,0.0,0.0
2018-09-11 18:27:30.720,0.053,-0.0035,-0.178,-0.73549875,0.5295591,10.223432625,-32000.0,-256000.0,-432500.0,97284.09729,41.25,-0.819999993,-292.8407593,-78.53544617,13.0,0.759269953,23.98146439,-83.89768982,0.0,0.0
2018-09-11 18:27:30.760,-0.299,-0.00275,-0.1575,-0.8335652499999999,0.4511059,9.7698750625,-32000.0,-262500.0,-427750.0,97282.66144,41.25,-0.819999993,-292.8407593,-78.53544617,13.0,0.759269953,23.98146439,-83.89768982,0.0,0.0
2018-09-11 18:27:30.800,-0.651,-0.002,-0.137,-0.93163175,0.3726527,9.3163175,-32000.0,-269000.0,-423000.0,97281.22559,41.25,-0.8849999905,-292.8407593,-78.618934635,14.0,0.759269953,23.98146439,-83.89768982,0.0,0.0
2018-09-11 18:27:30.840,-1.024,0.0084999999999999,-0.079,-0.887501825,0.446202575,9.644840275,-27000.0,-272000.0,-421000.0,97280.157475,41.25,-0.949999988,-292.8407593,-78.7024231,15.0,0.759269953,23.98146439,-83.89768982,0.0,0.0
2018-09-11 18:27:30.880,-1.397,0.019,-0.021,-0.8433719,0.51975245,9.97336305,-22000.0,-275000.0,-419000.0,97279.08936,41.25,-0.949999988,-292.8407593,-78.7024231,15.0,0.759269953,23.98146439,-83.89768982,0.0,0.0
2018-09-11 18:27:30.920,-1.403,0.0665,-0.021,-0.87279185,0.583495675,9.850779925,-21500.0,-254500.0,-434000.0,97275.057985,41.25,-1.090000033,-275.3183289,-78.90279388,17.0,0.759269953,23.98146439,-83.89768982,0.0,0.0
2018-09-11 18:27:30.960,-1.409,0.114,-0.021,-0.9022118,0.6472389,9.7281968,-21000.0,-234000.0,-449000.0,97271.02661,41.25,-1.090000033,-275.3183289,-78.90279388,17.0,0.759269953,23.98146439,-83.89768982,0.0,0.0
2018-09-11 18:27:31.000,-1.36325,0.12275,-0.026,-0.9291800875,0.583495675,9.855683249999998,-25000.0,-218500.0,-460750.0,97269.4747925,41.2475,-1.090000033,-275.3183289,-78.90279388,17.0,0.759269953,23.98146439,-83.89768982,0.0,0.0
2018-09-11 18:27:31.040,-1.3175,0.1315,-0.031,-0.956148375,0.5197524499999999,9.9831697,-29000.0,-203000.0,-472500.0,97267.922975,41.245000000000005,-1.1400000253333331,-275.3183289,-78.97329711666667,17.333333333333332,0.759269953,23.98146439,-83.89768982,0.0,0.0
2018-09-11 18:27:31.080,-1.27175,0.1402499999999999,-0.036,-0.9831166625,0.4560092249999999,10.11065615,-33000.0,-187500.0,-484250.0,97266.3711575,41.2425,-1.1900000176666663,-275.3183289,-79.04380035333334,17.666666666666668,0.759269953,23.98146439,-83.89768982,0.0,0.0
2018-09-11 18:27:31.120,-1.226,0.149,-0.041,-1.01008495,0.392266,10.2381426,-37000.0,-172000.0,-496000.0,97264.81934,41.24,-1.24000001,-275.3183289,-79.11430359,18.0,0.759269953,23.98146439,-83.89768982,0.0,0.0
2018-09-11 18:27:31.160,-1.185,0.126,-0.0385,-1.08853815,0.4314926,10.066526225,-34000.0,-145500.0,-507000.0,97264.81934,41.24,-1.314999998,-264.0289307,-79.214488985,19.0,-0.4983295199999999,10.2840367575,-83.14176178,0.0,0.0
2018-09-11 18:27:31.200,-1.144,0.103,-0.036,-1.16699135,0.4707192,9.89490985,-31000.0,-119000.0,-518000.0,97264.81934,41.24,-1.389999986,-252.7395325,-79.31467438,20.0,-1.755928993,-3.413390875,-82.38583374,0.0,0.0
2018-09-11 18:27:31.240,-1.0764999999999998,0.1315,-0.0295,-1.18660465,0.406975975,9.32612415,-27500.0,-94000.0,-526000.0,97264.3219,41.24,-1.469999969,-252.7395325,-79.40929794499999,21.0,-1.755928993,-3.413390875,-82.38583374,0.0,0.0
2018-09-11 18:27:31.280,-1.009,0.16,-0.023,-1.20621795,0.34323275,8.75733845,-24000.0,-69000.0,-534000.0,97263.82446,41.24,-1.549999952,-252.7395325,-79.50392151,22.0,-1.755928993,-3.413390875,-82.38583374,0.0,0.0
2018-09-11 18:27:31.320,-0.911,0.208,0.0034999999999999,-1.289574475,0.191229675,7.085304625000001,-25000.0,-43000.0,-538000.0,97261.743165,41.24,-1.6299999355,-245.00055695,-79.57071304499999,23.0,-1.755928993,-3.413390875,-82.38583374,0.0,0.0
2018-09-11 18:27:31.360,-0.813,0.256,0.03,-1.372931,0.0392266,5.4132708,-26000.0,-17000.0,-542000.0,97259.66187,41.24,-1.709999919,-237.2615814,-79.63750458,24.0,-1.755928993,-3.413390875,-82.38583374,0.0,0.0
2018-09-11 18:27:31.400,-0.7823333333333333,0.269,0.0396666666666666,-1.4285020166666669,0.0359577166666666,5.67805035,-24333.33333333333,-4333.333333333334,-542000.0,97259.68221333332,41.24,-1.7449999155,-237.2615814,-79.67090034750001,24.5,-1.755928993,-3.413390875,-82.38583374,0.0,0.0
2018-09-11 18:27:31.440,-0.7516666666666666,0.282,0.0493333333333333,-1.4840730333333332,0.0326888333333333,5.9428299,-22666.666666666668,8333.333333333332,-542000.0,97259.70255666666,41.24,-1.779999912,-237.2615814,-79.704296115,25.0,-1.755928993,-3.413390875,-82.38583374,0.0,0.0
2018-09-11 18:27:31.480,-0.721,0.295,0.059,-1.53964405,0.02941995,6.20760945,-21000.0,21000.0,-542000.0,97259.7229,41.24,-1.859999925,-220.96710205,-79.7710857425,26.5,-1.755928993,-3.413390875,-82.38583374,0.0,0.0
2018-09-11 18:27:31.520,-0.6966666666666667,0.3,0.0593333333333333,-1.5232996333333333,0.1732508166666666,5.155029016666666,-17000.0,32333.333333333336,-542000.0,97258.81551,41.24,-1.939999938,-204.6726227,-79.83787537,28.0,-1.755928993,-3.413390875,-82.38583374,0.0,0.0
2018-09-11 18:27:31.560,-0.6723333333333333,0.305,0.0596666666666666,-1.5069552166666669,0.3170816833333333,4.102448583333333,-13000.0,43666.66666666667,-542000.0,97257.90812,41.24,-1.939999938,-204.6726227,-79.83787537,28.0,-1.755928993,-3.413390875,-82.38583374,0.0,0.0
2018-09-11 18:27:31.600,-0.648,0.31,0.06,-1.4906108,0.46091255,3.04986815,-9000.0,55000.0,-542000.0,97257.00073,41.24,-1.959999919,-204.6726227,-79.865703585,29.0,-4.974229812500001,-15.0135773425,-81.56548309499999,0.0,0.0
2018-09-11 18:27:31.640,-0.577,0.2264999999999999,0.0705,-1.5298374,-0.0686465499999999,2.9223817,0.0,68000.0,-538000.0,97256.7688,41.24,-1.9799999,-204.6726227,-79.8935318,30.0,-8.192530632,-26.61376381,-80.74513245,0.0,0.0
2018-09-11 18:27:31.680,-0.506,0.143,0.081,-1.569064,-0.59820565,2.79489525,9000.0,81000.0,-534000.0,97256.53687,41.24,-1.954999924,-192.23719025,-79.9046669,31.0,-8.192530632,-26.61376381,-80.74513245,0.0,0.0
2018-09-11 18:27:31.720,-0.4343333333333333,0.1153333333333333,0.1036666666666666,-1.6246350166666668,-0.7126165666666667,3.5761583666666668,11000.0,89666.66666666667,-532666.6666666666,97255.62337666668,41.24,-1.929999948,-179.8017578,-79.915802,32.0,-8.192530632,-26.61376381,-80.74513245,0.0,0.0
2018-09-11 18:27:31.760,-0.3626666666666667,0.0876666666666666,0.1263333333333333,-1.6802060333333333,-0.8270274833333333,4.357421483333334,13000.0,98333.33333333331,-531333.3333333334,97254.70988333331,41.24,-1.929999948,-179.8017578,-79.915802,32.0,-8.192530632,-26.61376381,-80.74513245,0.0,0.0
2018-09-11 18:27:31.800,-0.291,0.06,0.149,-1.73577705,-0.9414384,5.1386846,15000.0,107000.0,-530000.0,97253.79639,41.24,-1.929999948,-179.8017578,-79.915802,32.0,-8.192530632,-26.61376381,-80.74513245,0.0,0.0
2018-09-11 18:27:31.840,-0.19,0.064,0.1935,-1.73577705,-0.9218251,6.1781895,17000.0,113500.0,-528500.0,97256.57654,41.235,-1.8749999405,-179.8017578,-79.92693329,32.5,-8.192530632,-26.61376381,-80.74513245,0.0,0.0
2018-09-11 18:27:31.880,-0.089,0.068,0.238,-1.73577705,-0.9022118,7.2176944,19000.0,120000.0,-527000.0,97259.35669,41.23,-1.819999933,-179.8017578,-79.93806458,33.0,-8.192530632,-26.61376381,-80.74513245,0.0,0.0
2018-09-11 18:27:31.920,-0.1203333333333333,0.0853333333333333,0.2713333333333333,-1.7128948666666668,-0.4086104166666667,6.027820866666667,22333.33333333333,121333.33333333331,-524333.3333333334,97259.34651666669,41.23,-1.639999986,-150.4108429,-79.90467072,35.0,-8.192530632,-26.61376381,-80.74513245,0.0,0.0
2018-09-11 18:27:31.960,-0.1516666666666666,0.1026666666666666,0.3046666666666667,-1.690012683333333,0.0849909666666666,4.837947333333334,25666.666666666668,122666.66666666669,-521666.6666666667,97259.33634333331,41.23,-1.639999986,-150.4108429,-79.90467072,35.0,-8.192530632,-26.61376381,-80.74513245,0.0,0.0
2018-09-11 18:27:32.000,-0.183,0.12,0.338,-1.6671305,0.57859235,3.6480738,29000.0,124000.0,-519000.0,97259.32617,41.23,-1.639999986,-150.4108429,-79.90467072,35.0,-10.005564691,-29.17349148,-81.96530533,0.0,0.0
2018-09-11 18:27:32.040,-0.2203333333333333,0.1026666666666666,0.3516666666666667,-1.7030882166666668,0.3726526999999999,3.1217835833333334,29000.0,125333.33333333331,-519333.3333333333,97259.37906666666,41.23,-1.639999986,-150.4108429,-79.90467072,35.0,-11.81859875,-31.73321915,-83.18547821,0.0,0.0
2018-09-11 18:27:32.080,-0.2576666666666666,0.0853333333333333,0.3653333333333333,-1.7390459333333332,0.1667130499999999,2.595493366666666,29000.0,126666.66666666669,-519666.6666666667,97259.43196333334,41.23,-1.429999948,-150.4108429,-79.87126923,37.0,-11.81859875,-31.73321915,-83.18547821,0.0,0.0
2018-09-11 18:27:32.120,-0.295,0.068,0.379,-1.77500365,-0.0392266,2.06920315,29000.0,128000.0,-520000.0,97259.48486,41.23,-1.120000005,-99.98989105,-79.79335022,39.0,-11.81859875,-31.73321915,-83.18547821,0.0,0.0
2018-09-11 18:27:32.160,-0.285,0.0395,0.3695,-1.750487025,0.30400615,2.2947561,33000.0,131500.0,-518500.0,97263.204955,41.23,-1.120000005,-99.98989105,-79.79335022,39.0,-11.81859875,-31.73321915,-83.18547821,0.0,0.0
2018-09-11 18:27:32.200,-0.275,0.011,0.36,-1.7259704,0.6472389,2.52030905,37000.0,135000.0,-517000.0,97266.92505,41.23,-1.120000005,-99.98989105,-79.79335022,39.0,-11.81859875,-31.73321915,-83.18547821,0.0,0.0
2018-09-11 18:27:32.240,-0.2435,-0.008,0.312,-1.77500365,0.367749375,3.95207995,39500.0,137500.0,-514000.0,97268.17932,41.23,-0.9399999975,-99.98989105,-79.759952545,40.0,-11.81859875,-31.73321915,-83.18547821,0.0,0.0
2018-09-11 18:27:32.280,-0.212,-0.027,0.264,-1.8240369,0.08825985,5.38385085,42000.0,140000.0,-511000.0,97269.43359,41.23,-0.84999999375,-99.98989105,-79.7432537075,40.5,-11.81859875,-31.73321915,-83.18547821,0.0,0.0
2018-09-11 18:27:32.320,-0.204,-0.037,0.2375,-1.809326925,0.279489525,5.952636549999999,44500.0,143000.0,-509500.0,97269.927975,41.23,-0.75999999,-99.98989105,-79.72655487,41.0,-11.81859875,-31.73321915,-83.18547821,0.0,0.0
2018-09-11 18:27:32.360,-0.196,-0.047,0.211,-1.79461695,0.4707192,6.52142225,47000.0,146000.0,-508000.0,97270.42236,41.23,-0.299999982,-64.5652771,-79.62637329,42.0,-16.25009155,-35.60848618,-88.48504639,0.0,0.0
2018-09-11 18:27:32.400,-0.1963333333333333,-0.042,0.2033333333333333,-1.7848103,0.4347614833333333,6.71755525,44666.66666666666,148000.0,-508666.6666666667,97272.26765666666,41.23,-0.0449999945,-64.5652771,-79.5651474,43.0,-16.25009155,-35.60848618,-88.48504639,0.0,0.0
2018-09-11 18:27:32.440,-0.1966666666666666,-0.037,0.1956666666666666,-1.77500365,0.3988037666666666,6.91368825,42333.333333333336,150000.0,-509333.3333333333,97274.11295333332,41.23,0.209999993,-64.5652771,-79.50392151,44.0,-16.25009155,-35.60848618,-88.48504639,0.0,0.0
2018-09-11 18:27:32.480,-0.197,-0.032,0.188,-1.765197,0.36284605,7.10982125,40000.0,152000.0,-510000.0,97275.95825,41.23,0.209999993,-64.5652771,-79.50392151,44.0,-16.25009155,-35.60848618,-88.48504639,0.0,0.0
2018-09-11 18:27:32.520,-0.189,-0.003,0.1903333333333333,-1.8109613666666664,0.2026707666666666,6.9823348,41000.0,153666.66666666666,-507333.3333333333,97278.58276333332,41.22666666666667,0.3933333253333333,-56.98369344,-79.44083913333333,44.66666666666666,-16.25009155,-35.60848618,-88.48504639,0.0,0.0
2018-09-11 18:27:32.560,-0.181,0.0259999999999999,0.1926666666666666,-1.856725733333333,0.0424954833333333,6.85484835,42000.0,155333.33333333334,-504666.6666666667,97281.20727666668,41.22333333333333,0.5766666576666667,-49.40210978,-79.37775675666667,45.333333333333336,-16.25009155,-35.60848618,-88.48504639,0.0,0.0
2018-09-11 18:27:32.600,-0.173,0.055,0.195,-1.9024901,-0.1176798,6.7273619,43000.0,157000.0,-502000.0,97283.83179,41.22,0.75999999,-41.82052612,-79.31467438,46.0,-16.25009155,-35.60848618,-88.48504639,0.0,0.0
2018-09-11 18:27:32.640,-0.1634999999999999,-0.01,0.205,-1.9024901,-0.0588398999999995,7.10982125,48000.0,158000.0,-501500.0,97286.95679,41.22,1.339999914,-41.82052612,-79.1031723,48.0,-16.25009155,-35.60848618,-88.48504639,0.0,0.0
2018-09-11 18:27:32.680,-0.154,-0.075,0.215,-1.9024901,9.18e-16,7.4922806,53000.0,159000.0,-501000.0,97290.08179,41.22,1.6499999165,-35.62507629,-78.96402359,49.0,-16.25009155,-35.60848618,-88.48504639,0.0,0.0
2018-09-11 18:27:32.720,-0.2199999999999999,-0.1139999999999999,0.2319999999999999,-1.848553525,-0.1127764749999995,8.1395195,53500.0,161000.0,-500000.0,97293.09082,41.22,1.959999919,-29.42962646,-78.82487488,50.0,-16.25009155,-35.60848618,-88.48504639,0.0,0.0
2018-09-11 18:27:32.760,-0.286,-0.153,0.249,-1.79461695,-0.22555295,8.7867584,54000.0,163000.0,-499000.0,97296.09985,41.22,1.959999919,-29.42962646,-78.82487488,50.0,-16.25009155,-35.60848618,-88.48504639,0.0,0.0
2018-09-11 18:27:32.800,-0.1683333333333333,-0.166,0.2826666666666667,-1.8240369,-0.3759215833333333,9.528794916666667,52333.333333333336,165000.0,-498333.3333333333,97298.34798,41.22,2.284999907,-29.42962646,-78.669029235,50.5,-17.430348395000003,-37.249826435,-91.33020401,0.0,0.0
2018-09-11 18:27:32.840,-0.0506666666666666,-0.179,0.3163333333333333,-1.85345685,-0.5262902166666668,10.270831433333331,50666.66666666666,167000.0,-497666.6666666667,97300.59611,41.22,2.609999895,-29.42962646,-78.51318359,51.0,-18.61060524,-38.89116669,-94.17536163,0.0,0.0
2018-09-11 18:27:32.880,0.067,-0.192,0.35,-1.8828768,-0.67665885,11.01286795,49000.0,169000.0,-497000.0,97302.84424,41.22,2.609999895,-29.42962646,-78.51318359,51.0,-18.61060524,-38.89116669,-94.17536163,0.0,0.0
2018-09-11 18:27:32.920,0.0856666666666666,-0.18,0.3973333333333333,-1.846919083333333,-0.6080123000000001,11.509738216666667,50000.0,167333.33333333334,-498333.3333333333,97306.48193333334,41.22,3.269999981,-32.29045868,-78.11243439,53.0,-18.61060524,-38.89116669,-94.17536163,0.0,0.0
2018-09-11 18:27:32.960,0.1043333333333333,-0.168,0.4446666666666666,-1.8109613666666664,-0.53936575,12.006608483333332,51000.0,165666.66666666666,-499666.6666666667,97310.11962666668,41.22,3.269999981,-32.29045868,-78.11243439,53.0,-18.61060524,-38.89116669,-94.17536163,0.0,0.0
2018-09-11 18:27:33.000,0.123,-0.156,0.492,-1.77500365,-0.4707192,12.50347875,52000.0,164000.0,-501000.0,97313.75732,41.22,3.269999981,-32.29045868,-78.11243439,53.0,-18.61060524,-38.89116669,-94.17536163,0.0,0.0
2018-09-11 18:27:33.040,0.0345,-0.1485,0.5215000000000001,-1.848553525,-0.348136075,11.95430635,52500.0,156500.0,-501500.0,97317.88635,41.22,3.929999828,-32.29045868,-77.66716003,55.0,-18.61060524,-38.89116669,-94.17536163,0.0,0.0
2018-09-11 18:27:33.080,-0.054,-0.141,0.551,-1.9221034,-0.22555295,11.40513395,53000.0,149000.0,-502000.0,97322.01538,41.22,4.143333117,-35.226885476666666,-77.48533884333334,55.66666666666666,-18.61060524,-38.89116669,-94.17536163,0.0,0.0
2018-09-11 18:27:33.120,-0.081,-0.1376666666666666,0.547,-1.9384478166666663,-0.0817220833333333,11.48358715,52000.0,147333.33333333334,-504666.6666666667,97324.58496,41.22,4.356666406,-38.16331227333333,-77.30351765666667,56.333333333333336,-18.61060524,-38.89116669,-94.17536163,0.0,0.0
2018-09-11 18:27:33.160,-0.108,-0.1343333333333333,0.543,-1.9547922333333327,0.0621087833333333,11.56204035,51000.0,145666.66666666666,-507333.3333333333,97327.15454,41.22,4.569999695,-41.09973907,-77.12169647,57.0,-18.61060524,-38.89116669,-94.17536163,0.0,0.0
2018-09-11 18:27:33.200,-0.135,-0.131,0.539,-1.97113665,0.20593965,11.64049355,50000.0,144000.0,-510000.0,97329.72412,41.22,4.8949997425,-41.09973907,-76.826702115,57.5,-20.253811835,-36.6901474,-99.743797315,0.0,0.0
2018-09-11 18:27:33.240,-0.1225,-0.0995,0.493,-1.97113665,0.4903324999999999,10.458792225,50000.0,140500.0,-510000.0,97333.45947,41.22,5.21999979,-41.09973907,-76.53170776,58.0,-21.89701843,-34.48912811,-105.312233,0.0,0.0
2018-09-11 18:27:33.280,-0.11,-0.068,0.447,-1.97113665,0.77472535,9.2770909,50000.0,137000.0,-510000.0,97337.19482,41.22,5.21999979,-41.09973907,-76.53170776,58.0,-21.89701843,-34.48912811,-105.312233,0.0,0.0
2018-09-11 18:27:33.320,-0.1765,-0.1125,0.4,-2.0495898500000003,0.750208725,9.5712904,53000.0,136000.0,-509500.0,97341.82434,41.215,5.21999979,-41.09973907,-76.53170776,58.0,-21.89701843,-34.48912811,-105.312233,0.0,0.0
2018-09-11 18:27:33.360,-0.243,-0.157,0.353,-2.12804305,0.7256921,9.8654899,56000.0,135000.0,-509000.0,97346.45386,41.21,5.889999866,-25.47111511,-75.83039856,60.0,-21.89701843,-34.48912811,-105.312233,0.0,0.0
2018-09-11 18:27:33.400,-0.2233333333333333,-0.177,0.3133333333333333,-2.1182364,0.65704555,10.1400761,52000.0,137000.0,-511000.0,97350.13224333333,41.21,5.889999866,-25.47111511,-75.83039856,60.0,-21.89701843,-34.48912811,-105.312233,0.0,0.0
2018-09-11 18:27:33.440,-0.2036666666666666,-0.197,0.2736666666666666,-2.10842975,0.588399,10.4146623,48000.0,139000.0,-513000.0,97353.81062666667,41.21,6.234999895,-25.47111511,-75.457481385,61.0,-21.89701843,-34.48912811,-105.312233,0.0,0.0
2018-09-11 18:27:33.480,-0.184,-0.217,0.234,-2.0986231,0.51975245,10.6892485,44000.0,141000.0,-515000.0,97357.48901,41.21,6.579999924,-25.47111511,-75.08456421,62.0,-21.89701843,-34.48912811,-105.312233,0.0,0.0
2018-09-11 18:27:33.520,0.0035,-0.172,0.1825,-2.054493175,0.55897905,10.390145675,40000.0,143000.0,-512000.0,97360.568235,41.21,6.579999924,-25.47111511,-75.08456421,62.0,-23.8534565,-34.78422546,-112.9659424,0.0,0.0
2018-09-11 18:27:33.560,0.191,-0.127,0.131,-2.01036325,0.59820565,10.09104285,36000.0,145000.0,-509000.0,97363.64746,41.21,7.289999962,-41.65878296,-74.23854065,64.0,-23.8534565,-34.78422546,-112.9659424,0.0,0.0
2018-09-11 18:27:33.600,0.1176666666666666,-0.143,0.1206666666666666,-1.9972877166666667,0.6243567166666667,10.231604833333332,35333.333333333336,144333.33333333334,-511000.0,97365.73893333333,41.21,7.6599998475,-41.65878296,-73.798828125,65.0,-23.8534565,-34.78422546,-112.9659424,0.0,0.0
2018-09-11 18:27:33.640,0.0443333333333333,-0.159,0.1103333333333333,-1.9842121833333333,0.6505077833333334,10.372166816666669,34666.666666666664,143666.66666666666,-513000.0,97367.83040666666,41.21,8.029999733,-41.65878296,-73.3591156,66.0,-23.8534565,-34.78422546,-112.9659424,0.0,0.0
2018-09-11 18:27:33.680,-0.029,-0.175,0.1,-1.97113665,0.67665885,10.5127288,34000.0,143000.0,-515000.0,97369.92188,41.21,8.283333142666667,-42.88431803333334,-73.02886963,66.66666666666667,-23.8534565,-34.78422546,-112.9659424,0.0,0.0
2018-09-11 18:27:33.720,0.0209999999999999,-0.1756666666666666,0.0976666666666666,-2.033245433333333,0.5034080333333334,10.5715687,31666.666666666668,140333.33333333334,-514000.0,97372.54639,41.21,8.536666552333333,-44.10985310666667,-72.69862366,67.33333333333333,-23.8534565,-34.78422546,-112.9659424,0.0,0.0
2018-09-11 18:27:33.760,0.071,-0.1763333333333333,0.0953333333333333,-2.0953542166666668,0.3301572166666667,10.6304086,29333.33333333333,137666.66666666666,-513000.0,97375.1709,41.21,8.789999962,-45.33538818,-72.36837769,68.0,-23.8534565,-34.78422546,-112.9659424,0.0,0.0
2018-09-11 18:27:33.800,0.121,-0.177,0.093,-2.157463,0.1569064,10.6892485,27000.0,135000.0,-512000.0,97377.79541,41.21,8.789999962,-45.33538818,-72.36837769,68.0,-23.8534565,-34.78422546,-112.9659424,0.0,0.0
2018-09-11 18:27:33.840,0.1129999999999999,-0.1925,0.102,-2.132946375,0.1372931,11.11093445,20500.0,134500.0,-517000.0,97383.795165,41.21,9.569999695,-45.33538818,-71.3553772,69.0,-23.8534565,-34.78422546,-112.9659424,0.0,0.0
2018-09-11 18:27:33.880,0.105,-0.208,0.111,-2.10842975,0.1176798,11.5326204,14000.0,134000.0,-522000.0,97389.79492,41.21,9.569999695,-45.33538818,-71.3553772,69.0,-23.8534565,-34.78422546,-112.9659424,0.0,0.0
2018-09-11 18:27:33.920,0.1114999999999999,-0.174,0.131,-2.157463,0.2598762249999999,11.56204035,13500.0,131000.0,-523500.0,97394.10095,41.21,9.569999695,-45.33538818,-71.3553772,69.0,-23.8534565,-34.78422546,-112.9659424,0.0,0.0
2018-09-11 18:27:33.960,0.118,-0.14,0.151,-2.20649625,0.40207265,11.5914603,13000.0,128000.0,-525000.0,97398.40698,41.21,10.34999943,-67.33360291,-70.24219513,71.0,-23.8534565,-34.78422546,-112.9659424,0.0,0.0
2018-09-11 18:27:34.000,0.1359999999999999,-0.1046666666666666,0.143,-2.2555295,0.2124774166666666,11.290723033333332,11333.333333333334,125333.33333333331,-525333.3333333334,97400.65511,41.20666666666667,10.34999943,-67.33360291,-70.24219513,71.0,-22.17722893,-30.35732269,-118.1527939,0.0,0.0
2018-09-11 18:27:34.040,0.154,-0.0693333333333333,0.135,-2.30456275,0.0228821833333333,10.989985766666669,9666.666666666666,122666.66666666669,-525666.6666666666,97402.90324,41.20333333333333,11.13999939,-67.33360291,-69.09560394,73.0,-22.17722893,-30.35732269,-118.1527939,0.0,0.0
2018-09-11 18:27:34.080,0.172,-0.034,0.127,-2.353596,-0.16671305,10.6892485,8000.0,120000.0,-526000.0,97405.15137,41.2,11.53499937,-97.434902205,-68.477787015,74.0,-22.17722893,-30.35732269,-118.1527939,0.0,0.0
2018-09-11 18:27:34.120,0.2175,-0.0485,0.1475,-2.353596,-0.12748645,10.4342756,11000.0,114000.0,-527000.0,97411.703495,41.2,11.92999935,-127.5362015,-67.85997009,75.0,-22.17722893,-30.35732269,-118.1527939,0.0,0.0
2018-09-11 18:27:34.160,0.263,-0.063,0.168,-2.353596,-0.08825985,10.1793027,14000.0,108000.0,-528000.0,97418.25562,41.2,11.92999935,-127.5362015,-67.85997009,75.0,-22.17722893,-30.35732269,-118.1527939,0.0,0.0
2018-09-11 18:27:34.200,0.2855,-0.059,0.1825,-2.353596,-0.0980665,10.448985574999998,15000.0,101000.0,-528000.0,97422.888185,41.2,11.92999935,-127.5362015,-67.85997009,75.0,-22.17722893,-30.35732269,-118.1527939,0.0,0.0
2018-09-11 18:27:34.240,0.308,-0.055,0.197,-2.353596,-0.10787315,10.71866845,16000.0,94000.0,-528000.0,97427.52075,41.2,12.72999954,-127.5362015,-66.61319733,77.0,-22.17722893,-30.35732269,-118.1527939,0.0,0.0
2018-09-11 18:27:34.280,0.32425,-0.07375,0.2125,-2.348692675,-0.2157463,10.9270597625,15750.0,90750.0,-529750.0,97430.296325,41.2,12.72999954,-127.5362015,-66.61319733,77.0,-22.17722893,-30.35732269,-118.1527939,0.0,0.0
2018-09-11 18:27:34.320,0.3405,-0.0925,0.228,-2.34378935,-0.32361945,11.135451075,15500.0,87500.0,-531500.0,97433.0719,41.2,13.129999635,-141.4422951,-65.9452858,78.0,-22.17722893,-30.35732269,-118.1527939,0.0,0.0
2018-09-11 18:27:34.360,0.35675,-0.11125,0.2435,-2.338886025,-0.4314926,11.3438423875,15250.0,84250.0,-533250.0,97435.847475,41.2,13.52999973,-155.3483887,-65.27737427,79.0,-22.17722893,-30.35732269,-118.1527939,0.0,0.0
2018-09-11 18:27:34.400,0.373,-0.13,0.259,-2.3339827,-0.53936575,11.5522337,15000.0,81000.0,-535000.0,97438.62305,41.2,13.72749972,-155.3483887,-64.93785095499999,79.25,-22.2809052475,-28.0340685825,-119.5865078,0.0,0.0
2018-09-11 18:27:34.440,0.3325,-0.122,0.2825,-2.34378935,-0.0637432249999999,11.292357475,16000.0,70500.0,-535000.0,97442.333985,41.2,13.92499971,-155.3483887,-64.59832764,79.5,-22.384581565,-25.710814475,-121.0202217,0.0,0.0
2018-09-11 18:27:34.480,0.292,-0.114,0.306,-2.353596,0.4118793,11.03248125,17000.0,60000.0,-535000.0,97446.04492,41.2,14.31999969,-155.3483887,-63.91928101,80.0,-22.5919342,-21.06430626,-123.8876495,0.0,0.0
2018-09-11 18:27:34.520,0.275,-0.11,0.3045,-2.397725925,0.171616375,10.949124725,14500.0,52000.0,-536500.0,97452.130125,41.2,14.71999979,-166.29847719999998,-63.206840515,81.0,-22.5919342,-21.06430626,-123.8876495,0.0,0.0
2018-09-11 18:27:34.560,0.258,-0.106,0.303,-2.44185585,-0.06864655,10.8657682,12000.0,44000.0,-538000.0,97458.21533,41.2,15.11999989,-177.2485657,-62.49440002,82.0,-22.5919342,-21.06430626,-123.8876495,0.0,0.0
2018-09-11 18:27:34.600,0.2553333333333333,-0.103,0.2733333333333333,-2.438586966666666,0.3072750333333333,10.9638347,10333.333333333334,39666.66666666666,-539333.3333333334,97461.74723333334,41.2,15.11999989,-177.2485657,-62.49440002,82.0,-22.5919342,-21.06430626,-123.8876495,0.0,0.0
2018-09-11 18:27:34.640,0.2526666666666666,-0.1,0.2436666666666666,-2.435318083333333,0.6831966166666666,11.0619012,8666.666666666666,35333.333333333336,-540666.6666666666,97465.27913666666,41.2,15.92000008,-177.2485657,-61.05838776,84.0,-22.5919342,-21.06430626,-123.8876495,0.0,0.0
2018-09-11 18:27:34.680,0.25,-0.097,0.214,-2.4320492,1.0591182,11.1599677,7000.0,31000.0,-542000.0,97468.81104,41.2,15.92000008,-177.2485657,-61.05838776,84.0,-22.5919342,-21.06430626,-123.8876495,0.0,0.0
2018-09-11 18:27:34.720,0.22875,-0.0965,0.184,-2.4786307875,0.7624670375,10.69905515,5500.0,28500.0,-542000.0,97472.5570725,41.197500000000005,15.92000008,-177.2485657,-61.05838776,84.0,-22.5919342,-21.06430626,-123.8876495,0.0,0.0
2018-09-11 18:27:34.760,0.2075,-0.096,0.154,-2.525212375,0.465815875,10.2381426,4000.0,26000.0,-542000.0,97476.303105,41.195,16.3149999,-192.6204020333333,-60.305130006666666,85.0,-22.5919342,-21.06430626,-123.8876495,0.0,0.0
2018-09-11 18:27:34.800,0.18625,-0.0955,0.124,-2.5717939625,0.1691647124999999,9.77723005,2500.0,23500.0,-542000.0,97480.0491375,41.1925,16.70999972,-207.99223836666667,-59.551872253333336,86.0,-22.5919342,-21.06430626,-123.8876495,0.0,0.0
2018-09-11 18:27:34.840,0.165,-0.095,0.094,-2.61837555,-0.12748645,9.3163175,1000.0,21000.0,-542000.0,97483.79517,41.19,17.10499954,-223.3640747,-58.7986145,87.0,-22.5919342,-21.06430626,-123.8876495,0.0,0.0
2018-09-11 18:27:34.880,0.127,-0.129,0.105,-2.6477955,0.04903325,9.5320638,-4000.0,8000.0,-541000.0,97483.79517,41.19,17.30249977,-223.3640747,-58.420129775,87.5,-22.289412495,-16.86895275,-127.24402615,0.0,0.0
2018-09-11 18:27:34.920,0.1353333333333333,-0.1076666666666666,0.096,-2.641257733333333,0.40207265,9.754347866666668,-6666.666666666666,5666.666666666666,-541666.6666666666,97489.22526333333,41.193333333333335,17.5,-223.3640747,-58.04164505,88.0,-21.98689079,-12.67359924,-130.6004028,0.0,0.0
2018-09-11 18:27:34.960,0.1436666666666666,-0.0863333333333333,0.087,-2.6347199666666667,0.7551120500000001,9.976631933333334,-9333.333333333332,3333.333333333333,-542333.3333333334,97494.65535666668,41.196666666666665,18.30999947,-245.558548,-56.47204971,90.0,-21.98689079,-12.67359924,-130.6004028,0.0,0.0
2018-09-11 18:27:35.000,0.152,-0.065,0.078,-2.6281822,1.10815145,10.198916,-12000.0,1000.0,-543000.0,97500.08545,41.2,18.7149992,-245.558548,-55.692817685,91.0,-21.98689079,-12.67359924,-130.6004028,0.0,0.0
2018-09-11 18:27:35.040,0.1669999999999999,-0.0695,0.064,-2.623278875,0.7698220250000001,10.890284825,-13500.0,-1500.0,-544000.0,97502.95105,41.195,19.11999893,-245.558548,-54.91358566,92.0,-21.98689079,-12.67359924,-130.6004028,0.0,0.0
2018-09-11 18:27:35.080,0.182,-0.074,0.05,-2.61837555,0.4314926,11.58165365,-15000.0,-4000.0,-545000.0,97505.81665,41.19,19.11999893,-245.558548,-54.91358566,92.0,-21.98689079,-12.67359924,-130.6004028,0.0,0.0
2018-09-11 18:27:35.120,0.2075,-0.051,0.0605,-2.6674088,0.3726527,11.282550825,-17000.0,-8500.0,-543500.0,97510.754395,41.19,19.52999878,-260.41498565,-54.10652351,93.0,-21.98689079,-12.67359924,-130.6004028,0.0,0.0
2018-09-11 18:27:35.160,0.233,-0.028,0.071,-2.71644205,0.3138128,10.983448,-19000.0,-13000.0,-542000.0,97515.69214,41.19,19.93999863,-275.2714233,-53.29946136,94.0,-21.98689079,-12.67359924,-130.6004028,0.0,0.0
2018-09-11 18:27:35.200,0.235,-0.0413333333333333,0.0679999999999999,-2.7197109333333334,0.4870636166666666,10.891919266666664,-18666.666666666668,-17333.333333333332,-541000.0,97519.21590333332,41.19,19.93999863,-275.2714233,-53.29946136,94.0,-21.98689079,-12.67359924,-130.6004028,0.0,0.0
2018-09-11 18:27:35.240,0.237,-0.0546666666666666,0.065,-2.7229798166666668,0.6603144333333333,10.800390533333331,-18333.33333333333,-21666.666666666664,-540000.0,97522.73966666668,41.19,20.73999977,-275.2714233,-51.68534088,96.0,-21.98689079,-12.67359924,-130.6004028,0.0,0.0
2018-09-11 18:27:35.280,0.239,-0.068,0.062,-2.7262487,0.83356525,10.7088618,-18000.0,-26000.0,-539000.0,97526.26343,41.19,21.144999505,-283.93917845,-50.85601425,97.0,-21.59066963,-10.0046803935,-131.46752165,0.0,0.0
2018-09-11 18:27:35.320,0.2214999999999999,-0.059,0.032,-2.73605535,0.8629852,10.9246081,-16500.0,-30500.0,-540000.0,97530.65796,41.19,21.54999924,-292.6069336,-50.02668762,98.0,-21.19444847,-7.335761547,-132.3346405,0.0,0.0
2018-09-11 18:27:35.360,0.204,-0.05,0.002,-2.745862,0.89240515,11.1403544,-15000.0,-35000.0,-541000.0,97535.05249,41.19,21.54999924,-292.6069336,-50.02668762,98.0,-21.19444847,-7.335761547,-132.3346405,0.0,0.0
2018-09-11 18:27:35.400,0.2329999999999999,-0.0683333333333333,-0.0043333333333333,-2.752399766666666,0.6341633666666666,11.0030613,-14000.0,-39333.333333333336,-540333.3333333334,97537.34741333334,41.19,21.54999924,-292.6069336,-50.02668762,98.0,-21.19444847,-7.335761547,-132.3346405,0.0,0.0
2018-09-11 18:27:35.440,0.262,-0.0866666666666666,-0.0106666666666666,-2.758937533333333,0.3759215833333333,10.8657682,-13000.0,-43666.66666666666,-539666.6666666666,97539.64233666669,41.19,21.54999924,-292.6069336,-50.02668762,98.0,-21.19444847,-7.335761547,-132.3346405,0.0,0.0
2018-09-11 18:27:35.480,0.291,-0.105,-0.017,-2.7654753,0.1176798,10.7284751,-12000.0,-48000.0,-539000.0,97541.93726,41.19,22.32999992,-292.6069336,-48.36803818,100.0,-21.19444847,-7.335761547,-132.3346405,0.0,0.0
2018-09-11 18:27:35.520,0.35075,-0.1152499999999999,-0.003,-2.760571975,0.0980665,10.9711896875,-13500.0,-50750.0,-538750.0,97545.23621,41.19,23.11999893,-321.7144165,-46.66485977,102.0,-21.19444847,-7.335761547,-132.3346405,0.0,0.0
2018-09-11 18:27:35.560,0.4105,-0.1255,0.011,-2.75566865,0.0784532,11.213904275,-15000.0,-53500.0,-538500.0,97548.53516,41.19,23.11999893,-321.7144165,-46.66485977,102.0,-21.19444847,-7.335761547,-132.3346405,0.0,0.0
2018-09-11 18:27:35.600,0.47025,-0.1357499999999999,0.025,-2.750765325,0.0588399,11.4566188625,-16500.0,-56250.0,-538250.0,97551.83411,41.19,23.11999893,-321.7144165,-46.66485977,102.0,-21.19444847,-7.335761547,-132.3346405,0.0,0.0
2018-09-11 18:27:35.640,0.53,-0.146,0.039,-2.745862,0.0392266,11.69933345,-18000.0,-59000.0,-538000.0,97555.13306,41.19,23.11999893,-321.7144165,-46.66485977,102.0,-21.19444847,-7.335761547,-132.3346405,0.0,0.0
2018-09-11 18:27:35.680,0.513,-0.112,0.061,-2.8047019,-0.3530394,13.8273765,-21000.0,-81000.0,-533000.0,97564.52026,41.19,23.87999916,-321.7144165,-44.97281265,104.0,-18.90803146,0.170044661,-132.7965851,0.0,0.0
2018-09-11 18:27:35.720,0.512,-0.1265,0.0805,-2.77528195,-0.2941995,13.85679645,-20000.0,-92500.0,-528500.0,97569.110105,41.19,23.87999916,-321.7144165,-44.97281265,104.0,-18.90803146,0.170044661,-132.7965851,0.0,0.0
2018-09-11 18:27:35.760,0.511,-0.141,0.1,-2.745862,-0.2353596,13.8862164,-19000.0,-104000.0,-524000.0,97573.69995,41.19,24.61999893,-344.3683472,-43.24737167,106.0,-18.90803146,0.170044661,-132.7965851,0.0,0.0
2018-09-11 18:27:35.800,0.515,-0.1465,0.1045,-2.7654753,-0.00980665,13.4939504,-24500.0,-113500.0,-523000.0,97579.93164,41.19,24.96999931,-344.3683472,-42.390216825,107.0,-18.90803146,0.170044661,-132.7965851,0.0,0.0
2018-09-11 18:27:35.840,0.519,-0.152,0.109,-2.7850886,0.2157463,13.1016844,-30000.0,-123000.0,-522000.0,97586.16333,41.19,25.31999969,-344.3683472,-41.53306198,108.0,-18.90803146,0.170044661,-132.7965851,0.0,0.0
2018-09-11 18:27:35.880,0.4723333333333333,-0.1683333333333333,0.0953333333333333,-2.7850886,0.1340242166666666,13.186675366666666,-31666.666666666668,-130000.0,-518666.6666666667,97588.73494333331,41.18666666666667,25.31999969,-344.3683472,-41.53306198,108.0,-18.90803146,0.170044661,-132.7965851,0.0,0.0
2018-09-11 18:27:35.920,0.4256666666666667,-0.1846666666666666,0.0816666666666666,-2.7850886,0.0523021333333333,13.271666333333334,-33333.333333333336,-137000.0,-515333.3333333333,97591.30655666666,41.18333333333333,25.31999969,-344.3683472,-41.53306198,108.0,-18.90803146,0.170044661,-132.7965851,0.0,0.0
2018-09-11 18:27:35.960,0.379,-0.201,0.068,-2.7850886,-0.02941995,13.3566573,-35000.0,-144000.0,-512000.0,97593.87817,41.18,25.96999931,-373.0884399,-39.81513214,110.0,-18.90803146,0.170044661,-132.7965851,0.0,0.0
2018-09-11 18:27:36.000,0.387,-0.1853333333333333,0.071,-2.8014330166666666,0.1372931,13.771805483333331,-38666.66666666666,-149666.66666666666,-510333.3333333333,97596.59830333332,41.18,25.96999931,-373.0884399,-39.81513214,110.0,-15.97016716,10.1880331,-134.4168854,0.0,0.0
2018-09-11 18:27:36.040,0.395,-0.1696666666666666,0.074,-2.817777433333333,0.30400615,14.186953666666668,-42333.333333333336,-155333.33333333334,-508666.6666666667,97599.31843666668,41.18,26.28499889,-373.0884399,-38.96330452,111.0,-15.97016716,10.1880331,-134.4168854,0.0,0.0
2018-09-11 18:27:36.080,0.403,-0.154,0.077,-2.83412185,0.4707192,14.60210185,-46000.0,-161000.0,-507000.0,97602.03857,41.18,26.59999847,-373.0884399,-38.1114769,112.0,-15.97016716,10.1880331,-134.4168854,0.0,0.0
2018-09-11 18:27:36.120,0.437,-0.12925,0.06125,-2.7924435875,0.53936575,14.1779642375,-51500.0,-169250.0,-501750.0,97604.7042825,41.18,26.59999847,-373.0884399,-38.1114769,112.0,-15.97016716,10.1880331,-134.4168854,0.0,0.0
2018-09-11 18:27:36.160,0.471,-0.1045,0.0455,-2.750765325,0.6080123,13.753826625,-57000.0,-177500.0,-496500.0,97607.369995,41.18,26.89499855,-387.8992004,-37.32388687,113.0,-15.97016716,10.1880331,-134.4168854,0.0,0.0
2018-09-11 18:27:36.200,0.505,-0.0797499999999999,0.02975,-2.7090870625,0.67665885,13.3296890125,-62500.0,-185750.0,-491250.0,97610.0357075,41.18,27.18999863,-402.7099609,-36.53629684,114.0,-15.97016716,10.1880331,-134.4168854,0.0,0.0
2018-09-11 18:27:36.240,0.539,-0.055,0.014,-2.6674088,0.7453054,12.9055514,-68000.0,-194000.0,-486000.0,97612.70142,41.18,27.4649992,-402.7099609,-35.690929409999995,115.5,-15.97016716,10.1880331,-134.4168854,0.0,0.0
2018-09-11 18:27:36.280,0.543,-0.033,-0.019,-2.7654753,0.7649187,12.05237285,-68000.0,-194000.0,-486000.0,97612.70142,41.18,27.73999977,-402.7099609,-34.84556198,117.0,-15.97016716,10.1880331,-134.4168854,0.0,0.0
2018-09-11 18:27:36.320,0.41,-0.01,-0.0554999999999999,-2.691925425,0.85317855,11.851336525,-66000.0,-205500.0,-476500.0,97616.619875,41.18,28.23999977,-422.1931458,-33.16576004,119.0,-15.97016716,10.1880331,-134.4168854,0.0,0.0
2018-09-11 18:27:36.360,0.277,0.013,-0.092,-2.61837555,0.9414384,11.6503002,-64000.0,-217000.0,-467000.0,97620.53833,41.18,28.23999977,-422.1931458,-33.16576004,119.0,-15.97016716,10.1880331,-134.4168854,0.0,0.0
2018-09-11 18:27:36.400,0.3076666666666667,0.0176666666666666,-0.1143333333333333,-2.605300016666667,0.79433865,11.068438966666667,-64333.333333333336,-221666.66666666663,-465000.0,97623.22591,41.18,28.23999977,-422.1931458,-33.16576004,119.0,-15.097171785,15.12234354,-134.4020157,0.0,0.0
2018-09-11 18:27:36.440,0.3383333333333333,0.0223333333333333,-0.1366666666666666,-2.592224483333333,0.6472389000000001,10.486577733333332,-64666.66666666666,-226333.3333333333,-463000.0,97625.91349,41.18,28.23999977,-422.1931458,-33.16576004,119.0,-14.22417641,20.05665398,-134.387146,0.0,0.0
2018-09-11 18:27:36.480,0.369,0.027,-0.159,-2.57914895,0.50013915,9.9047165,-65000.0,-231000.0,-461000.0,97628.60107,41.18,28.73999977,-422.1931458,-31.77067757,121.0,-14.22417641,20.05665398,-134.387146,0.0,0.0
2018-09-11 18:27:36.520,0.3993333333333333,-0.0296666666666666,-0.1626666666666666,-2.55953565,0.4282237166666666,10.264293666666664,-61666.66666666666,-236000.0,-458333.3333333333,97630.55419666666,41.18,29.21999931,-440.0907593,-30.1165123,123.0,-14.22417641,20.05665398,-134.387146,0.0,0.0
2018-09-11 18:27:36.560,0.4296666666666667,-0.0863333333333333,-0.1663333333333333,-2.53992235,0.3563082833333333,10.623870833333331,-58333.333333333336,-241000.0,-455666.6666666667,97632.50732333334,41.18,29.21999931,-440.0907593,-30.1165123,123.0,-14.22417641,20.05665398,-134.387146,0.0,0.0
2018-09-11 18:27:36.600,0.46,-0.143,-0.17,-2.52030905,0.28439285,10.983448,-55000.0,-246000.0,-453000.0,97634.46045,41.18,29.21999931,-440.0907593,-30.1165123,123.0,-14.22417641,20.05665398,-134.387146,0.0,0.0
2018-09-11 18:27:36.640,0.487,-0.1393333333333333,-0.1783333333333333,-2.48108245,0.1765197,10.77750835,-48666.66666666666,-258333.3333333333,-442666.6666666667,97637.26399666666,41.18,29.21999931,-440.0907593,-30.1165123,123.0,-14.22417641,20.05665398,-134.387146,0.0,0.0
2018-09-11 18:27:36.680,0.514,-0.1356666666666666,-0.1866666666666666,-2.44185585,0.06864655,10.5715687,-42333.333333333336,-270666.6666666667,-432333.3333333333,97640.06754333334,41.18,29.464999195,-440.0907593,-29.68193531,124.5,-14.26464844,22.62498093,-133.13124084999998,0.0,0.0
2018-09-11 18:27:36.720,0.541,-0.132,-0.195,-2.40262925,-0.0392266,10.36562905,-36000.0,-283000.0,-422000.0,97642.87109,41.18,29.70999908,-440.0907593,-29.24735832,126.0,-14.30512047,25.19330788,-131.8753357,0.0,0.0
2018-09-11 18:27:36.760,0.583,-0.1075,-0.161,-2.4075325750000003,-0.0196132999999993,10.752991725,-36000.0,-283000.0,-422000.0,97642.87109,41.18,29.95999908,-437.86125185,-28.419638635,127.0,-14.30512047,25.19330788,-131.8753357,0.0,0.0
2018-09-11 18:27:36.800,0.625,-0.083,-0.127,-2.4124359,1.36e-15,11.1403544,-36000.0,-283000.0,-422000.0,97642.87109,41.18,30.20999908,-435.6317444,-27.59191895,128.0,-14.30512047,25.19330788,-131.8753357,0.0,0.0
2018-09-11 18:27:36.840,0.5085,-0.0755,-0.119,-2.4516625000000003,0.2500695750000006,10.2381426,-37000.0,-292500.0,-411000.0,97644.70825,41.18,30.71999931,-435.6317444,-25.97973251,130.0,-14.30512047,25.19330788,-131.8753357,0.0,0.0
2018-09-11 18:27:36.880,0.392,-0.068,-0.111,-2.4908891,0.50013915,9.3359308,-38000.0,-302000.0,-400000.0,97646.54541,41.18,30.71999931,-435.6317444,-25.97973251,130.0,-14.30512047,25.19330788,-131.8753357,0.0,0.0
2018-09-11 18:27:36.920,0.282,-0.101,-0.124,-2.466372475,0.269682875,9.929233125,-31000.0,-311000.0,-393000.0,97650.34485,41.175,30.71999931,-435.6317444,-25.97973251,130.0,-14.30512047,25.19330788,-131.8753357,0.0,0.0
2018-09-11 18:27:36.960,0.172,-0.134,-0.137,-2.44185585,0.0392266,10.52253545,-24000.0,-320000.0,-386000.0,97654.14429,41.17,31.22999954,-443.4385376,-25.13853455,133.0,-14.30512047,25.19330788,-131.8753357,0.0,0.0
2018-09-11 18:27:37.000,0.2293333333333333,-0.1366666666666666,-0.124,-2.435318083333333,0.2484351333333333,11.329949633333332,-24333.33333333333,-322666.6666666667,-382666.6666666667,97654.89705666668,41.17,31.48999977,-443.4385376,-24.33959866,134.0,-14.18154812,27.44346762,-130.836009975,0.0,0.0
2018-09-11 18:27:37.040,0.2866666666666666,-0.1393333333333333,-0.111,-2.428780316666667,0.4576436666666666,12.137363816666666,-24666.666666666668,-325333.3333333333,-379333.3333333333,97655.64982333333,41.17,31.75,-443.4385376,-23.54066277,135.0,-14.05797577,29.69362736,-129.79668425,0.0,0.0
2018-09-11 18:27:37.080,0.344,-0.142,-0.098,-2.42224255,0.6668522,12.944778,-25000.0,-328000.0,-376000.0,97656.40259,41.17,32.02000046,-446.31996155,-23.81591034,136.0,-13.93440342,31.9437871,-128.757358525,0.0,0.0
2018-09-11 18:27:37.120,0.2729999999999999,-0.1496666666666666,-0.1066666666666666,-2.3993603666666665,0.75511205,13.265128566666666,-24666.666666666668,-330333.3333333333,-372333.3333333333,97659.54386666666,41.17,32.29000092,-449.2013855,-24.09115791,137.0,-13.81083107,34.19394684,-127.7180328,0.0,0.0
2018-09-11 18:27:37.160,0.2019999999999999,-0.1573333333333333,-0.1153333333333333,-2.376478183333333,0.8433719,13.585479133333331,-24333.33333333333,-332666.6666666667,-368666.6666666667,97662.68514333334,41.17,32.29000092,-449.2013855,-24.09115791,137.0,-13.81083107,34.19394684,-127.7180328,0.0,0.0
2018-09-11 18:27:37.200,0.131,-0.165,-0.124,-2.353596,0.93163175,13.9058297,-24000.0,-335000.0,-365000.0,97665.82642,41.17,32.29000092,-449.2013855,-24.09115791,137.0,-13.81083107,34.19394684,-127.7180328,0.0,0.0
2018-09-11 18:27:37.240,0.111,-0.1475,-0.139,-2.4124359,0.946341725,14.24906245,-25000.0,-339000.0,-360000.0,97667.434695,41.17,32.79999924,-449.2013855,-22.41957855,140.0,-13.81083107,34.19394684,-127.7180328,0.0,0.0
2018-09-11 18:27:37.280,0.091,-0.13,-0.154,-2.4712758,0.9610517,14.5922952,-26000.0,-343000.0,-355000.0,97669.04297,41.17,32.79999924,-449.2013855,-22.41957855,140.0,-13.81083107,34.19394684,-127.7180328,0.0,0.0
2018-09-11 18:27:37.320,0.0605,-0.103,-0.1845,-2.42224255,0.8335652499999999,12.1994726,-26000.0,-344000.0,-351000.0,97672.72034,41.17,32.79999924,-449.2013855,-22.41957855,140.0,-13.81083107,34.19394684,-127.7180328,0.0,0.0
2018-09-11 18:27:37.360,0.03,-0.076,-0.215,-2.3732093,0.7060788,9.80665,-26000.0,-345000.0,-347000.0,97676.39771,41.17,33.29000092,-413.9930725,-22.1164093,142.0,-13.81083107,34.19394684,-127.7180328,0.0,0.0
2018-09-11 18:27:37.400,0.047,-0.1143333333333333,-0.2253333333333333,-2.353596,0.65704555,10.058354016666666,-23000.0,-346000.0,-346666.6666666667,97678.01921,41.17,33.410000805,-413.9930725,-21.700987815,142.5,-13.7051906575,34.81371689,-126.59355925,0.0,0.0
2018-09-11 18:27:37.440,0.064,-0.1526666666666666,-0.2356666666666666,-2.3339827,0.6080123000000001,10.310058033333334,-20000.0,-347000.0,-346333.3333333333,97679.64071,41.17,33.530000689999994,-413.9930725,-21.28556633,143.0,-13.599550245,35.43348694,-125.4690857,0.0,0.0
2018-09-11 18:27:37.480,0.081,-0.191,-0.246,-2.3143694,0.55897905,10.56176205,-17000.0,-348000.0,-346000.0,97681.26221,41.17,33.65000057499999,-413.9930725,-20.870144845,143.5,-13.4939098325,36.05325699,-124.34461215,0.0,0.0
2018-09-11 18:27:37.520,0.1373333333333333,-0.212,-0.239,-2.3143694,0.5132146833333333,11.558771466666666,-17333.333333333332,-347666.6666666667,-345000.0,97682.27742666668,41.17,33.77000046,-413.9930725,-20.45472336,144.0,-13.38826942,36.67302704,-123.2201386,0.0,0.0
2018-09-11 18:27:37.560,0.1936666666666666,-0.233,-0.232,-2.3143694,0.4674503166666666,12.555780883333334,-17666.666666666668,-347333.3333333333,-344000.0,97683.29264333332,41.17,34.25,-450.0499878,-18.82381439,147.0,-13.38826942,36.67302704,-123.2201386,0.0,0.0
2018-09-11 18:27:37.600,0.25,-0.254,-0.225,-2.3143694,0.42168595,13.5527903,-18000.0,-347000.0,-343000.0,97684.30786,41.17,34.48999977,-450.0499878,-19.28873634,148.0,-13.38826942,36.67302704,-123.2201386,0.0,0.0
2018-09-11 18:27:37.640,0.2314999999999999,-0.243,-0.208,-2.38301595,0.4707192,13.479240425,-16000.0,-350000.0,-342000.0,97686.550905,41.17,34.72999954,-450.0499878,-19.75365829,149.0,-13.38826942,36.67302704,-123.2201386,0.0,0.0
2018-09-11 18:27:37.680,0.213,-0.232,-0.191,-2.4516625,0.51975245,13.40569055,-14000.0,-353000.0,-341000.0,97688.79395,41.17,34.72999954,-450.0499878,-19.75365829,149.0,-13.38826942,36.67302704,-123.2201386,0.0,0.0
2018-09-11 18:27:37.720,0.216,-0.217,-0.1835,-2.4124359,0.50013915,13.4154972,-14000.0,-355000.0,-334000.0,97692.224125,41.17,34.72999954,-450.0499878,-19.75365829,149.0,-13.38826942,36.67302704,-123.2201386,0.0,0.0
2018-09-11 18:27:37.760,0.219,-0.202,-0.176,-2.3732093,0.48052585,13.42530385,-14000.0,-357000.0,-327000.0,97695.6543,41.17,35.20000076,-434.5724182,-17.99048424,151.0,-13.38826942,36.67302704,-123.2201386,0.0,0.0
2018-09-11 18:27:37.800,0.215,-0.2135,-0.174,-2.3143694,0.4952358249999999,13.3566573,-13500.0,-358250.0,-324750.0,97696.89026,41.17,35.20000076,-434.5724182,-17.99048424,151.0,-13.38826942,36.67302704,-123.2201386,0.0,0.0
2018-09-11 18:27:37.840,0.211,-0.225,-0.172,-2.2555295,0.5099458,13.288010750000002,-13000.0,-359500.0,-322500.0,97698.12622,41.17,35.20000076,-434.5724182,-17.99048424,151.0,-13.38826942,36.67302704,-123.2201386,0.0,0.0
2018-09-11 18:27:37.880,0.207,-0.2365,-0.17,-2.1966896,0.5246557749999999,13.2193642,-12500.0,-360750.0,-320250.0,97699.36218,41.17,35.434999465000004,-434.5724182,-17.125086785,152.5,-13.09067225,37.6574468625,-121.12796215,0.0,0.0
2018-09-11 18:27:37.920,0.203,-0.248,-0.168,-2.1378497,0.53936575,13.15071765,-12000.0,-362000.0,-318000.0,97700.59814,41.17,35.66999817,-434.5724182,-16.25968933,154.0,-12.79307508,38.641866685,-119.0357857,0.0,0.0
2018-09-11 18:27:37.960,0.209,-0.287,-0.163,-2.0397832,0.7453054,15.36702055,-7000.0,-367000.0,-310000.0,97706.82373,41.17,36.11000061,-451.7543945,-16.38266945,156.0,-12.19788074,40.61070633,-114.8514328,0.0,0.0
2018-09-11 18:27:38.000,0.1756666666666666,-0.2903333333333333,-0.1636666666666666,-2.0070943666666667,0.73549875,15.128392066666668,-4666.666666666666,-369333.3333333333,-307333.3333333333,97709.08406666666,41.16666666666666,36.2175006875,-451.7543945,-15.9404585375,156.75,-12.19788074,40.61070633,-114.8514328,0.0,0.0
2018-09-11 18:27:38.040,0.1423333333333333,-0.2936666666666666,-0.1643333333333333,-1.9744055333333328,0.7256921000000001,14.889763583333332,-2333.333333333333,-371666.6666666667,-304666.6666666667,97711.34440333334,41.16333333333333,36.325000765,-451.7543945,-15.498247625,157.5,-12.19788074,40.61070633,-114.8514328,0.0,0.0
2018-09-11 18:27:38.080,0.109,-0.297,-0.165,-1.9417167,0.71588545,14.6511351,0.0,-374000.0,-302000.0,97713.60474,41.16,36.6375007625,-457.3118286,-15.7550976275,159.25,-12.19788074,40.61070633,-114.8514328,0.0,0.0
2018-09-11 18:27:38.120,0.0746666666666666,-0.328,-0.1683333333333333,-1.7619281166666667,0.7910697666666667,15.448742633333334,1000.0,-373333.3333333333,-299000.0,97714.30257333332,41.16,36.95000076,-462.8692627,-16.01194763,161.0,-12.19788074,40.61070633,-114.8514328,0.0,0.0
2018-09-11 18:27:38.160,0.0403333333333333,-0.359,-0.1716666666666666,-1.5821395333333332,0.8662540833333333,16.246350166666666,2000.0,-372666.6666666667,-296000.0,97715.00040666666,41.16,36.95000076,-462.8692627,-16.01194763,161.0,-12.19788074,40.61070633,-114.8514328,0.0,0.0
2018-09-11 18:27:38.200,0.006,-0.39,-0.175,-1.40235095,0.9414384,17.0439577,3000.0,-372000.0,-293000.0,97715.69824,41.16,36.95000076,-462.8692627,-16.01194763,161.0,-12.19788074,40.61070633,-114.8514328,0.0,0.0
2018-09-11 18:27:38.240,-0.0075,-0.378,-0.183,-1.358221025,1.014988275,17.7892631,3000.0,-371500.0,-290000.0,97719.177245,41.16,37.34999847,-463.8693848,-14.0965786,163.0,-12.19788074,40.61070633,-114.8514328,0.0,0.0
2018-09-11 18:27:38.280,-0.021,-0.366,-0.191,-1.3140911,1.08853815,18.5345685,3000.0,-371000.0,-287000.0,97722.65625,41.16,37.34999847,-463.8693848,-14.0965786,163.0,-12.19788074,40.61070633,-114.8514328,0.0,0.0
2018-09-11 18:27:38.320,0.13,-0.3645,-0.2015,-1.32389775,1.0591182,17.558806824999998,500.0,-368000.0,-287500.0,97726.1322,41.16,37.51999855,-474.77398685,-13.829857825,164.5,-12.19788074,40.61070633,-114.8514328,0.0,0.0
2018-09-11 18:27:38.360,0.281,-0.363,-0.212,-1.3337044,1.02969825,16.58304515,-2000.0,-365000.0,-288000.0,97729.60815,41.16,37.68999863,-485.6785889,-13.56313705,166.0,-12.19788074,40.61070633,-114.8514328,0.0,0.0
2018-09-11 18:27:38.400,0.1826666666666667,-0.364,-0.2343333333333333,-1.24544455,1.0198916,16.28884565,-1333.3333333333337,-366666.6666666667,-287666.6666666667,97731.51448333332,41.16,37.68999863,-485.6785889,-13.56313705,166.0,-8.477546692,41.71972656,-105.0667496,0.0,0.0
2018-09-11 18:27:38.440,0.0843333333333333,-0.365,-0.2566666666666667,-1.1571847,1.01008495,15.99464615,-666.6666666666667,-368333.3333333333,-287333.3333333333,97733.42081666666,41.16,38.0,-484.6784668,-11.65856075,168.0,-8.477546692,41.71972656,-105.0667496,0.0,0.0
2018-09-11 18:27:38.480,-0.014,-0.366,-0.279,-1.06892485,1.0002783,15.70044665,0.0,-370000.0,-287000.0,97735.32715,41.16,38.12999916,-506.0609741,-10.73626232,169.0,-8.477546692,41.71972656,-105.0667496,0.0,0.0
2018-09-11 18:27:38.520,-0.009,-0.3646666666666666,-0.2956666666666667,-1.0362360166666666,0.9872027666666666,16.010990566666667,1000.0,-370000.0,-283000.0,97736.84285666668,41.16,38.25999832,-527.4434814,-9.81396389,170.0,-8.477546692,41.71972656,-105.0667496,0.0,0.0
2018-09-11 18:27:38.560,-0.004,-0.3633333333333333,-0.3123333333333333,-1.0035471833333334,0.9741272333333332,16.321534483333334,2000.0,-370000.0,-279000.0,97738.35856333331,41.16,38.25999832,-527.4434814,-9.81396389,170.0,-8.477546692,41.71972656,-105.0667496,0.0,0.0
2018-09-11 18:27:38.600,0.001,-0.362,-0.329,-0.97085835,0.9610517,16.6320784,3000.0,-370000.0,-275000.0,97739.87427,41.16,38.38499832,-527.4434814,-10.174859525,171.0,-8.477546692,41.71972656,-105.0667496,0.0,0.0
2018-09-11 18:27:38.640,0.0446666666666666,-0.3813333333333333,-0.311,-0.7910697666666666,0.7779942333333333,17.148561966666666,7333.333333333333,-367666.6666666667,-272666.6666666667,97742.04508666668,41.16,38.50999832,-527.4434814,-10.53575516,172.0,-8.477546692,41.71972656,-105.0667496,0.0,0.0
2018-09-11 18:27:38.680,0.0883333333333333,-0.4006666666666666,-0.293,-0.6112811833333334,0.5949367666666666,17.665045533333334,11666.666666666666,-365333.3333333333,-270333.3333333333,97744.21590333332,41.16,38.614997865,-538.0393065999999,-9.565968038,173.5,-7.827465296,41.594192505,-100.424976365,0.0,0.0
2018-09-11 18:27:38.720,0.132,-0.42,-0.275,-0.4314926,0.4118793,18.1815291,16000.0,-363000.0,-268000.0,97746.38672,41.16,38.71999741,-548.6351318,-8.596180916,175.0,-7.1773839,41.46865845,-95.78320313,0.0,0.0
2018-09-11 18:27:38.760,0.116,-0.4105,-0.2545,-0.348136075,0.583495675,17.862812974999997,16000.0,-363000.0,-268000.0,97746.38672,41.16,38.71999741,-548.6351318,-8.596180916,175.0,-7.1773839,41.46865845,-95.78320313,0.0,0.0
2018-09-11 18:27:38.800,0.1,-0.401,-0.234,-0.26477955,0.75511205,17.54409685,16000.0,-363000.0,-268000.0,97746.38672,41.16,38.81499863,-548.6351318,-9.473121643,176.0,-7.1773839,41.46865845,-95.78320313,0.0,0.0
2018-09-11 18:27:38.840,0.06,-0.412,-0.2335,-0.2745862,0.730595425,17.62255005,13000.0,-362000.0,-269500.0,97747.595215,41.16,38.90999985,-548.6351318,-10.35006237,177.0,-7.1773839,41.46865845,-95.78320313,0.0,0.0
2018-09-11 18:27:38.880,0.02,-0.423,-0.233,-0.28439285,0.7060788,17.70100325,10000.0,-361000.0,-271000.0,97748.80371,41.16,38.975000385,-566.5048827999999,-9.318352699,178.0,-7.1773839,41.46865845,-95.78320313,0.0,0.0
2018-09-11 18:27:38.920,0.0643333333333333,-0.4156666666666667,-0.22,-0.2386284833333333,0.87279185,18.217486816666668,10666.666666666666,-360333.3333333333,-270666.6666666667,97750.78938666666,41.16,39.04000092,-584.3746338,-8.286643028,179.0,-7.1773839,41.46865845,-95.78320313,0.0,0.0
2018-09-11 18:27:38.960,0.1086666666666666,-0.4083333333333333,-0.207,-0.1928641166666666,1.0395049,18.73397038333333,11333.333333333334,-359666.6666666667,-270333.3333333333,97752.77506333332,41.16,39.04000092,-584.3746338,-8.286643028,179.0,-7.1773839,41.46865845,-95.78320313,0.0,0.0
2018-09-11 18:27:39.000,0.153,-0.401,-0.194,-0.14709975,1.20621795,19.25045395,12000.0,-359000.0,-270000.0,97754.76074,41.16,39.04000092,-584.3746338,-8.286643028,179.0,-7.1773839,41.46865845,-95.78320313,0.0,0.0
2018-09-11 18:27:39.040,0.0755,-0.376,-0.202,-0.181423025,1.1130547750000002,18.372758775,10500.0,-358000.0,-265500.0,97756.87256,41.155,39.04000092,-584.3746338,-8.286643028,179.0,-7.1773839,41.46865845,-95.78320313,0.0,0.0
2018-09-11 18:27:39.080,-0.002,-0.351,-0.21,-0.2157463,1.0198916,17.4950636,9000.0,-357000.0,-261000.0,97758.98438,41.15,39.14999771,-584.3746338,-7.878882885,181.0,-7.1773839,41.46865845,-95.78320313,0.0,0.0
2018-09-11 18:27:39.120,0.0124999999999999,-0.389,-0.209,-0.16671305,1.08853815,17.009634425,9000.0,-357000.0,-266500.0,97760.885625,41.15,39.14999771,-584.3746338,-7.878882885,181.0,-3.969901562,42.71385956,-86.00406647,0.0,0.0
2018-09-11 18:27:39.160,0.027,-0.427,-0.208,-0.1176798,1.1571847,16.52420525,9000.0,-357000.0,-272000.0,97762.78687,41.15,39.18999863,-615.4251099,-5.847373486,183.0,-3.969901562,42.71385956,-86.00406647,0.0,0.0
2018-09-11 18:27:39.200,0.0856666666666666,-0.4306666666666666,-0.225,0.0457643666666666,1.16699135,16.060023816666668,11333.333333333334,-359333.3333333333,-265666.6666666667,97761.99544666668,41.15,39.20499802,-615.4251099,-4.8515080215,184.0,-3.969901562,42.71385956,-86.00406647,0.0,0.0
2018-09-11 18:27:39.240,0.1443333333333333,-0.4343333333333333,-0.242,0.2092085333333333,1.176798,15.595842383333334,13666.666666666668,-361666.6666666667,-259333.3333333333,97761.20402333332,41.15,39.21999741,-615.4251099,-3.855642557,185.0,-3.969901562,42.71385956,-86.00406647,0.0,0.0
2018-09-11 18:27:39.280,0.203,-0.438,-0.259,0.3726527,1.18660465,15.13166095,16000.0,-364000.0,-253000.0,97760.4126,41.15,39.214998245,-638.6022644,-4.4934028385,186.0,-3.969901562,42.71385956,-86.00406647,0.0,0.0
2018-09-11 18:27:39.320,0.104,-0.4165,-0.2595,0.387362675,1.3140911000000002,16.146649225,21000.0,-367000.0,-245000.0,97756.36902,41.15,39.20999908,-661.7794189,-5.13116312,187.0,-3.969901562,42.71385956,-86.00406647,0.0,0.0
2018-09-11 18:27:39.360,0.005,-0.395,-0.26,0.40207265,1.44157755,17.1616375,26000.0,-370000.0,-237000.0,97752.32544,41.15,39.20999908,-661.7794189,-5.13116312,187.0,-3.969901562,42.71385956,-86.00406647,0.0,0.0
2018-09-11 18:27:39.400,0.0066666666666666,-0.3846666666666666,-0.2576666666666666,0.4511059,1.3206288666666668,16.942622316666668,25000.0,-368000.0,-239333.3333333333,97757.01904333332,41.15,39.20999908,-661.7794189,-5.13116312,187.0,-3.969901562,42.71385956,-86.00406647,0.0,0.0
2018-09-11 18:27:39.440,0.0083333333333333,-0.3743333333333333,-0.2553333333333333,0.50013915,1.1996801833333333,16.72360713333333,24000.0,-366000.0,-241666.66666666663,97761.71264666668,41.15,39.20000076,-661.7794189,-3.066104889,189.0,-3.969901562,42.71385956,-86.00406647,0.0,0.0
2018-09-11 18:27:39.480,0.01,-0.364,-0.253,0.5491724,1.0787315,16.50459195,23000.0,-364000.0,-244000.0,97766.40625,41.15,39.20000076,-661.7794189,-3.066104889,189.0,-3.969901562,42.71385956,-86.00406647,0.0,0.0
2018-09-11 18:27:39.520,0.0009999999999999,-0.333,-0.2766666666666666,0.3955348833333333,1.1375714,15.429129333333332,25000.0,-362666.6666666667,-244333.3333333333,97762.97607333334,41.15,39.13999939,-678.1351318,-3.564838409,191.0,-0.89304471,44.22763824,-74.75773621,0.0,0.0
2018-09-11 18:27:39.560,-0.008,-0.302,-0.3003333333333333,0.2418973666666666,1.1964113,14.353666716666666,27000.0,-361333.3333333333,-244666.66666666663,97759.54589666666,41.15,39.13999939,-678.1351318,-3.564838409,191.0,-0.89304471,44.22763824,-74.75773621,0.0,0.0
2018-09-11 18:27:39.600,-0.017,-0.271,-0.324,0.08825985,1.2552512,13.2782041,29000.0,-360000.0,-245000.0,97756.11572,41.15,39.13999939,-678.1351318,-3.564838409,191.0,-0.89304471,44.22763824,-74.75773621,0.0,0.0
2018-09-11 18:27:39.640,0.043,-0.331,-0.3359999999999999,0.26477955,0.8237586,13.60182355,27500.0,-358000.0,-248500.0,97758.89282,41.15,39.06999969,-678.1351318,-1.485790133,193.0,-0.89304471,44.22763824,-74.75773621,0.0,0.0
2018-09-11 18:27:39.680,0.103,-0.391,-0.348,0.44129925,0.392266,13.925443,26000.0,-356000.0,-252000.0,97761.66992,41.15,39.024999615,-697.23501585,-1.266087532,194.0,-0.89304471,44.22763824,-74.75773621,0.0,0.0
2018-09-11 18:27:39.720,0.1533333333333333,-0.4423333333333333,-0.313,0.392266,0.5459035166666667,14.77862155,29666.666666666668,-357000.0,-251666.66666666663,97759.95890333332,41.15,38.97999954,-716.3348999,-1.046384931,195.0,-0.89304471,44.22763824,-74.75773621,0.0,0.0
2018-09-11 18:27:39.760,0.2036666666666666,-0.4936666666666667,-0.2779999999999999,0.34323275,0.6995410333333334,15.6318001,33333.333333333336,-358000.0,-251333.3333333333,97758.24788666666,41.15,38.97999954,-716.3348999,-1.046384931,195.0,-0.89304471,44.22763824,-74.75773621,0.0,0.0
2018-09-11 18:27:39.800,0.254,-0.545,-0.243,0.2941995,0.85317855,16.48497865,37000.0,-359000.0,-251000.0,97756.53687,41.15,38.959999082500005,-716.584930425,-0.5386855604999999,195.5,-0.89304471,44.22763824,-74.75773621,0.0,0.0
2018-09-11 18:27:39.840,0.1815,-0.4585,-0.2565,0.357942725,0.77472535,16.774274825,39000.0,-361000.0,-245500.0,97758.08411,41.15,38.939998625,-716.83496095,-0.0309861899999999,196.0,-0.89304471,44.22763824,-74.75773621,0.0,0.0
2018-09-11 18:27:39.880,0.109,-0.372,-0.27,0.42168595,0.69627215,17.063571,41000.0,-363000.0,-240000.0,97759.63135,41.15,38.8599987025,-729.391387925,1.4497051835,197.0,-0.89304471,44.22763824,-74.75773621,0.0,0.0
2018-09-11 18:27:39.920,0.0906666666666666,-0.3596666666666667,-0.2783333333333333,0.4543747833333333,0.6505077833333334,16.48170976666667,39000.0,-362000.0,-238666.66666666663,97756.5918,41.15,38.77999878,-741.9478149,2.930396557,198.0,-0.89304471,44.22763824,-74.75773621,0.0,0.0
2018-09-11 18:27:39.960,0.0723333333333333,-0.3473333333333333,-0.2866666666666667,0.4870636166666667,0.6047434166666666,15.899848533333332,37000.0,-361000.0,-237333.3333333333,97753.55225,41.15,38.77999878,-741.9478149,2.930396557,198.0,1.130839109,46.90310669,-62.08020401,0.0,0.0
2018-09-11 18:27:40.000,0.054,-0.335,-0.295,0.51975245,0.55897905,15.3179873,35000.0,-360000.0,-236000.0,97750.5127,41.15,38.77999878,-741.9478149,2.930396557,198.0,1.130839109,46.90310669,-62.08020401,0.0,0.0
2018-09-11 18:27:40.040,0.1,-0.306,-0.2955,0.583495675,0.406975975,14.332418975,37500.0,-359000.0,-239000.0,97751.153565,41.145,38.64999771,-741.9478149,2.424036026,200.0,1.130839109,46.90310669,-62.08020401,0.0,0.0
2018-09-11 18:27:40.080,0.146,-0.277,-0.296,0.6472389,0.2549729,13.34685065,40000.0,-358000.0,-242000.0,97751.79443,41.14,38.574998855,-753.0331115500001,3.386659384,200.5,1.130839109,46.90310669,-62.08020401,0.0,0.0
2018-09-11 18:27:40.120,0.1476666666666666,-0.3196666666666667,-0.2863333333333333,0.5949367666666666,0.38245935,13.62143685,42666.66666666666,-356666.6666666667,-238666.66666666663,97750.53710666666,41.14,38.5,-764.1184082,4.349282742,201.0,1.130839109,46.90310669,-62.08020401,0.0,0.0
2018-09-11 18:27:40.160,0.1493333333333333,-0.3623333333333333,-0.2766666666666666,0.5426346333333333,0.5099458,13.89602305,45333.333333333336,-355333.3333333333,-235333.3333333333,97749.27978333332,41.14,38.5,-764.1184082,4.349282742,201.0,1.130839109,46.90310669,-62.08020401,0.0,0.0
2018-09-11 18:27:40.200,0.151,-0.405,-0.267,0.4903325,0.63743225,14.17060925,48000.0,-354000.0,-232000.0,97748.02246,41.14,38.430000305,-764.1184082,5.070678710999999,202.0,1.130839109,46.90310669,-62.08020401,0.0,0.0
2018-09-11 18:27:40.240,0.098,-0.413,-0.243,0.5295591,0.588399,14.6315218,46000.0,-354000.0,-233500.0,97744.296265,41.14,38.36000061,-764.1184082,5.79207468,203.0,1.130839109,46.90310669,-62.08020401,0.0,0.0
