time,field.angular_velocity.x,field.angular_velocity.y,field.angular_velocity.z,field.linear_acceleration.x,field.linear_acceleration.y,field.linear_acceleration.z,field.magnetic_field.x,field.magnetic_field.y,field.magnetic_field.z,field.fluid_pressure,field.temperature,field.airspeed,field.measured.pitch,field.measured.roll,field.measured.yaw,field.alt_error,field.aspd_error,field.xtrack_error,field.wp_dist
2018-07-18 20:40:12.600,0.241,-0.301,-0.302,-0.16671305,0.69627215,11.42474725,-185000.0,-369000.0,-232000.0,97147.94922,56.25,19.6415195465,3.062958241,42.30096054,-141.265686,-0.239999987,-510.51187135,-39.210004805,5.0
2018-07-18 20:40:12.640,0.242,-0.3136666666666666,-0.315,-0.2451662499999999,0.5557101666666666,11.359369583333333,-180666.66666666663,-373333.3333333333,-228666.66666666663,97145.6604,56.25,19.6415195465,3.062958241,42.30096054,-141.265686,-0.299999982,-502.6872559,-38.14056778,6.0
2018-07-18 20:40:12.680,0.243,-0.3263333333333333,-0.328,-0.32361945,0.4151481833333333,11.293991916666666,-176333.33333333334,-377666.6666666667,-225333.3333333333,97143.37158,56.25,19.6415195465,3.062958241,42.30096054,-141.265686,-0.399999976,-483.6446838,-36.02548981,8.0
2018-07-18 20:40:12.720,0.244,-0.339,-0.341,-0.40207265,0.2745862,11.22861425,-172000.0,-382000.0,-222000.0,97141.08276,56.25,19.6415195465,3.062958241,42.30096054,-141.265686,-0.399999976,-483.6446838,-36.02548981,8.0
2018-07-18 20:40:12.760,0.197,-0.3555,-0.33,-0.4854291749999999,0.201036325,11.586556975,-164000.0,-387500.0,-218000.0,97140.203855,56.245000000000005,19.6415195465,3.062958241,42.30096054,-141.265686,-0.399999976,-483.6446838,-36.02548981,8.0
2018-07-18 20:40:12.800,0.15,-0.372,-0.319,-0.5687857,0.12748645,11.9444997,-156000.0,-393000.0,-214000.0,97139.32495,56.24,19.6415195465,3.062958241,42.30096054,-141.265686,-0.399999976,-483.6446838,-36.02548981,8.0
2018-07-18 20:40:12.840,0.096,-0.3635,-0.2995,-0.671755525,0.269682875,11.77778665,-151000.0,-397500.0,-207500.0,97137.075805,56.24,19.64277055527777,3.0593860150000003,44.75304222,-136.88687894999998,-0.4499999879999999,-473.8983154,-34.964914325,9.0
2018-07-18 20:40:12.880,0.042,-0.355,-0.28,-0.77472535,0.4118793,11.6110736,-146000.0,-402000.0,-201000.0,97134.82666,56.24,19.64402156405556,3.055813789,47.2051239,-132.5080719,-0.5,-464.151947,-33.90433884,10.0
2018-07-18 20:40:12.920,-0.0276666666666666,-0.351,-0.2916666666666667,-0.7714564666666667,0.5557101666666666,11.83662655,-143000.0,-403333.3333333333,-199333.3333333333,97134.35669,56.236666666666665,19.64527257283333,3.055813789,47.2051239,-132.5080719,-0.5533333223333333,-461.3551432,-32.541074120000005,11.333333333333334
2018-07-18 20:40:12.960,-0.0973333333333333,-0.347,-0.3033333333333333,-0.7681875833333333,0.6995410333333333,12.0621795,-140000.0,-404666.6666666667,-197666.66666666663,97133.88672,56.23333333333333,19.64652358161112,3.055813789,47.2051239,-132.5080719,-0.6066666446666666,-458.5583394,-31.1778094,12.666666666666666
2018-07-18 20:40:13.000,-0.167,-0.343,-0.315,-0.7649187,0.8433719,12.28773245,-137000.0,-406000.0,-196000.0,97133.41675,56.23,19.647774590388888,3.055813789,47.2051239,-132.5080719,-0.659999967,-455.7615356,-29.81454468,14.0
2018-07-18 20:40:13.040,-0.178,-0.345,-0.3355,-0.750208725,0.6864655,12.8663248,-133500.0,-407500.0,-196500.0,97134.176635,56.23,19.649025599166663,3.055813789,47.2051239,-132.5080719,-0.659999967,-455.7615356,-29.81454468,14.0
2018-07-18 20:40:13.080,-0.189,-0.347,-0.356,-0.73549875,0.5295591,13.44491715,-130000.0,-409000.0,-197000.0,97134.93652,56.23,19.650276607944445,3.055813789,47.2051239,-132.5080719,-0.659999967,-455.7615356,-29.81454468,14.0
2018-07-18 20:40:13.120,-0.162,-0.3416666666666667,-0.375,-0.7485742833333333,0.4020726499999999,13.546252533333334,-127000.0,-409000.0,-198000.0,97134.28751333331,56.22666666666667,19.651527616722223,3.055813789,47.2051239,-132.5080719,-0.729999959,-465.2778625,-27.78277779,16.0
2018-07-18 20:40:13.160,-0.135,-0.3363333333333333,-0.3939999999999999,-0.7616498166666666,0.2745861999999999,13.647587916666666,-124000.0,-409000.0,-199000.0,97133.63850666668,56.22333333333333,19.6527786255,2.9825100895,46.88050651499999,-127.43244935,-0.7649999555,-470.9648132,-26.78338528,17.0
2018-07-18 20:40:13.200,-0.108,-0.331,-0.413,-0.77472535,0.14709975,13.7489233,-121000.0,-409000.0,-200000.0,97132.9895,56.22,19.61343557185455,2.90920639,46.55588913,-122.3568268,-0.799999952,-476.6517639,-25.78399277,18.0
2018-07-18 20:40:13.240,-0.1413333333333333,-0.3306666666666666,-0.4026666666666667,-0.7256921,0.2026707666666666,13.761998833333331,-117333.33333333331,-410333.3333333333,-201333.3333333333,97132.49511666666,56.22,19.57409251820909,2.90920639,46.55588913,-122.3568268,-0.81999996275,-478.428749075,-25.2929077175,18.5
2018-07-18 20:40:13.280,-0.1746666666666666,-0.3303333333333333,-0.3923333333333333,-0.67665885,0.2582417833333333,13.775074366666669,-113666.66666666669,-411666.6666666667,-202666.66666666663,97132.00073333332,56.22,19.53474946456364,2.90920639,46.55588913,-122.3568268,-0.8399999735,-480.20573425,-24.801822665000003,19.0
2018-07-18 20:40:13.320,-0.208,-0.33,-0.382,-0.6276256,0.3138128,13.7881499,-110000.0,-413000.0,-204000.0,97131.50635,56.22,19.495406410918186,2.90920639,46.55588913,-122.3568268,-0.8683333096666667,-480.0110270166667,-24.149871193333336,19.666666666666668
2018-07-18 20:40:13.360,-0.0784999999999999,-0.31,-0.369,-0.779628675,0.4118793,13.067361125,-103500.0,-413000.0,-207000.0,97129.467775,56.215,19.45606335727273,2.90920639,46.55588913,-122.3568268,-0.8966666458333333,-479.8163197833333,-23.497919721666666,20.33333333333333
2018-07-18 20:40:13.400,0.051,-0.29,-0.356,-0.93163175,0.5099458,12.34657235,-97000.0,-413000.0,-210000.0,97127.4292,56.21,19.416720303627272,2.90920639,46.55588913,-122.3568268,-0.924999982,-479.62161255,-22.84596825,21.0
2018-07-18 20:40:13.440,-0.032,-0.3043333333333333,-0.3503333333333333,-0.8956740333333333,0.5034080333333333,12.202741483333334,-93666.66666666669,-413333.3333333333,-210333.3333333333,97127.92155,56.21,19.37737724998182,2.90920639,46.55588913,-122.3568268,-0.9974999575,-468.253005975,-21.42471123,22.5
2018-07-18 20:40:13.480,-0.115,-0.3186666666666666,-0.3446666666666667,-0.8597163166666667,0.4968702666666666,12.058910616666669,-90333.33333333331,-413666.6666666667,-210666.66666666663,97128.4139,56.21,19.338034196336363,2.90920639,46.55588913,-122.3568268,-1.069999933,-456.8843994,-20.00345421,24.0
2018-07-18 20:40:13.520,-0.198,-0.333,-0.339,-0.8237586,0.4903325,11.91507975,-87000.0,-414000.0,-211000.0,97128.90625,56.21,19.29869114269091,2.90920639,46.55588913,-122.3568268,-1.069999933,-456.8843994,-20.00345421,24.0
2018-07-18 20:40:13.560,-0.174,-0.3335,-0.344,-0.8482752250000001,0.0931631749999999,11.8268199,-82500.0,-414000.0,-213500.0,97126.40381,56.205,19.259348089045453,2.90920639,46.55588913,-122.3568268,-1.069999933,-456.8843994,-20.00345421,24.0
2018-07-18 20:40:13.600,-0.15,-0.334,-0.349,-0.87279185,-0.30400615,11.73856005,-78000.0,-414000.0,-216000.0,97123.90137,56.2,19.2200050354,2.90920639,46.55588913,-122.3568268,-1.149999976,-422.0004883,-18.15649986,26.0
2018-07-18 20:40:13.640,-0.119,-0.341,-0.3426666666666667,-0.784532,-0.1699819333333333,12.755182766666668,-76000.0,-413666.6666666667,-218000.0,97124.22282,56.2,19.24453210831249,2.4027380345,45.12364769,-115.3804779,-1.149999976,-422.0004883,-18.15649986,26.0
2018-07-18 20:40:13.680,-0.088,-0.348,-0.3363333333333333,-0.69627215,-0.0359577166666666,13.771805483333331,-74000.0,-413333.3333333333,-220000.0,97124.54427,56.2,19.269059181225,1.896269679,43.69140625,-108.404129,-1.149999976,-422.0004883,-18.15649986,26.0
2018-07-18 20:40:13.720,-0.057,-0.355,-0.33,-0.6080123,0.0980665,14.7884282,-72000.0,-413000.0,-222000.0,97124.86572,56.2,19.2935862541375,1.896269679,43.69140625,-108.404129,-1.230000019,-422.1389771,-16.31040764,28.0
2018-07-18 20:40:13.760,-0.002,-0.36,-0.3369999999999999,-0.50013915,0.161809725,15.15127425,-66500.0,-413500.0,-222500.0,97122.216795,56.195,19.31811332705,1.896269679,43.69140625,-108.404129,-1.2799999715,-426.98851015,-15.426877975,29.0
2018-07-18 20:40:13.800,0.053,-0.365,-0.344,-0.392266,0.22555295,15.5141203,-61000.0,-414000.0,-223000.0,97119.56787,56.19,19.34264039996249,1.896269679,43.69140625,-108.404129,-1.329999924,-431.8380432,-14.54334831,30.0
2018-07-18 20:40:13.840,0.053,-0.357,-0.3256666666666666,-0.44129925,0.30400615,15.291836233333331,-58666.66666666666,-414333.3333333333,-223333.3333333333,97119.57601,56.19,19.367167472875,1.896269679,43.69140625,-108.404129,-1.329999924,-431.8380432,-14.54334831,30.0
2018-07-18 20:40:13.880,0.053,-0.349,-0.3073333333333333,-0.4903325,0.38245935,15.069552166666668,-56333.333333333336,-414666.6666666667,-223666.66666666663,97119.58415,56.19,19.3916945457875,1.896269679,43.69140625,-108.404129,-1.384999931,-436.73010255,-13.667985915,30.5
2018-07-18 20:40:13.920,0.053,-0.341,-0.289,-0.53936575,0.46091255,14.8472681,-54000.0,-415000.0,-224000.0,97119.59229,56.19,19.4162216187,1.896269679,43.69140625,-108.404129,-1.439999938,-441.6221619,-12.79262352,31.0
2018-07-18 20:40:13.960,0.0506666666666666,-0.3363333333333334,-0.2746666666666666,-0.53936575,0.4772569666666666,14.6119085,-51333.333333333336,-416333.3333333333,-223000.0,97119.87305,56.18666666666667,19.37142912550833,2.0567159055,43.82511711,-104.0291519,-1.5049999355,-442.8031006,-11.94736576,32.0
2018-07-18 20:40:14.000,0.0483333333333333,-0.3316666666666666,-0.2603333333333333,-0.53936575,0.4936013833333333,14.3765489,-48666.66666666666,-417666.6666666667,-222000.0,97120.15381,56.18333333333333,19.326636632316667,2.217162132,43.95882797,-99.6541748,-1.569999933,-443.9840393,-11.102108,33.0
2018-07-18 20:40:14.040,0.046,-0.327,-0.246,-0.53936575,0.5099458,14.1411893,-46000.0,-419000.0,-221000.0,97120.43457,56.18,19.281844139125,2.217162132,43.95882797,-99.6541748,-1.569999933,-443.9840393,-11.102108,33.0
2018-07-18 20:40:14.080,0.0104999999999999,-0.331,-0.2254999999999999,-0.544269075,0.573689025,13.891119725,-42500.0,-420000.0,-219500.0,97119.44275,56.18,19.23705164593333,2.217162132,43.95882797,-99.6541748,-1.569999933,-443.9840393,-11.102108,33.0
2018-07-18 20:40:14.120,-0.025,-0.335,-0.205,-0.5491724,0.63743225,13.64105015,-39000.0,-421000.0,-218000.0,97118.45093,56.18,19.192259152741663,2.217162132,43.95882797,-99.6541748,-1.719999909,-432.7224731,-9.448490143,35.0
2018-07-18 20:40:14.160,-0.0395,-0.3325,-0.2105,-0.583495675,0.5099458,13.302720725,-37000.0,-420500.0,-217500.0,97118.24341,56.175,19.14746665955,2.217162132,43.95882797,-99.6541748,-1.719999909,-432.7224731,-9.448490143,35.0
2018-07-18 20:40:14.200,-0.054,-0.33,-0.216,-0.61781895,0.38245935,12.9643913,-35000.0,-420000.0,-217000.0,97118.03589,56.17,19.102674166358334,2.217162132,43.95882797,-99.6541748,-1.879999995,-410.2714539,-7.836421967,36.0
2018-07-18 20:40:14.240,-0.0685,-0.325,-0.23125,-0.6251739374999999,0.2329079375,12.998714575,-34500.0,-420250.0,-217750.0,97117.1371475,56.17,19.057881673166666,2.217162132,43.95882797,-99.6541748,-1.879999995,-410.2714539,-7.836421967,36.0
2018-07-18 20:40:14.280,-0.083,-0.32,-0.2465,-0.6325289249999999,0.083356525,13.03303785,-34000.0,-420500.0,-218500.0,97116.238405,56.17,19.013089179975,2.217162132,43.95882797,-99.6541748,-1.879999995,-410.2714539,-7.836421967,36.0
2018-07-18 20:40:14.320,-0.0975,-0.315,-0.26175,-0.6398839125,-0.0661948874999999,13.067361125,-33500.0,-420750.0,-219250.0,97115.3396625,56.17,18.968296686783333,2.217162132,43.95882797,-99.6541748,-1.9599999785,-399.07130435,-7.0530319215,37.0
2018-07-18 20:40:14.360,-0.112,-0.31,-0.277,-0.6472389,-0.2157463,13.1016844,-33000.0,-421000.0,-220000.0,97114.44092,56.17,18.92350419359167,2.217162132,43.95882797,-99.6541748,-2.039999962,-387.8711548,-6.269641876,38.0
2018-07-18 20:40:14.400,-0.111,-0.2764999999999999,-0.3,-0.681562175,-0.12748645,12.351475675,-30000.0,-420000.0,-222000.0,97115.975955,56.17,18.8787117004,2.8127532005,43.68351364,-94.11444473,-2.120000005,-381.00738525,-5.5052928925,38.5
2018-07-18 20:40:14.440,-0.11,-0.243,-0.323,-0.71588545,-0.0392266,11.60126695,-27000.0,-419000.0,-224000.0,97117.51099,56.17,18.79723358151111,3.408344269,43.40819931,-88.57471466,-2.200000048,-374.1436157,-4.740943909,39.0
2018-07-18 20:40:14.480,-0.1139999999999999,-0.2324999999999999,-0.3359999999999999,-0.681562175,0.1176798,11.429650575,-23500.0,-418500.0,-226500.0,97116.589355,56.165,18.715755462622223,3.408344269,43.40819931,-88.57471466,-2.200000048,-374.1436157,-4.740943909,39.0
2018-07-18 20:40:14.520,-0.118,-0.222,-0.349,-0.6472389,0.2745862,11.2580342,-20000.0,-418000.0,-229000.0,97115.66772,56.16,18.63427734373333,3.408344269,43.40819931,-88.57471466,-2.359999895,-354.0664673,-3.270740509,41.0
2018-07-18 20:40:14.560,-0.1649999999999999,-0.2085,-0.359,-0.63743225,0.789435325,10.782411675,-15000.0,-416500.0,-231500.0,97114.55688,56.16,18.55279922484445,3.408344269,43.40819931,-88.57471466,-2.359999895,-354.0664673,-3.270740509,41.0
2018-07-18 20:40:14.600,-0.212,-0.195,-0.369,-0.6276256,1.30428445,10.30678915,-10000.0,-415000.0,-234000.0,97113.44604,56.16,18.47132110595556,3.408344269,43.40819931,-88.57471466,-2.5,-324.8065796,-1.82101059,42.0
2018-07-18 20:40:14.640,-0.183,-0.1913333333333333,-0.3823333333333333,-0.6537766666666667,1.1343025166666667,10.496384383333334,-7666.666666666666,-413333.3333333333,-237333.3333333333,97114.56502,56.16,18.389842987066665,3.408344269,43.40819931,-88.57471466,-2.5,-324.8065796,-1.82101059,42.0
2018-07-18 20:40:14.680,-0.154,-0.1876666666666666,-0.3956666666666666,-0.6799277333333333,0.9643205833333331,10.685979616666666,-5333.333333333333,-411666.6666666667,-240666.66666666663,97115.684,56.16,18.308364868177776,3.408344269,43.40819931,-88.57471466,-2.5,-324.8065796,-1.82101059,42.0
2018-07-18 20:40:14.720,-0.125,-0.184,-0.409,-0.7060788,0.79433865,10.87557485,-3000.0,-410000.0,-244000.0,97116.80298,56.16,18.226886749288887,2.84495601075,42.7792482375,-86.3343486775,-2.5924999715,-315.7173996,-0.7651853565,43.25
2018-07-18 20:40:14.760,-0.089,-0.184,-0.4415,-0.79433865,0.289296175,10.458792225,4000.0,-408500.0,-248000.0,97113.66272,56.155,18.1454086304,2.2815677525,42.150297165,-84.093982695,-2.684999943,-306.6282196,0.290639877,44.5
2018-07-18 20:40:14.800,-0.053,-0.184,-0.474,-0.8825985,-0.2157463,10.0420096,11000.0,-407000.0,-252000.0,97110.52246,56.15,18.09691238405556,1.154791236,40.89239502,-79.61325073,-2.74000001,-298.7155762,0.985267639,45.0
2018-07-18 20:40:14.840,-0.0196666666666666,-0.1866666666666666,-0.4803333333333333,-0.8466407833333333,-0.1438308666666662,10.064891783333334,16333.333333333332,-406000.0,-253000.0,97111.7513,56.15,18.04841613771111,1.154791236,40.89239502,-79.61325073,-2.766666651,-293.20562746666667,1.438606262,45.333333333333336
2018-07-18 20:40:14.880,0.0136666666666666,-0.1893333333333333,-0.4866666666666666,-0.8106830666666667,-0.0719154333333325,10.087773966666669,21666.666666666664,-405000.0,-254000.0,97112.98014,56.15,17.999919891366666,1.154791236,40.89239502,-79.61325073,-2.793333292,-287.6956787333333,1.891944885,45.66666666666666
2018-07-18 20:40:14.920,0.047,-0.192,-0.493,-0.77472535,1.24e-15,10.11065615,27000.0,-404000.0,-255000.0,97114.20898,56.15,17.95142364502222,1.154791236,40.89239502,-79.61325073,-2.819999933,-282.18573,2.345283508,46.0
2018-07-18 20:40:14.960,0.0875,-0.202,-0.4805,-0.652142225,0.3187161250000006,10.341112425,35500.0,-403000.0,-255500.0,97112.9364,56.145,17.90292739867778,1.154791236,40.89239502,-79.61325073,-2.819999933,-282.18573,2.345283508,46.0
2018-07-18 20:40:15.000,0.128,-0.212,-0.468,-0.5295591,0.63743225,10.5715687,44000.0,-402000.0,-256000.0,97111.66382,56.14,17.854431152333333,1.154791236,40.89239502,-79.61325073,-2.889999866,-271.7390137,3.684501648,48.0
2018-07-18 20:40:15.040,0.1576666666666666,-0.2196666666666666,-0.4553333333333333,-0.5034080333333333,0.6897343833333334,10.725206216666669,49000.0,-402000.0,-256000.0,97111.94865,56.14,17.805934905988888,1.154791236,40.89239502,-79.61325073,-2.889999866,-271.7390137,3.684501648,48.0
2018-07-18 20:40:15.080,0.1873333333333333,-0.2273333333333333,-0.4426666666666666,-0.4772569666666666,0.7420365166666667,10.878843733333332,54000.0,-402000.0,-256000.0,97112.23348,56.14,17.757438659644446,1.154791236,40.89239502,-79.61325073,-2.889999866,-271.7390137,3.684501648,48.0
2018-07-18 20:40:15.120,0.217,-0.235,-0.43,-0.4511059,0.79433865,11.03248125,59000.0,-402000.0,-256000.0,97112.51831,56.14,17.7089424133,-0.5244403480000001,41.643117905,-74.392978665,-2.939999819,-270.8942261,4.96937561,49.0
2018-07-18 20:40:15.160,0.1425,-0.242,-0.3914999999999999,-0.48052585,0.7649187,10.919704775,66500.0,-402000.0,-253000.0,97114.071655,56.14,17.69087600705,-2.203671932,42.39384079,-69.1727066,-2.939999819,-270.8942261,4.96937561,49.0
2018-07-18 20:40:15.200,0.068,-0.249,-0.353,-0.5099458,0.73549875,10.8069283,74000.0,-402000.0,-250000.0,97115.625,56.14,17.6728096008,-2.203671932,42.39384079,-69.1727066,-2.954999924,-267.75416565,5.599882125500001,49.5
2018-07-18 20:40:15.240,0.06,-0.26,-0.3326666666666666,-0.51975245,0.6864655,10.770970583333332,77333.33333333333,-401333.3333333333,-249666.66666666663,97114.60164333331,56.13666666666667,17.65474319455,-2.203671932,42.39384079,-69.1727066,-2.970000029,-264.6141052,6.230388641,50.0
2018-07-18 20:40:15.280,0.052,-0.2709999999999999,-0.3123333333333333,-0.5295591,0.63743225,10.735012866666668,80666.66666666667,-400666.6666666667,-249333.3333333333,97113.57828666669,56.13333333333333,17.6366767883,-2.203671932,42.39384079,-69.1727066,-2.975000024,-260.2965393,6.838012695,51.0
2018-07-18 20:40:15.320,0.044,-0.282,-0.292,-0.53936575,0.588399,10.69905515,84000.0,-400000.0,-249000.0,97112.55493,56.13,17.61861038205,-2.203671932,42.39384079,-69.1727066,-2.980000019,-255.9789734,7.445636749,52.0
2018-07-18 20:40:15.360,0.0824999999999999,-0.284,-0.2794999999999999,-0.5295591,0.6472389000000001,10.831444925,89500.0,-399000.0,-250000.0,97112.86621,56.125,17.6005439758,-2.203671932,42.39384079,-69.1727066,-2.980000019,-255.9789734,7.445636749,52.0
2018-07-18 20:40:15.400,0.121,-0.286,-0.267,-0.51975245,0.7060788,10.9638347,95000.0,-398000.0,-251000.0,97113.17749,56.12,17.58247756955,-2.203671932,42.39384079,-69.1727066,-2.970000029,-256.1956482,8.632369995,53.0
2018-07-18 20:40:15.440,0.1076666666666666,-0.2936666666666666,-0.264,-0.4968702666666666,0.7420365166666667,11.156698816666667,96333.33333333331,-397666.6666666667,-251333.3333333333,97113.57422,56.12,17.5644111633,-2.203671932,42.39384079,-69.1727066,-2.970000029,-256.1956482,8.632369995,53.0
2018-07-18 20:40:15.480,0.0943333333333333,-0.3013333333333333,-0.261,-0.4739880833333333,0.7779942333333333,11.349562933333331,97666.66666666669,-397333.3333333333,-251666.66666666663,97113.97095,56.12,17.54634475705,-2.203671932,42.39384079,-69.1727066,-2.970000029,-256.1956482,8.632369995,53.0
2018-07-18 20:40:15.520,0.081,-0.309,-0.258,-0.4511059,0.81395195,11.54242705,99000.0,-397000.0,-252000.0,97114.36768,56.12,17.5282783508,-2.3941466806666667,42.78787358666666,-66.03983815333333,-2.9466666383333333,-258.52064006666666,9.387795766666668,53.66666666666666
2018-07-18 20:40:15.560,0.0795,-0.318,-0.254,-0.436395925,0.897308475,11.851336525,101500.0,-397000.0,-253000.0,97115.560915,56.115,17.54488026009091,-2.5846214293333336,43.181906383333335,-62.906969706666665,-2.9233332476666667,-260.8456319333333,10.143221538333332,54.333333333333336
2018-07-18 20:40:15.600,0.078,-0.327,-0.25,-0.42168595,0.980665,12.160246,104000.0,-397000.0,-254000.0,97116.75415,56.11,17.56148216938182,-2.775096178,43.57593918,-59.77410126,-2.899999857,-263.1706238,10.89864731,55.0
2018-07-18 20:40:15.640,0.0566666666666666,-0.3206666666666666,-0.253,-0.3889971166666666,0.9970094166666666,12.0033396,104666.66666666669,-396333.3333333333,-253666.66666666663,97117.19970666668,56.11333333333333,17.578084078672727,-2.775096178,43.57593918,-59.77410126,-2.899999857,-263.1706238,10.89864731,55.0
2018-07-18 20:40:15.680,0.0353333333333333,-0.3143333333333333,-0.256,-0.3563082833333333,1.0133538333333334,11.8464332,105333.33333333331,-395666.6666666667,-253333.3333333333,97117.64526333332,56.11666666666667,17.594685987963636,-2.775096178,43.57593918,-59.77410126,-2.849999905,-259.3881531,11.96186447,56.0
2018-07-18 20:40:15.720,0.014,-0.308,-0.259,-0.32361945,1.02969825,11.6895268,106000.0,-395000.0,-253000.0,97118.09082,56.12,17.611287897254545,-2.775096178,43.57593918,-59.77410126,-2.849999905,-259.3881531,11.96186447,56.0
2018-07-18 20:40:15.760,0.0385,-0.319,-0.277,-0.2598762249999999,0.8629852,11.9837263,108000.0,-393500.0,-255000.0,97117.16919,56.115,17.627889806545454,-2.775096178,43.57593918,-59.77410126,-2.849999905,-259.3881531,11.96186447,56.0
2018-07-18 20:40:15.800,0.063,-0.33,-0.295,-0.196133,0.69627215,12.2779258,110000.0,-392000.0,-257000.0,97116.24756,56.11,17.644491715836363,-2.775096178,43.57593918,-59.77410126,-2.779999971,-266.8392334,12.97924042,57.0
2018-07-18 20:40:15.840,0.067,-0.323,-0.309,-0.2157463,0.6505077833333334,12.124288283333334,111000.0,-391000.0,-258333.3333333333,97116.75008333332,56.11,17.661093625127272,-2.775096178,43.57593918,-59.77410126,-2.779999971,-266.8392334,12.97924042,57.0
2018-07-18 20:40:15.880,0.071,-0.316,-0.323,-0.2353596,0.6047434166666666,11.970650766666669,112000.0,-390000.0,-259666.66666666663,97117.25260666668,56.11,17.67769553441818,-2.775096178,43.57593918,-59.77410126,-2.7450000045,-268.96458435,13.46589661,57.5
2018-07-18 20:40:15.920,0.075,-0.309,-0.337,-0.2549729,0.55897905,11.81701325,113000.0,-389000.0,-261000.0,97117.75513,56.11,17.69429744370909,-2.775096178,43.57593918,-59.77410126,-2.710000038,-271.0899353,13.9525528,58.0
2018-07-18 20:40:15.960,0.016,-0.3066666666666666,-0.3466666666666667,-0.30400615,0.34323275,11.849702083333334,115000.0,-387666.6666666667,-261666.66666666663,97117.59033333334,56.10666666666667,17.710899353,-2.4920260905,44.07287979,-54.2884655,-2.669999957,-268.81809995,14.41814995,58.5
2018-07-18 20:40:16.000,-0.043,-0.3043333333333333,-0.3563333333333333,-0.3530394,0.1274864499999999,11.882390916666669,117000.0,-386333.3333333333,-262333.3333333333,97117.42553666666,56.10333333333333,17.73649319732727,-2.208956003,44.5698204,-48.80282974,-2.629999876,-266.5462646,14.8837471,59.0
2018-07-18 20:40:16.040,-0.102,-0.302,-0.366,-0.40207265,-0.08825985,11.91507975,119000.0,-385000.0,-263000.0,97117.26074,56.1,17.762087041654546,-2.208956003,44.5698204,-48.80282974,-2.629999876,-266.5462646,14.8837471,59.0
2018-07-18 20:40:16.080,-0.1786666666666666,-0.3033333333333333,-0.3693333333333333,-0.3857282333333333,-0.1634441666666666,12.117750516666668,121666.66666666669,-383333.3333333333,-265666.6666666667,97118.49568666666,56.1,17.787680885981818,-2.208956003,44.5698204,-48.80282974,-2.629999876,-266.5462646,14.8837471,59.0
2018-07-18 20:40:16.120,-0.2553333333333333,-0.3046666666666666,-0.3726666666666666,-0.3693838166666666,-0.2386284833333333,12.320421283333332,124333.33333333331,-381666.6666666667,-268333.3333333333,97119.73063333334,56.1,17.81327473030909,-2.208956003,44.5698204,-48.80282974,-2.5999999046666664,-269.1304626,15.174804686666668,59.333333333333336
2018-07-18 20:40:16.160,-0.332,-0.306,-0.376,-0.3530394,-0.3138128,12.52309205,127000.0,-380000.0,-271000.0,97120.96558,56.1,17.83886857463636,-2.208956003,44.5698204,-48.80282974,-2.569999933333333,-271.7146606,15.465862273333334,59.66666666666666
2018-07-18 20:40:16.200,-0.3545,-0.3025,-0.377,-0.3775560249999999,-0.259876225,12.6505785,130000.0,-375000.0,-275500.0,97120.79163,56.095,17.864462418963637,-2.208956003,44.5698204,-48.80282974,-2.539999962,-274.2988586,15.75691986,60.0
2018-07-18 20:40:16.240,-0.377,-0.299,-0.378,-0.40207265,-0.20593965,12.77806495,133000.0,-370000.0,-280000.0,97120.61768,56.09,17.89005626329091,-2.208956003,44.5698204,-48.80282974,-2.440000057,-279.3331299,16.61149979,61.0
2018-07-18 20:40:16.280,-0.3715,-0.2955,-0.376,-0.4167826249999999,-0.1765197,12.959487974999998,134500.0,-362500.0,-290500.0,97121.33484,56.09,17.91565010761818,-2.208956003,44.5698204,-48.80282974,-2.440000057,-279.3331299,16.61149979,61.0
2018-07-18 20:40:16.320,-0.366,-0.292,-0.374,-0.4314926,-0.14709975,13.140911,136000.0,-355000.0,-301000.0,97122.052,56.09,17.941243951945452,-2.208956003,44.5698204,-48.80282974,-2.339999914,-294.7114868,17.39396286,61.0
2018-07-18 20:40:16.360,-0.1835,-0.276,-0.3914999999999999,-0.583495675,-0.201036325,12.56231865,138500.0,-346500.0,-311000.0,97122.662355,56.085,17.966837796272728,-2.208956003,44.5698204,-48.80282974,-2.339999914,-294.7114868,17.39396286,61.0
2018-07-18 20:40:16.400,-0.001,-0.26,-0.409,-0.73549875,-0.2549729,11.9837263,141000.0,-338000.0,-321000.0,97123.27271,56.08,17.9924316406,-2.208956003,44.5698204,-48.80282974,-2.339999914,-294.7114868,17.39396286,61.0
2018-07-18 20:40:16.440,0.0043333333333333,-0.2663333333333333,-0.408,-0.75511205,-0.3203505666666666,11.980457416666669,142333.33333333334,-335000.0,-324000.0,97124.44661666668,56.08,18.0007958412,-3.129409552,38.10742569,-36.21803284,-2.25,-299.2431641,18.14292526,62.0
2018-07-18 20:40:16.480,0.0096666666666666,-0.2726666666666666,-0.407,-0.77472535,-0.3857282333333333,11.977188533333331,143666.66666666666,-332000.0,-327000.0,97125.62052333332,56.08,18.0091600418,-3.129409552,38.10742569,-36.21803284,-2.25,-299.2431641,18.14292526,62.0
2018-07-18 20:40:16.520,0.015,-0.279,-0.406,-0.79433865,-0.4511059,11.97391965,145000.0,-329000.0,-330000.0,97126.79443,56.08,18.0175242424,-3.129409552,38.10742569,-36.21803284,-2.149999857,-294.4490356,18.86034393,63.0
2018-07-18 20:40:16.560,-0.017,-0.304,-0.375,-0.6864655,-0.299102825,12.057276174999998,148000.0,-325500.0,-333000.0,97128.05481,56.08,18.025888443,-3.129409552,38.10742569,-36.21803284,-2.059999943,-296.8261719,19.52770615,64.0
2018-07-18 20:40:16.600,-0.049,-0.329,-0.344,-0.57859235,-0.14709975,12.1406327,151000.0,-322000.0,-336000.0,97129.31519,56.08,18.0342526436,-3.129409552,38.10742569,-36.21803284,-2.059999943,-296.8261719,19.52770615,64.0
2018-07-18 20:40:16.640,-0.008,-0.317,-0.348,-0.5851301166666667,0.1438308666666666,11.996801833333333,152000.0,-319333.3333333333,-338000.0,97128.37524666666,56.08,18.0426168442,-3.129409552,38.10742569,-36.21803284,-2.0299999316666666,-299.8622843666667,19.73761368,64.0
2018-07-18 20:40:16.680,0.033,-0.305,-0.352,-0.5916678833333333,0.4347614833333333,11.852970966666668,153000.0,-316666.6666666667,-340000.0,97127.43530333332,56.08,18.0509810448,-3.129409552,38.10742569,-36.21803284,-1.9999999203333327,-302.8983968333333,19.94752121,64.0
2018-07-18 20:40:16.720,0.074,-0.293,-0.356,-0.59820565,0.7256921,11.7091401,154000.0,-314000.0,-342000.0,97126.49536,56.08,18.0593452454,-3.129409552,38.10742569,-36.21803284,-1.969999909,-305.9345093,20.15742874,64.0
2018-07-18 20:40:16.760,0.1669999999999999,-0.3075,-0.365,-0.5785923500000001,0.5540757249999999,12.253409175000002,154000.0,-311500.0,-344500.0,97127.163695,56.075,18.05341472629,-3.192230225,37.88497543,-27.33269882,-1.969999909,-305.9345093,20.15742874,64.0
2018-07-18 20:40:16.800,0.26,-0.322,-0.374,-0.55897905,0.38245935,12.79767825,154000.0,-309000.0,-347000.0,97127.83203,56.07,18.04748420718,-3.192230225,37.88497543,-27.33269882,-1.870000005,-310.7942505,20.74546433,65.0
2018-07-18 20:40:16.840,0.329,-0.332,-0.361,-0.5557101666666667,0.0555710166666666,12.89574475,155666.66666666666,-309333.3333333333,-346666.6666666667,97128.85945666669,56.07,18.04155368807,-3.192230225,37.88497543,-27.33269882,-1.870000005,-310.7942505,20.74546433,65.0
2018-07-18 20:40:16.880,0.398,-0.3419999999999999,-0.348,-0.5524412833333333,-0.2713173166666667,12.99381125,157333.33333333334,-309666.6666666667,-346333.3333333333,97129.88688333333,56.07,18.03562316896,-3.192230225,37.88497543,-27.33269882,-1.870000005,-310.7942505,20.74546433,65.0
2018-07-18 20:40:16.920,0.467,-0.352,-0.335,-0.5491724,-0.59820565,13.09187775,159000.0,-310000.0,-346000.0,97130.91431,56.07,18.02969264985,-3.192230225,37.88497543,-27.33269882,-1.769999981,-330.3304749,21.28369522,65.0
2018-07-18 20:40:16.960,0.4455,-0.35,-0.3035,-0.5344624250000001,-0.0735498749999999,12.7094184,160000.0,-313500.0,-342500.0,97130.79529,56.065,18.02376213074,-3.192230225,37.88497543,-27.33269882,-1.769999981,-330.3304749,21.28369522,65.0
2018-07-18 20:40:17.000,0.424,-0.348,-0.272,-0.51975245,0.4511059,12.32695905,161000.0,-317000.0,-339000.0,97130.67627,56.06,18.01783161163,-3.192230225,37.88497543,-27.33269882,-1.669999957,-314.2425537,21.77205276,66.0
2018-07-18 20:40:17.040,0.377,-0.3626666666666666,-0.2636666666666666,-0.4837947333333333,0.2320907166666666,12.519823166666669,161000.0,-319000.0,-336000.0,97131.19710333332,56.06,18.011901092520002,-3.192230225,37.88497543,-27.33269882,-1.6366666156666667,-309.4963684,21.91606267,66.0
2018-07-18 20:40:17.080,0.3299999999999999,-0.3773333333333333,-0.2553333333333333,-0.4478370166666667,0.0130755333333333,12.712687283333333,161000.0,-321000.0,-333000.0,97131.71793666668,56.06,18.00597057341,-3.192230225,37.88497543,-27.33269882,-1.6033332743333333,-304.7501831,22.06007258,66.0
2018-07-18 20:40:17.120,0.283,-0.392,-0.247,-0.4118793,-0.20593965,12.9055514,161000.0,-323000.0,-330000.0,97132.23877,56.06,18.0000400543,-3.192230225,37.88497543,-27.33269882,-1.569999933,-300.0039978,22.20408249,66.0
2018-07-18 20:40:17.160,0.2214999999999999,-0.386,-0.235,-0.4167826249999999,0.269682875,12.34657235,161000.0,-325500.0,-327000.0,97133.184815,56.055,17.9305450916125,-2.132096529,45.81355286,-16.47406387,-1.569999933,-300.0039978,22.20408249,66.0
2018-07-18 20:40:17.200,0.16,-0.38,-0.223,-0.42168595,0.7453054,11.7875933,161000.0,-328000.0,-324000.0,97134.13086,56.05,17.861050128925,-2.132096529,45.81355286,-16.47406387,-1.469999909,-289.466095,22.56437302,67.0
2018-07-18 20:40:17.240,0.082,-0.3786666666666666,-0.218,-0.4282237166666666,0.5720545833333334,11.813744366666668,159000.0,-329000.0,-323333.3333333333,97134.00675333332,56.05,17.7915551662375,-2.132096529,45.81355286,-16.47406387,-1.469999909,-289.466095,22.56437302,67.0
2018-07-18 20:40:17.280,0.004,-0.3773333333333333,-0.213,-0.4347614833333333,0.3988037666666666,11.839895433333332,157000.0,-330000.0,-322666.6666666667,97133.88264666668,56.05,17.72206020355,-2.132096529,45.81355286,-16.47406387,-1.4099999665,-274.6100464,22.712791445,67.0
2018-07-18 20:40:17.320,-0.074,-0.376,-0.208,-0.44129925,0.22555295,11.8660465,155000.0,-331000.0,-322000.0,97133.75854,56.05,17.6525652408625,-2.132096529,45.81355286,-16.47406387,-1.350000024,-259.7539978,22.86120987,67.0
2018-07-18 20:40:17.360,-0.1243333333333333,-0.3683333333333333,-0.2266666666666666,-0.3465016333333333,0.392266,11.990264066666668,153333.33333333334,-328666.6666666667,-325000.0,97134.32617,56.05,17.583070278175,-2.132096529,45.81355286,-16.47406387,-1.2799999715,-252.08101655,22.979171755,67.0
2018-07-18 20:40:17.400,-0.1746666666666667,-0.3606666666666666,-0.2453333333333333,-0.2517040166666666,0.55897905,12.114481633333332,151666.66666666666,-326333.3333333333,-328000.0,97134.8938,56.05,17.5135753154875,-2.132096529,45.81355286,-16.47406387,-1.209999919,-244.4080353,23.09713364,67.0
2018-07-18 20:40:17.440,-0.225,-0.353,-0.264,-0.1569064,0.7256921,12.2386992,150000.0,-324000.0,-331000.0,97135.46143,56.05,17.4440803528,-1.374093443,45.762882235,-12.738317488,-1.209999919,-244.4080353,23.09713364,67.0
2018-07-18 20:40:17.480,-0.2309999999999999,-0.346,-0.2784999999999999,-0.093163175,1.0198916,12.204375925,147500.0,-319500.0,-337000.0,97135.488895,56.045,17.42250997371818,-0.616090357,45.71221161,-9.002571106,-1.209999919,-244.4080353,23.09713364,67.0
2018-07-18 20:40:17.520,-0.237,-0.339,-0.293,-0.02941995,1.3140911,12.17005265,145000.0,-315000.0,-343000.0,97135.51636,56.04,17.400939594636363,-0.616090357,45.71221161,-9.002571106,-1.139999926,-235.16835785,23.18748093,67.0
2018-07-18 20:40:17.560,-0.1876666666666666,-0.3306666666666666,-0.319,0.0424954833333333,1.4056198333333334,12.300807983333334,143666.66666666666,-310333.3333333333,-347333.3333333333,97137.49796666666,56.04,17.379369215554547,-0.616090357,45.71221161,-9.002571106,-1.069999933,-225.9286804,23.27782822,67.0
2018-07-18 20:40:17.600,-0.1383333333333333,-0.3223333333333333,-0.345,0.1144109166666666,1.4971485666666666,12.431563316666669,142333.33333333334,-305666.6666666667,-351666.6666666667,97139.47957333332,56.04,17.35779883647273,-0.616090357,45.71221161,-9.002571106,-0.919999957,-221.1387634,23.39709854,67.0
2018-07-18 20:40:17.640,-0.089,-0.314,-0.371,0.18632635,1.5886773,12.56231865,141000.0,-301000.0,-356000.0,97141.46118,56.04,17.33622845739091,-0.616090357,45.71221161,-9.002571106,-0.919999957,-221.1387634,23.39709854,67.0
2018-07-18 20:40:17.680,-0.052,-0.3065,-0.404,0.1372931,1.5837739750000002,12.410315575,139500.0,-295500.0,-361000.0,97143.814085,56.035,17.31465807830909,-0.616090357,45.71221161,-9.002571106,-0.919999957,-221.1387634,23.39709854,67.0
2018-07-18 20:40:17.720,-0.015,-0.299,-0.437,0.08825985,1.57887065,12.2583125,138000.0,-290000.0,-366000.0,97146.16699,56.03,17.29308769922727,-0.616090357,45.71221161,-9.002571106,-0.769999981,-221.9909668,23.46443558,68.0
2018-07-18 20:40:17.760,-0.1009999999999999,-0.3025,-0.4685,0.0980665,1.52003075,12.498575425,138500.0,-285000.0,-369000.0,97145.60852,56.03,17.271517320145453,-0.616090357,45.71221161,-9.002571106,-0.732499987,-221.663379675,23.46860123,68.0
2018-07-18 20:40:17.800,-0.187,-0.306,-0.5,0.10787315,1.46119085,12.73883835,139000.0,-280000.0,-372000.0,97145.05005,56.03,17.249946941063637,-0.616090357,45.71221161,-9.002571106,-0.6949999929999999,-221.33579255,23.47276688,68.0
2018-07-18 20:40:17.840,-0.1783333333333333,-0.303,-0.5246666666666666,0.0523021333333333,1.02969825,12.823829316666666,139333.33333333334,-275000.0,-375333.3333333333,97145.09481,56.03,17.22837656198182,-0.616090357,45.71221161,-9.002571106,-0.6574999989999999,-221.008205425,23.47693253,68.0
2018-07-18 20:40:17.880,-0.1696666666666666,-0.3,-0.5493333333333333,-0.0032688833333333,0.59820565,12.908820283333334,139666.66666666666,-270000.0,-378666.6666666667,97145.13957,56.03,17.2068061829,-0.616090357,45.71221161,-9.002571106,-0.620000005,-220.6806183,23.48109818,68.0
2018-07-18 20:40:17.920,-0.161,-0.297,-0.574,-0.0588399,0.16671305,12.99381125,140000.0,-265000.0,-382000.0,97145.18433,56.03,17.241193930341666,-1.872589588,41.92175293,4.036832333,-0.479999989,-233.1270142,23.44933701,68.0
2018-07-18 20:40:17.960,-0.1345,-0.3025,-0.565,-0.10787315,0.4511058999999999,12.58193195,141500.0,-256500.0,-388500.0,97148.57483,56.025000000000006,17.275581677783332,-1.872589588,41.92175293,4.036832333,-0.479999989,-233.1270142,23.44933701,68.0
2018-07-18 20:40:18.000,-0.108,-0.308,-0.556,-0.1569064,0.73549875,12.17005265,143000.0,-248000.0,-395000.0,97151.96533,56.02,17.309969425225,-1.872589588,41.92175293,4.036832333,-0.329999983,-247.9887085,23.36800766,67.0
2018-07-18 20:40:18.040,-0.1113333333333333,-0.3303333333333333,-0.5443333333333333,-0.0719154333333333,0.4707191999999999,12.751913883333334,144000.0,-242666.66666666663,-398000.0,97152.26440333332,56.02,17.344357172666665,-1.872589588,41.92175293,4.036832333,-0.2549999874999999,-245.1309204,23.305236815,67.0
2018-07-18 20:40:18.080,-0.1146666666666666,-0.3526666666666667,-0.5326666666666667,0.0130755333333333,0.2059396499999999,13.333775116666668,145000.0,-237333.3333333333,-401000.0,97152.56347666668,56.02,17.378744920108332,-1.872589588,41.92175293,4.036832333,-0.179999992,-242.2731323,23.24246597,67.0
2018-07-18 20:40:18.120,-0.118,-0.375,-0.521,0.0980665,-0.0588399,13.91563635,146000.0,-232000.0,-404000.0,97152.86255,56.02,17.413132667550002,-1.872589588,41.92175293,4.036832333,-0.179999992,-242.2731323,23.24246597,67.0
2018-07-18 20:40:18.160,-0.0313333333333333,-0.364,-0.51,0.0130755333333333,0.1046042666666666,13.549521416666666,145000.0,-227000.0,-407666.6666666667,97152.95613666667,56.016666666666666,17.44752041499167,-1.872589588,41.92175293,4.036832333,-0.179999992,-242.2731323,23.24246597,67.0
2018-07-18 20:40:18.200,0.0553333333333333,-0.353,-0.499,-0.0719154333333333,0.2680484333333333,13.183406483333334,144000.0,-222000.0,-411333.3333333333,97153.04972333332,56.013333333333335,17.481908162433335,-1.872589588,41.92175293,4.036832333,-0.179999992,-242.2731323,23.24246597,67.0
2018-07-18 20:40:18.240,0.142,-0.342,-0.488,-0.1569064,0.4314926,12.81729155,143000.0,-217000.0,-415000.0,97153.14331,56.01,17.516295909875,-1.872589588,41.92175293,4.036832333,-0.029999999,-258.947937,23.05676651,67.0
2018-07-18 20:40:18.280,0.2194999999999999,-0.355,-0.49,-0.196133,0.426589275,12.4936721,143500.0,-212500.0,-417500.0,97154.91333,56.01,17.550683657316668,-1.872589588,41.92175293,4.036832333,0.04,-260.44692995,22.943717955,67.0
2018-07-18 20:40:18.320,0.297,-0.368,-0.492,-0.2353596,0.42168595,12.17005265,144000.0,-208000.0,-420000.0,97156.68335,56.01,17.585071404758335,-1.872589588,41.92175293,4.036832333,0.109999999,-261.9459229,22.8306694,67.0
2018-07-18 20:40:18.360,0.2635,-0.3884999999999999,-0.4535,-0.328522775,0.0294199499999999,11.861143175,142000.0,-208000.0,-421000.0,97157.51648,56.01,17.6194591522,-4.410207748,40.70137405,20.57678032,0.109999999,-261.9459229,22.8306694,67.0
2018-07-18 20:40:18.400,0.23,-0.409,-0.415,-0.42168595,-0.36284605,11.5522337,140000.0,-208000.0,-422000.0,97158.34961,56.01,17.636572924509093,-4.410207748,40.70137405,20.57678032,0.25999999,-252.1821899,22.5583992,67.0
2018-07-18 20:40:18.440,0.1213333333333333,-0.4256666666666666,-0.385,-0.3791904666666666,-0.0065377666666666,11.964113,139000.0,-208333.3333333333,-422666.6666666667,97159.35262,56.00666666666667,17.653686696818184,-4.410207748,40.70137405,20.57678032,0.30249998675,-246.6051025,22.4788703925,66.75
2018-07-18 20:40:18.480,0.0126666666666666,-0.4423333333333333,-0.355,-0.3366949833333333,0.3497705166666666,12.3759923,138000.0,-208666.66666666663,-423333.3333333333,97160.35563,56.00333333333333,17.670800469127272,-4.410207748,40.70137405,20.57678032,0.3449999835,-241.0280151,22.399341585,66.5
2018-07-18 20:40:18.520,-0.096,-0.459,-0.325,-0.2941995,0.7060788,12.7878716,137000.0,-209000.0,-424000.0,97161.35864,56.0,17.687914241436363,-4.410207748,40.70137405,20.57678032,0.38749998025,-235.4509277,22.3198127775,66.25
2018-07-18 20:40:18.560,-0.201,-0.473,-0.3135,-0.14709975,0.3530394000000009,13.5135637,132500.0,-206500.0,-426000.0,97161.63635,56.0,17.705028013745455,-4.410207748,40.70137405,20.57678032,0.429999977,-229.8738403,22.24028397,66.0
2018-07-18 20:40:18.600,-0.306,-0.487,-0.302,0.0,1.74e-15,14.2392558,128000.0,-204000.0,-428000.0,97161.91406,56.0,17.722141786054546,-4.410207748,40.70137405,20.57678032,0.599999964,-241.4707184,21.86526871,66.0
2018-07-18 20:40:18.640,-0.308,-0.479,-0.29725,-0.014709975,0.1863263500000013,14.2613207625,123750.0,-200000.0,-430750.0,97161.5097025,55.9975,17.739255558363638,-4.410207748,40.70137405,20.57678032,0.6566666363333333,-247.45387776666664,21.72540156333333,66.0
2018-07-18 20:40:18.680,-0.31,-0.471,-0.2925,-0.02941995,0.3726527000000008,14.283385725,119500.0,-196000.0,-433500.0,97161.105345,55.995000000000005,17.75636933067273,-4.410207748,40.70137405,20.57678032,0.7133333086666667,-253.4370371333333,21.58553441666667,66.0
2018-07-18 20:40:18.720,-0.312,-0.463,-0.2877499999999999,-0.044129925,0.5589790500000005,14.3054506875,115250.0,-192000.0,-436250.0,97160.7009875,55.9925,17.773483102981817,-4.410207748,40.70137405,20.57678032,0.769999981,-259.4201965,21.44566727,66.0
2018-07-18 20:40:18.760,-0.314,-0.455,-0.283,-0.0588399,0.7453054,14.32751565,111000.0,-188000.0,-439000.0,97160.29663,55.99,17.79059687529091,-4.410207748,40.70137405,20.57678032,0.769999981,-259.4201965,21.44566727,66.0
2018-07-18 20:40:18.800,-0.375,-0.459,-0.297,0.10787315,0.0196133,15.2003075,94000.0,-170000.0,-453000.0,97170.32471,55.99,17.8077106476,-4.410207748,40.70137405,20.57678032,0.930000007,-280.7710571,20.96482468,65.0
2018-07-18 20:40:18.840,-0.3823333333333333,-0.442,-0.297,0.1013353833333333,0.2386284833333333,15.027056683333331,89000.0,-163333.33333333334,-456666.6666666667,97169.14876666668,55.99,17.8272802565,-1.657369971,37.57397842,35.14682007,0.930000007,-280.7710571,20.96482468,65.0
2018-07-18 20:40:18.880,-0.3896666666666666,-0.425,-0.297,0.0947976166666666,0.4576436666666667,14.853805866666669,84000.0,-156666.66666666666,-460333.3333333333,97167.97282333332,55.99,17.8468498654,-1.657369971,37.57397842,35.14682007,0.994999975,-286.3339386,20.69720459,65.0
2018-07-18 20:40:18.920,-0.397,-0.408,-0.297,0.08825985,0.67665885,14.68055505,79000.0,-150000.0,-464000.0,97166.79688,55.99,17.8664194743,-1.657369971,37.57397842,35.14682007,1.059999943,-291.8968201,20.4295845,65.0
2018-07-18 20:40:18.960,-0.37,-0.3914999999999999,-0.303,0.063743225,0.348136075,14.4746154,71500.0,-139000.0,-470500.0,97169.018555,55.985,17.8859890832,-1.657369971,37.57397842,35.14682007,1.059999943,-291.8968201,20.4295845,65.0
2018-07-18 20:40:19.000,-0.343,-0.375,-0.309,0.0392266,0.0196133,14.26867575,64000.0,-128000.0,-477000.0,97171.24023,55.98,17.9055586921,-1.657369971,37.57397842,35.14682007,1.159999967,-300.2403259,19.82439804,64.0
2018-07-18 20:40:19.040,-0.3443333333333333,-0.3716666666666666,-0.3006666666666666,0.08825985,0.1176798,14.46480875,59000.0,-121666.66666666669,-479333.3333333333,97170.67667333334,55.98,17.925128301,-1.657369971,37.57397842,35.14682007,1.159999967,-300.2403259,19.82439804,64.0
2018-07-18 20:40:19.080,-0.3456666666666667,-0.3683333333333333,-0.2923333333333333,0.1372931,0.2157463,14.66094175,54000.0,-115333.33333333331,-481666.6666666667,97170.11311666666,55.98,17.9446979099,-1.657369971,37.57397842,35.14682007,1.194999993,-299.31202695,19.51070404,63.5
2018-07-18 20:40:19.120,-0.347,-0.365,-0.284,0.18632635,0.3138128,14.85707475,49000.0,-109000.0,-484000.0,97169.54956,55.98,17.9642675188,-1.657369971,37.57397842,35.14682007,1.230000019,-298.383728,19.19701004,63.0
2018-07-18 20:40:19.160,-0.3369999999999999,-0.34875,-0.29325,0.1789713625,0.3554910625,14.719781650000002,46000.0,-104500.0,-485750.0,97170.3796375,55.98,17.9838371277,-0.0534526705,33.98608112,39.978673935,1.230000019,-298.383728,19.19701004,63.0
2018-07-18 20:40:19.200,-0.3269999999999999,-0.3325,-0.3025,0.171616375,0.397169325,14.58248855,43000.0,-100000.0,-487500.0,97171.209715,55.98,17.96430934560909,0.4811864296666667,32.790115353333334,41.589291890000005,1.2433333396666666,-297.5037333,18.97263209,63.0
2018-07-18 20:40:19.240,-0.317,-0.31625,-0.3117499999999999,0.1642613875,0.4388475874999999,14.44519545,40000.0,-95500.0,-489250.0,97172.0397925,55.98,17.94478156351818,1.0158255298333334,31.594149586666667,43.199909845,1.2566666603333334,-296.6237386,18.74825414,63.0
2018-07-18 20:40:19.280,-0.307,-0.3,-0.321,0.1569064,0.48052585,14.30790235,37000.0,-91000.0,-491000.0,97172.86987,55.98,17.925253781427273,1.55046463,30.39818382,44.8105278,1.269999981,-295.7437439,18.52387619,63.0
2018-07-18 20:40:19.320,-0.303,-0.283,-0.325,0.12748645,0.392266,13.93524965,21000.0,-72000.0,-497000.0,97167.97485,55.98,17.905725999336365,1.55046463,30.39818382,44.8105278,1.279999971,-295.4145508,17.82214737,62.0
2018-07-18 20:40:19.360,-0.3025,-0.263,-0.3215,0.044129925,0.1569064,13.8077632,16000.0,-63500.0,-499500.0,97166.748045,55.98,17.886198217245454,1.55046463,30.39818382,44.8105278,1.279999971,-295.4145508,17.82214737,62.0
2018-07-18 20:40:19.400,-0.302,-0.243,-0.318,-0.0392266,-0.0784532,13.68027675,11000.0,-55000.0,-502000.0,97165.52124,55.98,17.866670435154546,1.55046463,30.39818382,44.8105278,1.25,-287.1704102,17.08370972,61.0
2018-07-18 20:40:19.440,-0.2826666666666667,-0.239,-0.314,-0.0359577166666666,-0.0228821833333333,13.578941366666667,7666.666666666666,-49333.333333333336,-503000.0,97165.55786,55.97666666666667,17.847142653063635,1.55046463,30.39818382,44.8105278,1.237499982,-284.60359195,16.892772677500002,60.75
2018-07-18 20:40:19.480,-0.2633333333333333,-0.235,-0.31,-0.0326888333333333,0.0326888333333333,13.477605983333332,4333.333333333333,-43666.66666666666,-504000.0,97165.59448,55.97333333333333,17.827614870972727,1.55046463,30.39818382,44.8105278,1.224999964,-282.0367737,16.701835635000002,60.5
2018-07-18 20:40:19.520,-0.244,-0.231,-0.306,-0.02941995,0.08825985,13.3762706,1000.0,-38000.0,-505000.0,97165.6311,55.97,17.80808708888182,1.55046463,30.39818382,44.8105278,1.212499946,-279.46995545000004,16.5108985925,60.25
2018-07-18 20:40:19.560,-0.2235,-0.2265,-0.297,-0.044129925,0.2941994999999999,13.145814325,-3500.0,-31000.0,-507500.0,97166.052245,55.97,17.78855930679091,1.55046463,30.39818382,44.8105278,1.199999928,-276.9031372,16.31996155,60.0
2018-07-18 20:40:19.600,-0.203,-0.222,-0.288,-0.0588399,0.50013915,12.91535805,-8000.0,-24000.0,-510000.0,97166.47339,55.97,17.7690315247,3.791898727,24.00944328,54.90385818,1.110000014,-270.7887573,15.54294968,60.0
2018-07-18 20:40:19.640,-0.1916666666666666,-0.224,-0.2716666666666666,-0.02941995,0.5851301166666667,12.961122416666669,-11333.333333333334,-19666.666666666668,-510333.3333333333,97167.11629333334,55.96666666666667,17.721255143525,3.791898727,24.00944328,54.90385818,1.110000014,-270.7887573,15.54294968,60.0
2018-07-18 20:40:19.680,-0.1803333333333333,-0.226,-0.2553333333333333,0.0,0.6701210833333333,13.006886783333334,-14666.666666666668,-15333.333333333334,-510666.6666666667,97167.75919666668,55.96333333333333,17.67347876235,3.791898727,24.00944328,54.90385818,1.055000007,-264.3265686,15.151641845,59.5
2018-07-18 20:40:19.720,-0.169,-0.228,-0.239,0.02941995,0.75511205,13.05265115,-18000.0,-11000.0,-511000.0,97168.4021,55.96,17.625702381175,3.791898727,24.00944328,54.90385818,1.0,-257.8643799,14.76033401,59.0
2018-07-18 20:40:19.760,-0.178,-0.229,-0.2269999999999999,-0.014709975,0.3334261,13.361560625,-24500.0,-5500.000000000031,-510000.0,97167.02881,55.955,17.577926,3.791898727,24.00944328,54.90385818,1.0,-257.8643799,14.76033401,59.0
2018-07-18 20:40:19.800,-0.187,-0.23,-0.215,-0.0588399,-0.08825985,13.6704701,-31000.0,-6.23e-11,-509000.0,97165.65552,55.95,17.530149618825,3.791898727,24.00944328,54.90385818,0.859999955,-251.5710754,13.95564651,58.0
2018-07-18 20:40:19.840,-0.1973333333333333,-0.211,-0.2113333333333333,-0.1307553333333333,-0.0817220833333333,13.2193642,-34333.333333333336,1999.9999999999584,-509333.3333333333,97165.17537666668,55.95333333333333,17.482373237650002,3.791898727,24.00944328,54.90385818,0.859999955,-251.5710754,13.95564651,58.0
2018-07-18 20:40:19.880,-0.2076666666666666,-0.192,-0.2076666666666666,-0.2026707666666666,-0.0751843166666666,12.7682583,-37666.66666666666,3999.999999999979,-509666.6666666667,97164.69523333332,55.95666666666667,17.434596856475,3.791898727,24.00944328,54.90385818,0.859999955,-251.5710754,13.95564651,58.0
2018-07-18 20:40:19.920,-0.218,-0.173,-0.204,-0.2745862,-0.06864655,12.3171524,-41000.0,6000.0,-510000.0,97164.21509,55.96,17.3868204753,3.791898727,24.00944328,54.90385818,0.7799999715,-244.186203,13.5530529,57.5
2018-07-18 20:40:19.960,-0.2155,-0.1604999999999999,-0.1945,-0.18632635,0.171616375,12.09159945,-45500.0,12000.0,-510500.0,97163.12256,55.955,17.339044094125,3.791898727,24.00944328,54.90385818,0.699999988,-236.8013306,13.15045929,57.0
2018-07-18 20:40:20.000,-0.213,-0.148,-0.185,-0.0980665,0.4118793,11.8660465,-50000.0,18000.0,-511000.0,97162.03003,55.95,17.29126771295,3.791898727,24.00944328,54.90385818,0.519999981,-219.5715027,12.34182739,56.0
2018-07-18 20:40:20.040,-0.2253333333333333,-0.1389999999999999,-0.1836666666666666,-0.1372931,0.1765197,11.66010685,-52333.333333333336,21666.666666666668,-510333.3333333333,97161.35254,55.95,17.243491331775,3.791898727,24.00944328,54.90385818,0.519999981,-219.5715027,12.34182739,56.0
2018-07-18 20:40:20.080,-0.2376666666666666,-0.13,-0.1823333333333333,-0.1765197,-0.0588399,11.4541672,-54666.66666666666,25333.33333333333,-509666.6666666667,97160.67505,55.95,17.1957149506,3.791898727,24.00944328,54.90385818,0.519999981,-219.5715027,12.34182739,56.0
2018-07-18 20:40:20.120,-0.25,-0.121,-0.181,-0.2157463,-0.2941995,11.24822755,-57000.0,29000.0,-509000.0,97159.99756,55.95,17.10634202226923,6.240637779,19.44418335,62.59189606,0.319999993,-193.459137,11.52845001,56.0
2018-07-18 20:40:20.160,-0.2396666666666666,-0.107,-0.185,-0.1765197,0.0163444166666666,11.124009983333332,-60333.333333333336,33333.333333333336,-509000.0,97159.45638,55.946666666666665,17.01696909393846,6.240637779,19.44418335,62.59189606,0.319999993,-193.459137,11.52845001,56.0
2018-07-18 20:40:20.200,-0.2293333333333333,-0.093,-0.189,-0.1372931,0.3268883333333333,10.999792416666669,-63666.66666666666,37666.66666666666,-509000.0,97158.9152,55.943333333333335,16.927596165607692,6.240637779,19.44418335,62.59189606,0.119999997,-171.4265747,10.72959518,55.0
2018-07-18 20:40:20.240,-0.219,-0.079,-0.193,-0.0980665,0.63743225,10.87557485,-67000.0,42000.0,-509000.0,97158.37402,55.94,16.83822323727692,6.240637779,19.44418335,62.59189606,0.119999997,-171.4265747,10.72959518,55.0
2018-07-18 20:40:20.280,-0.285,-0.087,-0.201,-0.02941995,-0.32361945,11.40513395,-70000.0,54000.0,-508000.0,97155.27344,55.94,16.748850308946153,6.240637779,19.44418335,62.59189606,0.119999997,-171.4265747,10.72959518,55.0
2018-07-18 20:40:20.320,-0.3286666666666666,-0.0653333333333333,-0.1916666666666666,-0.0621087833333333,-0.0326888333333332,11.186118766666668,-72000.0,58333.333333333336,-507000.0,97155.38126666666,55.94,16.659477380615385,6.240637779,19.44418335,62.59189606,-0.089999996,-151.0099487,9.938446045,54.0
2018-07-18 20:40:20.360,-0.3723333333333333,-0.0436666666666666,-0.1823333333333333,-0.0947976166666666,0.2582417833333334,10.967103583333332,-74000.0,62666.66666666666,-506000.0,97155.48909333334,55.94,16.570104452284614,6.240637779,19.44418335,62.59189606,-0.1949999889999999,-139.8078003,9.5426712035,53.5
2018-07-18 20:40:20.400,-0.416,-0.022,-0.173,-0.12748645,0.5491724,10.7480884,-76000.0,67000.0,-505000.0,97155.59692,55.94,16.480731523953846,6.240637779,19.44418335,62.59189606,-0.299999982,-128.6056519,9.146896362,53.0
2018-07-18 20:40:20.440,-0.4793333333333333,-0.015,-0.1659999999999999,-0.16671305,0.34323275,10.391780116666666,-77666.66666666667,73666.66666666667,-505000.0,97154.37418333332,55.93666666666667,16.39135859562308,6.240637779,19.44418335,62.59189606,-0.299999982,-128.6056519,9.146896362,53.0
2018-07-18 20:40:20.480,-0.5426666666666666,-0.008,-0.159,-0.20593965,0.1372931,10.035471833333334,-79333.33333333333,80333.33333333333,-505000.0,97153.15144666666,55.93333333333333,16.301985667292307,6.240637779,19.44418335,62.59189606,-0.299999982,-128.6056519,9.146896362,53.0
2018-07-18 20:40:20.520,-0.606,-0.001,-0.152,-0.24516625,-0.06864655,9.67916355,-81000.0,87000.0,-505000.0,97151.92871,55.93,16.21261273896154,6.240637779,19.44418335,62.59189606,-0.4099999815,-115.99617005,8.757278442,52.5
2018-07-18 20:40:20.560,-0.642,0.0206666666666666,-0.143,-0.2615106666666666,0.0947976166666666,9.058075716666666,-80666.66666666667,95333.33333333331,-503000.0,97151.68253666666,55.93,16.123239810630768,6.240637779,19.44418335,62.59189606,-0.519999981,-103.3866882,8.367660522,52.0
2018-07-18 20:40:20.600,-0.6779999999999999,0.0423333333333333,-0.134,-0.2778550833333333,0.2582417833333332,8.436987883333334,-80333.33333333333,103666.66666666669,-501000.0,97151.43636333333,55.93,16.0338668823,6.013532162,8.580525398,68.2559433,-0.74000001,-55.96666336,7.61371994,52.0
2018-07-18 20:40:20.640,-0.714,0.064,-0.125,-0.2941995,0.42168595,7.81590005,-80000.0,112000.0,-499000.0,97151.19019,55.93,15.865576108277777,6.013532162,8.580525398,68.2559433,-0.74000001,-55.96666336,7.61371994,52.0
2018-07-18 20:40:20.680,-0.5675,0.053,-0.131,-0.279489525,0.1569064,8.046356325,-81500.0,130000.0,-496000.0,97147.94617,55.925,15.697285334255556,6.013532162,8.580525398,68.2559433,-0.930000007,-15.94257355,6.892333984,51.0
2018-07-18 20:40:20.720,-0.421,0.042,-0.137,-0.26477955,-0.10787315,8.2768126,-83000.0,148000.0,-493000.0,97144.70215,55.92,15.528994560233333,6.013532162,8.580525398,68.2559433,-0.930000007,-15.94257355,6.892333984,51.0
2018-07-18 20:40:20.760,-0.3455,0.052,-0.142,-0.269682875,-0.26477955,8.1787461,-82000.0,159500.0,-489000.0,97144.430545,55.92,15.360703786211111,6.013532162,8.580525398,68.2559433,-0.930000007,-15.94257355,6.892333984,51.0
2018-07-18 20:40:20.800,-0.27,0.062,-0.147,-0.2745862,-0.42168595,8.0806796,-81000.0,171000.0,-485000.0,97144.15894,55.92,15.192413012188888,6.013532162,8.580525398,68.2559433,-1.0150000155,-0.4431247699999989,6.544944763,50.5
2018-07-18 20:40:20.840,-0.242,0.06,-0.131,-0.18632635,-0.1046042666666666,8.132981733333333,-80000.0,175666.66666666666,-483000.0,97143.51603333332,55.92,15.024122238166669,6.013532162,8.580525398,68.2559433,-1.100000024,15.05632401,6.197555542,50.0
2018-07-18 20:40:20.880,-0.214,0.058,-0.1149999999999999,-0.0980665,0.2124774166666666,8.185283866666667,-79000.0,180333.3333333333,-481000.0,97142.87312666666,55.92,14.855831464144444,6.013532162,8.580525398,68.2559433,-1.25999999,48.07500839,5.53232193,50.0
2018-07-18 20:40:20.920,-0.186,0.056,-0.099,-0.00980665,0.5295591,8.237586,-78000.0,185000.0,-479000.0,97142.23022,55.92,14.687540690122225,6.013532162,8.580525398,68.2559433,-1.25999999,48.07500839,5.53232193,50.0
2018-07-18 20:40:20.960,-0.2135,0.067,-0.067,-0.0196133,0.32361945,7.869836625,-80000.0,190500.0,-478000.0,97142.23938,55.92,14.5192499161,6.013532162,8.580525398,68.2559433,-1.25999999,48.07500839,5.53232193,50.0
2018-07-18 20:40:21.000,-0.241,0.078,-0.035,-0.02941995,0.1176798,7.50208725,-82000.0,196000.0,-477000.0,97142.24854,55.92,14.388726779414286,4.424753666,0.869271874,71.01741028,-1.389999986,71.97914124,4.91104126,49.0
2018-07-18 20:40:21.040,-0.214,0.0853333333333333,-0.02,-0.0523021333333333,-0.0326888333333333,7.36479415,-81333.33333333333,198666.66666666663,-476000.0,97142.77954333334,55.91666666666666,14.25820364272857,4.424753666,0.869271874,71.01741028,-1.389999986,71.97914124,4.91104126,49.0
2018-07-18 20:40:21.080,-0.187,0.0926666666666666,-0.005,-0.0751843166666666,-0.1830574666666666,7.22750105,-80666.66666666667,201333.3333333333,-475000.0,97143.31054666666,55.91333333333333,14.127680506042855,4.424753666,0.869271874,71.01741028,-1.444999993,86.84282302,4.615530014,48.5
2018-07-18 20:40:21.120,-0.16,0.1,0.01,-0.0980665,-0.3334261,7.09020795,-80000.0,204000.0,-474000.0,97143.84155,55.91,13.997157369357142,4.424753666,0.869271874,71.01741028,-1.5,101.7065048,4.320018768,48.0
2018-07-18 20:40:21.160,-0.2065,0.115,0.043,-0.093163175,-0.10787315,6.526325575,-75500.0,209000.0,-472000.0,97143.64624,55.91,13.866634232671428,4.424753666,0.869271874,71.01741028,-1.5,101.7065048,4.320018768,48.0
2018-07-18 20:40:21.200,-0.253,0.13,0.076,-0.08825985,0.1176798,5.9624432,-71000.0,214000.0,-470000.0,97143.45093,55.91,13.736111095985711,4.424753666,0.869271874,71.01741028,-1.579999924,139.4412079,3.780769348,48.0
2018-07-18 20:40:21.240,-0.2223333333333333,0.116,0.0923333333333333,-1.3877787807814457e-17,0.0817220833333333,6.093198533333333,-70333.33333333333,217000.0,-468000.0,97143.28206666668,55.91,13.6055879593,4.424753666,0.869271874,71.01741028,-1.579999924,139.4412079,3.780769348,48.0
2018-07-18 20:40:21.280,-0.1916666666666666,0.102,0.1086666666666666,0.0882598499999999,0.0457643666666666,6.223953866666667,-69666.66666666667,220000.0,-466000.0,97143.11320333334,55.91,13.500321600177775,2.272111893,-3.154695272,70.87599945,-1.629999995,180.3021393,3.258605957,47.0
2018-07-18 20:40:21.320,-0.161,0.088,0.125,0.1765197,0.00980665,6.3547092,-69000.0,223000.0,-464000.0,97142.94434,55.91,13.395055241055555,2.272111893,-3.154695272,70.87599945,-1.629999995,180.3021393,3.258605957,47.0
2018-07-18 20:40:21.360,-0.1495,0.0895,0.14,0.20593965,-0.093163175,6.614585425,-67500.0,228000.0,-461500.0,97141.760255,55.905,13.289788881933331,2.272111893,-3.154695272,70.87599945,-1.629999995,180.3021393,3.258605957,47.0
2018-07-18 20:40:21.400,-0.138,0.091,0.155,0.2353596,-0.196133,6.87446165,-66000.0,233000.0,-459000.0,97140.57617,55.9,13.184522522811111,2.272111893,-3.154695272,70.87599945,-1.629999995,198.8720856,2.773269653,47.0
2018-07-18 20:40:21.440,-0.1333333333333333,0.0943333333333333,0.158,0.26477955,-0.1536375166666666,6.79600845,-65000.0,235333.3333333333,-458333.3333333333,97141.49373333334,55.9,13.079256163688887,2.272111893,-3.154695272,70.87599945,-1.629999995,198.8720856,2.773269653,47.0
2018-07-18 20:40:21.480,-0.1286666666666666,0.0976666666666666,0.161,0.2941995,-0.1111420333333333,6.71755525,-64000.0,237666.66666666663,-457666.6666666667,97142.41129666666,55.9,12.973989804566664,2.272111893,-3.154695272,70.87599945,-1.629999995,198.8720856,2.773269653,47.0
2018-07-18 20:40:21.520,-0.124,0.101,0.164,0.32361945,-0.06864655,6.63910205,-63000.0,240000.0,-457000.0,97143.32886,55.9,12.868723445444443,2.272111893,-3.154695272,70.87599945,-1.589999914,224.7837982,2.33914566,46.0
2018-07-18 20:40:21.560,0.0053333333333333,0.0983333333333333,0.1656666666666666,0.3595771666666666,-0.1307553333333333,6.652177583333334,-58333.333333333336,241666.66666666663,-455000.0,97143.74796666666,55.9,12.76345708632222,2.272111893,-3.154695272,70.87599945,-1.5549999475,229.48236085,2.138689041,46.0
2018-07-18 20:40:21.600,0.1346666666666666,0.0956666666666666,0.1673333333333333,0.3955348833333333,-0.1928641166666666,6.665253116666666,-53666.66666666666,243333.3333333333,-453000.0,97144.16707333332,55.9,12.6581907272,2.272111893,-3.154695272,70.87599945,-1.519999981,234.1809235,1.938232422,46.0
2018-07-18 20:40:21.640,0.264,0.093,0.169,0.4314926,-0.2549729,6.67832865,-49000.0,245000.0,-451000.0,97144.58618,55.9,12.65265655515,1.296288982,-4.2422937155,69.662109375,-1.519999981,234.1809235,1.938232422,46.0
2018-07-18 20:40:21.680,0.378,0.0735,0.1635,0.5638823749999999,-0.250069575,7.330470875,-46000.0,243000.0,-452000.0,97143.78357,55.895,12.6471223831,0.320466071,-5.329892159,68.4482193,-1.519999981,234.1809235,1.938232422,46.0
2018-07-18 20:40:21.720,0.492,0.054,0.158,0.69627215,-0.24516625,7.9826131,-43000.0,241000.0,-453000.0,97142.98096,55.89,12.64158821105,0.320466071,-5.329892159,68.4482193,-1.4833333096666668,235.6210683333333,1.8145599366666667,46.0
2018-07-18 20:40:21.760,0.4383333333333333,0.067,0.172,0.7453054,-0.1438308666666666,8.106830666666667,-39666.66666666666,235000.0,-455333.3333333333,97144.39087,55.89,12.636054039,0.320466071,-5.329892159,68.4482193,-1.4466666383333333,237.06121316666668,1.6908874513333334,46.0
2018-07-18 20:40:21.800,0.3846666666666666,0.08,0.186,0.7943386499999999,-0.0424954833333333,8.231048233333333,-36333.333333333336,229000.0,-457666.6666666667,97145.80078,55.89,12.63051986695,0.320466071,-5.329892159,68.4482193,-1.409999967,238.501358,1.567214966,46.0
2018-07-18 20:40:21.840,0.331,0.093,0.2,0.8433719,0.0588399,8.3552658,-33000.0,223000.0,-460000.0,97147.21069,55.89,12.6249856949,0.320466071,-5.329892159,68.4482193,-1.344999969,244.70204925,1.406259537,45.5
2018-07-18 20:40:21.880,0.2775,0.088,0.2075,0.87279185,0.20593965,8.5317855,-33000.0,213500.0,-464000.0,97147.94006,55.89,12.61945152285,0.320466071,-5.329892159,68.4482193,-1.279999971,250.9027405,1.245304108,45.0
2018-07-18 20:40:21.920,0.224,0.083,0.215,0.9022118,0.3530394,8.7083052,-33000.0,204000.0,-468000.0,97148.66943,55.89,12.6139173508,0.320466071,-5.329892159,68.4482193,-1.2099999785,247.81450655,1.1004486085,45.0
2018-07-18 20:40:21.960,0.129,0.0686666666666666,0.2213333333333333,0.95124505,0.4347614833333333,8.868480483333332,-29000.0,200333.3333333333,-470333.3333333333,97149.4283,55.88666666666667,12.60838317875,0.320466071,-5.329892159,68.4482193,-1.139999986,244.7262726,0.955593109,45.0
