time,field.angular_velocity.x,field.angular_velocity.y,field.angular_velocity.z,field.linear_acceleration.x,field.linear_acceleration.y,field.linear_acceleration.z,field.magnetic_field.x,field.magnetic_field.y,field.magnetic_field.z,field.fluid_pressure,field.temperature,field.airspeed,field.measured.pitch,field.measured.roll,field.measured.yaw,field.alt_error,field.aspd_error,field.xtrack_error,field.wp_dist
2018-10-05 18:48:44.960,0.67,-0.051,-0.171,-1.26505785,-0.04903325,10.79712165,-147000.0,37000.0,-572000.0,96946.41113,38.2,0.0,-2.553077698,26.20179176,91.63879395,0.349999994,-912.1444702,-34.31084442,10.0
2018-10-05 18:48:45.000,0.67,-0.051,-0.171,-1.26505785,-0.04903325,10.79712165,-147000.0,37000.0,-572000.0,96946.41113,38.2,0.0,-2.553077698,26.20179176,91.63879395,0.349999994,-912.1444702,-34.31084442,10.0
2018-10-05 18:48:45.040,0.6433333333333333,-0.0743333333333333,-0.1523333333333333,-1.3075533333333331,-0.0392266,10.172764933333331,-147000.0,27333.333333333336,-573333.3333333334,96947.27172666666,38.196666666666665,0.0,-2.553077698,26.20179176,91.63879395,0.349999994,-912.1444702,-34.31084442,10.0
2018-10-05 18:48:45.080,0.6166666666666667,-0.0976666666666666,-0.1336666666666666,-1.3500488166666669,-0.02941995,9.548408216666664,-147000.0,17666.666666666668,-574666.6666666666,96948.13232333334,38.193333333333335,0.0,-2.553077698,26.20179176,91.63879395,0.349999994,-912.1444702,-34.31084442,10.0
2018-10-05 18:48:45.120,0.59,-0.121,-0.115,-1.3925443,-0.0196133,8.9240515,-147000.0,8000.0,-576000.0,96948.99292,38.19,0.0,-2.553077698,26.20179176,91.63879395,0.459999979,-900.9334717,-31.90366936,12.0
2018-10-05 18:48:45.160,0.451,-0.155,-0.092,-1.32389775,0.20593965,9.5516771,-149000.0,-18000.0,-571000.0,96950.54321,38.19,0.0,-2.553077698,26.20179176,91.63879395,0.5149999860000001,-900.9334717,-30.708968165,13.5
2018-10-05 18:48:45.200,0.3803333333333333,-0.1616666666666666,-0.0946666666666666,-1.281402266666667,0.3007372666666666,10.01258965,-150333.33333333334,-24333.33333333333,-567000.0,96952.91544333332,38.19,0.0,-2.553077698,26.20179176,91.63879395,0.569999993,-900.9334717,-29.51426697,15.0
2018-10-05 18:48:45.240,0.3096666666666666,-0.1683333333333333,-0.0973333333333333,-1.2389067833333334,0.3955348833333333,10.4735022,-151666.66666666666,-30666.666666666664,-563000.0,96955.28767666667,38.19,0.0,-2.553077698,26.20179176,91.63879395,0.569999993,-900.9334717,-29.51426697,15.0
2018-10-05 18:48:45.280,0.239,-0.175,-0.1,-1.1964113,0.4903325,10.93441475,-153000.0,-37000.0,-559000.0,96957.65991,38.19,0.0,-2.553077698,26.20179176,91.63879395,0.689999998,-867.5178223,-27.14254379,17.0
2018-10-05 18:48:45.320,0.1883333333333333,-0.174,-0.104,-1.140840283333333,0.5491724,11.320142983333334,-155666.66666666666,-40000.0,-558333.3333333334,96956.12589333332,38.19,0.0,-2.136289835,38.42855835,95.85717011,0.689999998,-867.5178223,-27.14254379,17.0
2018-10-05 18:48:45.360,0.1376666666666666,-0.173,-0.108,-1.0852692666666668,0.6080123,11.705871216666669,-158333.33333333334,-43000.0,-557666.6666666666,96954.59187666667,38.19,0.0,-2.136289835,38.42855835,95.85717011,0.810000002,-867.5178223,-24.78708649,19.0
2018-10-05 18:48:45.400,0.087,-0.172,-0.112,-1.02969825,0.6668522,12.09159945,-161000.0,-46000.0,-557000.0,96953.05786,38.19,0.0,-2.136289835,38.42855835,95.85717011,0.810000002,-867.5178223,-24.78708649,19.0
2018-10-05 18:48:45.440,0.0789999999999999,-0.1594999999999999,-0.14,-1.0395049,0.8580818750000001,11.77778665,-162500.0,-49500.0,-557000.0,96953.54004,38.185,0.0,-2.136289835,38.42855835,95.85717011,0.810000002,-867.5178223,-24.78708649,19.0
2018-10-05 18:48:45.480,0.071,-0.147,-0.168,-1.04931155,1.04931155,11.46397385,-164000.0,-53000.0,-557000.0,96954.02222,38.18,0.0,-2.136289835,38.42855835,95.85717011,0.810000002,-867.5178223,-24.78708649,19.0
2018-10-05 18:48:45.520,0.0366666666666666,-0.1453333333333333,-0.1883333333333333,-0.9970094166666668,0.9218251,11.653569083333334,-167666.66666666666,-53333.333333333336,-557333.3333333334,96956.70166333333,38.17666666666667,0.0,-2.136289835,38.42855835,95.85717011,0.930000007,-843.3529053,-22.46385002,22.0
2018-10-05 18:48:45.560,0.0023333333333333,-0.1436666666666666,-0.2086666666666666,-0.9447072833333332,0.79433865,11.843164316666666,-171333.33333333334,-53666.66666666666,-557666.6666666666,96959.38110666668,38.17333333333333,0.0,-2.03598690025,38.651675225000005,96.87262917,0.994999975,-843.3529053,-21.304909705,23.0
2018-10-05 18:48:45.600,-0.032,-0.142,-0.229,-0.89240515,0.6668522,12.03275955,-175000.0,-54000.0,-558000.0,96962.06055,38.17,0.0,-1.9356839655,38.8747921,97.88808823,1.059999943,-843.3529053,-20.14596939,24.0
2018-10-05 18:48:45.640,0.0099999999999999,-0.1455,-0.2305,-0.8825985000000001,0.593302325,11.7875933,-174500.0,-54500.0,-552500.0,96961.85608,38.17,0.0,-1.83538103075,39.097908975,98.90354729,1.1199999455,-821.2696228,-19.001748085000003,25.0
2018-10-05 18:48:45.680,0.052,-0.149,-0.232,-0.87279185,0.51975245,11.54242705,-174000.0,-55000.0,-547000.0,96961.65161,38.17,0.0,-1.735078096,39.32102585,99.91900635,1.179999948,-799.1863403,-17.85752678,26.0
2018-10-05 18:48:45.720,0.0586666666666666,-0.162,-0.2306666666666667,-0.8662540833333333,0.5720545833333334,11.261303083333331,-176666.66666666666,-55333.333333333336,-550000.0,96960.18676666668,38.17,0.0,-1.735078096,39.32102585,99.91900635,1.179999948,-799.1863403,-17.85752678,26.0
2018-10-05 18:48:45.760,0.0653333333333333,-0.175,-0.2293333333333333,-0.8597163166666667,0.6243567166666667,10.980179116666667,-179333.33333333334,-55666.66666666666,-553000.0,96958.72192333332,38.17,0.0,-1.735078096,39.32102585,99.91900635,1.309999943,-799.1863403,-15.58058929,28.0
2018-10-05 18:48:45.800,0.072,-0.188,-0.228,-0.85317855,0.67665885,10.69905515,-182000.0,-56000.0,-556000.0,96957.25708,38.17,0.0,-1.735078096,39.32102585,99.91900635,1.309999943,-799.1863403,-15.58058929,28.0
2018-10-05 18:48:45.840,0.1134999999999999,-0.193,-0.2355,-0.7992419749999999,0.55897905,10.81673495,-184500.0,-60000.0,-558000.0,96961.4624,38.17,0.0,-1.735078096,39.32102585,99.91900635,1.34249994175,-791.777435275,-15.02016687,28.75
2018-10-05 18:48:45.880,0.155,-0.198,-0.243,-0.7453054,0.44129925,10.93441475,-187000.0,-64000.0,-560000.0,96965.66772,38.17,0.0,-1.735078096,39.32102585,99.91900635,1.3749999405,-784.36853025,-14.45974445,29.5
2018-10-05 18:48:45.920,0.1253333333333333,-0.2046666666666666,-0.2456666666666666,-0.71588545,0.4086104166666666,11.097858916666668,-189333.3333333333,-67000.0,-557000.0,96964.94343666668,38.16666666666666,0.0,-1.8365430033333332,39.79660161333333,101.7242864,1.446666598333333,-779.4292602333334,-13.339120863333331,30.666666666666668
2018-10-05 18:48:45.960,0.0956666666666666,-0.2113333333333333,-0.2483333333333333,-0.6864655,0.3759215833333333,11.261303083333331,-191666.66666666663,-70000.0,-554000.0,96964.21915333332,38.16333333333333,0.0,-1.9380079106666668,40.27217737666667,103.52956645,1.5183332561666667,-774.4899902166667,-12.218497276666668,31.83333333333333
2018-10-05 18:48:46.000,0.066,-0.218,-0.251,-0.65704555,0.34323275,11.42474725,-194000.0,-73000.0,-551000.0,96963.49487,38.16,0.0,-2.039472818,40.74775314,105.3348465,1.589999914,-769.5507202,-11.09787369,33.0
2018-10-05 18:48:46.040,0.026,-0.2155,-0.2495,-0.6080123,0.387362675,12.027856225,-197500.0,-76500.0,-550500.0,96964.633175,38.16,0.0,-2.039472818,40.74775314,105.3348465,1.589999914,-769.5507202,-11.09787369,33.0
2018-10-05 18:48:46.080,-0.014,-0.213,-0.248,-0.55897905,0.4314926,12.6309652,-201000.0,-80000.0,-550000.0,96965.77148,38.16,0.0,-2.039472818,40.74775314,105.3348465,1.74000001,-753.1236572,-8.889347076,35.0
2018-10-05 18:48:46.120,-0.0085,-0.21,-0.2435,-0.505042475,0.524655775,12.704515075,-203500.0,-80000.0,-546500.0,96966.41235,38.16,0.0,-2.039472818,40.74775314,105.3348465,1.819999993,-753.1236572,-7.792608261,36.0
2018-10-05 18:48:46.160,-0.003,-0.207,-0.239,-0.4511059,0.61781895,12.77806495,-206000.0,-80000.0,-543000.0,96967.05322,38.16,0.0,-2.039472818,40.74775314,105.3348465,1.899999976,-753.1236572,-6.695869446,37.0
2018-10-05 18:48:46.200,-0.0073333333333333,-0.2113333333333333,-0.2336666666666666,-0.4118793,0.5818612333333333,13.059188916666669,-210666.66666666663,-80000.0,-544333.3333333334,96967.19360333332,38.156666666666666,0.0,-2.039472818,40.74775314,105.3348465,1.899999976,-753.1236572,-6.695869446,37.0
2018-10-05 18:48:46.240,-0.0116666666666666,-0.2156666666666666,-0.2283333333333333,-0.3726527,0.5459035166666667,13.340312883333333,-215333.3333333333,-80000.0,-545666.6666666666,96967.33398666666,38.15333333333333,0.0,-2.039472818,40.74775314,105.3348465,2.039999962,-741.7337646,-4.532001495,40.0
2018-10-05 18:48:46.280,-0.016,-0.22,-0.223,-0.3334261,0.5099458,13.62143685,-220000.0,-80000.0,-547000.0,96967.47437,38.15,0.0,-2.039472818,40.74775314,105.3348465,2.039999962,-741.7337646,-4.532001495,40.0
2018-10-05 18:48:46.320,-0.0029999999999999,-0.217,-0.2135,-0.308909475,0.505042475,13.4743371,-223500.0,-81500.0,-547000.0,96970.803835,38.15,0.0,-2.039472818,40.74775314,105.3348465,2.039999962,-741.7337646,-4.532001495,40.0
2018-10-05 18:48:46.360,0.01,-0.214,-0.204,-0.28439285,0.50013915,13.32723735,-227000.0,-83000.0,-547000.0,96974.1333,38.15,0.0,-2.039472818,40.74775314,105.3348465,2.039999962,-741.7337646,-4.532001495,40.0
2018-10-05 18:48:46.400,-0.022,-0.21375,-0.2009999999999999,-0.2745862,0.55897905,13.398335562500002,-228250.0,-83000.0,-544250.0,96975.17395,38.1475,0.0,-2.039472818,40.74775314,105.3348465,2.190000057,-741.7337646,-2.38640213,42.0
2018-10-05 18:48:46.440,-0.054,-0.2135,-0.198,-0.26477955,0.61781895,13.469433775,-229500.0,-83000.0,-541500.0,96976.2146,38.145,0.0,-1.744302511,40.79123688,114.2103424,2.190000057,-741.7337646,-2.38640213,42.0
2018-10-05 18:48:46.480,-0.086,-0.21325,-0.195,-0.2549729,0.6766588499999999,13.5405319875,-230750.0,-83000.0,-538750.0,96977.25525,38.1425,0.0,-1.744302511,40.79123688,114.2103424,2.309999943,-721.6283569,-0.29045105,44.0
2018-10-05 18:48:46.520,-0.118,-0.213,-0.192,-0.24516625,0.73549875,13.6116302,-232000.0,-83000.0,-536000.0,96978.2959,38.14,0.0,-1.744302511,40.79123688,114.2103424,2.309999943,-721.6283569,-0.29045105,44.0
2018-10-05 18:48:46.560,-0.184,-0.2314999999999999,-0.197,-0.142196425,0.760015375,14.920817975,-237000.0,-81500.0,-537000.0,96979.21448,38.14,0.0,-1.744302511,40.79123688,114.2103424,2.3699998855,-721.6283569,0.7615699765000001,45.0
2018-10-05 18:48:46.600,-0.25,-0.25,-0.202,-0.0392266,0.784532,16.23000575,-242000.0,-80000.0,-538000.0,96980.13306,38.14,0.0,-1.744302511,40.79123688,114.2103424,2.429999828,-721.6283569,1.813591003,46.0
2018-10-05 18:48:46.640,-0.507,-0.251,-0.1655,-0.10787315,0.784532,16.328072249999998,-244000.0,-70500.0,-524500.0,96980.6366,38.14,0.0,-1.744302511,40.79123688,114.2103424,2.469999909,-716.8588562,2.8445415495,47.0
2018-10-05 18:48:46.680,-0.764,-0.252,-0.129,-0.1765197,0.784532,16.42613875,-246000.0,-61000.0,-511000.0,96981.14014,38.14,0.0,-1.744302511,40.79123688,114.2103424,2.50999999,-712.0893555,3.875492096,48.0
2018-10-05 18:48:46.720,-1.0955,-0.243,-0.0845,-0.142196425,0.9414384,15.91619295,-250000.0,-42500.0,-512500.0,96983.23059,38.135000000000005,0.0,-1.744302511,40.79123688,114.2103424,2.50999999,-712.0893555,3.875492096,48.0
2018-10-05 18:48:46.760,-1.427,-0.234,-0.04,-0.10787315,1.0983448,15.40624715,-254000.0,-24000.0,-514000.0,96985.32104,38.13,0.0,-1.744302511,40.79123688,114.2103424,2.50999999,-712.0893555,3.875492096,48.0
2018-10-05 18:48:46.800,-0.9686666666666668,-0.1993333333333333,-0.103,-0.14709975,1.16699135,15.183963083333332,-259000.0,-9000.0,-519333.3333333333,96985.03010666666,38.13,0.0,-1.0618254343333335,36.92906825,116.20379636666668,2.528333306,-710.9804891166667,4.894165674833333,49.0
2018-10-05 18:48:46.840,-0.5103333333333334,-0.1646666666666666,-0.166,-0.18632635,1.2356379,14.961679016666666,-264000.0,6000.0,-524666.6666666666,96984.73917333334,38.13,0.0,-0.3793483576666667,33.06689962,118.19725033333332,2.546666622,-709.8716227333333,5.912839253666666,50.0
2018-10-05 18:48:46.880,-0.052,-0.13,-0.229,-0.22555295,1.30428445,14.73939495,-269000.0,21000.0,-530000.0,96984.44824,38.13,0.0,0.303128719,29.20473099,120.1907043,2.564999938,-708.76275635,6.9315128325,51.0
2018-10-05 18:48:46.920,0.0463333333333333,-0.12,-0.2593333333333333,-0.2517040166666666,1.1898735333333332,14.206566966666664,-272666.6666666667,20333.33333333333,-533333.3333333334,96982.71687666666,38.13,0.0,0.303128719,29.20473099,120.1907043,2.5474999545,-707.099456775,8.43806934325,52.5
2018-10-05 18:48:46.960,0.1446666666666666,-0.11,-0.2896666666666667,-0.2778550833333333,1.0754626166666663,13.673738983333331,-276333.3333333333,19666.666666666668,-536666.6666666666,96980.98551333332,38.13,0.0,0.303128719,29.20473099,120.1907043,2.529999971,-705.4361572,9.944625854,54.0
2018-10-05 18:48:47.000,0.243,-0.1,-0.32,-0.30400615,0.9610517,13.140911,-280000.0,19000.0,-540000.0,96979.25415,38.13,0.0,0.303128719,29.20473099,120.1907043,2.529999971,-705.4361572,9.944625854,54.0
2018-10-05 18:48:47.040,0.2465,-0.107,-0.3265,-0.367749375,0.858081875,12.930068025,-282500.0,12500.0,-540000.0,96978.063965,38.125,0.0,0.303128719,29.20473099,120.1907043,2.529999971,-705.4361572,9.944625854,54.0
2018-10-05 18:48:47.080,0.25,-0.114,-0.333,-0.4314926,0.75511205,12.71922505,-285000.0,6000.0,-540000.0,96976.87378,38.12,0.0,0.303128719,29.20473099,120.1907043,2.4900000095,-696.293457,10.913227082,55.0
2018-10-05 18:48:47.120,0.2856666666666667,-0.1166666666666666,-0.332,-0.4314926,0.6472389000000001,12.614620783333333,-284000.0,666.666666666667,-540666.6666666666,96977.27457666666,38.12,0.0,0.303128719,29.20473099,120.1907043,2.450000048,-687.1507568,11.88182831,56.0
2018-10-05 18:48:47.160,0.3213333333333333,-0.1193333333333333,-0.331,-0.4314926,0.53936575,12.510016516666669,-283000.0,-4666.666666666666,-541333.3333333334,96977.67537333332,38.12,0.0,0.2375381885,29.391190530000003,123.2524452,2.409999967,-687.1507568,12.87469292,57.0
2018-10-05 18:48:47.200,0.357,-0.122,-0.33,-0.4314926,0.4314926,12.40541225,-282000.0,-10000.0,-542000.0,96978.07617,38.12,0.0,0.171947658,29.57765007,126.3141861,2.369999886,-687.1507568,13.86755753,58.0
2018-10-05 18:48:47.240,0.4,-0.124,-0.306,-0.446202575,0.3138128,12.160246,-282000.0,-20000.0,-540500.0,96974.719235,38.12,0.0,0.171947658,29.57765007,126.3141861,2.369999886,-687.1507568,13.86755753,58.0
2018-10-05 18:48:47.280,0.443,-0.126,-0.282,-0.46091255,0.196133,11.91507975,-282000.0,-30000.0,-539000.0,96971.3623,38.12,0.0,0.171947658,29.57765007,126.3141861,2.3199999335,-680.95684815,14.801799775,59.0
2018-10-05 18:48:47.320,0.3953333333333333,-0.1306666666666666,-0.258,-0.4674503166666666,0.26477955,11.839895433333334,-283333.3333333333,-37666.66666666666,-535666.6666666666,96973.45174,38.12,0.0,0.171947658,29.57765007,126.3141861,2.269999981,-674.7629395,15.73604202,60.0
2018-10-05 18:48:47.360,0.3476666666666667,-0.1353333333333333,-0.2339999999999999,-0.4739880833333333,0.3334260999999999,11.764711116666666,-284666.6666666667,-45333.333333333336,-532333.3333333334,96975.54118,38.12,0.0,0.171947658,29.57765007,126.3141861,2.269999981,-674.7629395,15.73604202,60.0
2018-10-05 18:48:47.400,0.3,-0.14,-0.21,-0.48052585,0.40207265,11.6895268,-286000.0,-53000.0,-529000.0,96977.63062,38.12,0.0,0.171947658,29.57765007,126.3141861,2.2199999095,-674.7629395,16.65646553,61.0
2018-10-05 18:48:47.440,0.273,-0.1595,-0.202,-0.406975975,0.4903324999999999,11.753270025,-285500.0,-62000.0,-530000.0,96976.708985,38.115,0.0,0.171947658,29.57765007,126.3141861,2.169999838,-674.7629395,17.57688904,62.0
2018-10-05 18:48:47.480,0.246,-0.179,-0.194,-0.3334261,0.57859235,11.81701325,-285000.0,-71000.0,-531000.0,96975.78735,38.11,0.0,0.171947658,29.57765007,126.3141861,2.169999838,-674.7629395,17.57688904,62.0
2018-10-05 18:48:47.520,0.2446666666666666,-0.1783333333333333,-0.196,-0.3366949833333333,0.5557101666666666,11.957575233333332,-287333.3333333333,-76000.0,-527666.6666666666,96975.56559,38.11,0.0,0.171947658,29.57765007,126.3141861,2.1149998905,-681.02465825,18.48238373,62.5
2018-10-05 18:48:47.560,0.2433333333333333,-0.1776666666666666,-0.198,-0.3399638666666666,0.5328279833333334,12.098137216666666,-289666.6666666667,-81000.0,-524333.3333333334,96975.34383,38.11,0.0,0.171947658,29.57765007,126.3141861,2.059999943,-687.286377,19.38787842,63.0
2018-10-05 18:48:47.600,0.242,-0.177,-0.2,-0.34323275,0.5099458,12.2386992,-292000.0,-86000.0,-521000.0,96975.12207,38.11,0.0,0.171947658,29.57765007,126.3141861,1.959999919,-687.286377,21.18922806,65.0
2018-10-05 18:48:47.640,0.1999999999999999,-0.177,-0.197,-0.2909306166666666,0.5164835666666666,12.389067833333332,-289000.0,-91333.33333333331,-515666.6666666667,96975.72631666668,38.11,0.0,0.0972147735,33.627106665,130.26921464999998,1.959999919,-687.286377,21.18922806,65.0
2018-10-05 18:48:47.680,0.1579999999999999,-0.177,-0.194,-0.2386284833333333,0.5230213333333333,12.539436466666666,-286000.0,-96666.66666666669,-510333.3333333333,96976.33056333334,38.11,0.0,0.022481889,37.67656326,134.2242432,1.959999919,-687.286377,21.18922806,65.0
2018-10-05 18:48:47.720,0.116,-0.177,-0.191,-0.18632635,0.5295591,12.6898051,-283000.0,-102000.0,-505000.0,96976.93481,38.11,0.0,0.022481889,37.67656326,134.2242432,1.860000014,-664.7035522,22.93181992,67.0
2018-10-05 18:48:47.760,0.083,-0.163,-0.198,-0.24516625,0.77472535,12.0229529,-298000.0,-109000.0,-512000.0,96977.70386,38.1,0.0,0.022481889,37.67656326,134.2242432,1.860000014,-664.7035522,22.93181992,67.0
2018-10-05 18:48:47.800,0.075,-0.1603333333333333,-0.2063333333333333,-0.2418973666666666,0.7714564666666667,11.794131066666669,-297666.6666666667,-111000.0,-508000.0,96976.22681,38.1,0.0,0.022481889,37.67656326,134.2242432,1.75999999,-664.7035522,24.73536301,69.0
2018-10-05 18:48:47.840,0.067,-0.1576666666666666,-0.2146666666666666,-0.2386284833333333,0.7681875833333333,11.565309233333332,-297333.3333333333,-113000.0,-504000.0,96974.74976,38.1,0.0,0.022481889,37.67656326,134.2242432,1.75999999,-664.7035522,24.73536301,69.0
2018-10-05 18:48:47.880,0.059,-0.155,-0.223,-0.2353596,0.7649187,11.3364874,-297000.0,-115000.0,-500000.0,96973.27271,38.1,0.0,0.022481889,37.67656326,134.2242432,1.7149999735,-656.9281616000001,25.601039890000003,70.0
2018-10-05 18:48:47.920,0.034,-0.16,-0.2336666666666666,-0.2026707666666666,0.7681875833333333,11.575115883333332,-296333.3333333333,-117333.33333333331,-497333.3333333333,96974.01733666669,38.1,0.0,0.022481889,37.67656326,134.2242432,1.669999957,-649.152771,26.46671677,71.0
2018-10-05 18:48:47.960,0.009,-0.165,-0.2443333333333333,-0.1699819333333333,0.7714564666666667,11.813744366666668,-295666.6666666667,-119666.66666666669,-494666.6666666667,96974.76196333334,38.1,0.0,0.022481889,37.67656326,134.2242432,1.6249999405,-649.152771,27.330093385,71.5
2018-10-05 18:48:48.000,-0.016,-0.17,-0.255,-0.1372931,0.77472535,12.05237285,-295000.0,-122000.0,-492000.0,96975.50659,38.1,0.0,0.022481889,37.67656326,134.2242432,1.579999924,-649.152771,28.19347,72.0
2018-10-05 18:48:48.040,-0.018,-0.165,-0.2583333333333333,-0.1503686333333333,0.8106830666666667,12.026221783333332,-296666.6666666667,-123000.0,-492666.6666666667,96974.58903,38.09666666666667,0.0,0.1257571804999999,38.64921188,137.61100770000002,1.539999962,-648.20022585,29.033401490000003,73.0
2018-10-05 18:48:48.080,-0.02,-0.16,-0.2616666666666666,-0.1634441666666666,0.8466407833333333,12.000070716666666,-298333.3333333333,-124000.0,-493333.3333333333,96973.67147,38.09333333333333,0.0,0.229032472,39.6218605,140.9977722,1.5,-647.2476807,29.87333298,74.0
2018-10-05 18:48:48.120,-0.022,-0.155,-0.265,-0.1765197,0.8825985,11.97391965,-300000.0,-125000.0,-494000.0,96972.75391,38.09,0.0,0.229032472,39.6218605,140.9977722,1.5,-647.2476807,29.87333298,74.0
2018-10-05 18:48:48.160,-0.006,-0.145,-0.272,-0.06864655,0.7649187,11.375714,-302000.0,-125000.0,-486000.0,96966.41846,38.09,0.0,0.229032472,39.6218605,140.9977722,1.419999957,-647.2476807,31.53924942,76.0
2018-10-05 18:48:48.200,0.0063333333333333,-0.1456666666666666,-0.278,-0.0947976166666666,0.6799277333333333,11.195925416666666,-299333.3333333333,-127666.66666666669,-486666.6666666667,96968.29834333331,38.086666666666666,0.0,0.229032472,39.6218605,140.9977722,1.419999957,-647.2476807,31.53924942,76.0
2018-10-05 18:48:48.240,0.0186666666666666,-0.1463333333333333,-0.284,-0.1209486833333333,0.5949367666666666,11.016136833333334,-296666.6666666667,-130333.33333333331,-487333.3333333333,96970.17822666669,38.083333333333336,0.0,0.229032472,39.6218605,140.9977722,1.419999957,-647.2476807,31.53924942,76.0
2018-10-05 18:48:48.280,0.031,-0.147,-0.29,-0.14709975,0.5099458,10.83634825,-294000.0,-133000.0,-488000.0,96972.05811,38.08,0.0,0.229032472,39.6218605,140.9977722,1.3849999905,-639.3427734500001,32.353961945,76.5
2018-10-05 18:48:48.320,0.0293333333333333,-0.1486666666666666,-0.2779999999999999,-0.1340242166666666,0.48052585,10.787315,-295000.0,-135333.33333333334,-485333.3333333333,96972.45687,38.08,0.0,0.229032472,39.6218605,140.9977722,1.350000024,-631.4378662,33.16867447,77.0
2018-10-05 18:48:48.360,0.0276666666666666,-0.1503333333333333,-0.266,-0.1209486833333333,0.4511059,10.73828175,-296000.0,-137666.66666666666,-482666.6666666667,96972.85563,38.08,0.0,0.229032472,39.6218605,140.9977722,1.299999952,-631.4378662,34.77427292,79.0
2018-10-05 18:48:48.400,0.026,-0.152,-0.254,-0.10787315,0.42168595,10.6892485,-297000.0,-140000.0,-480000.0,96973.25439,38.08,0.0,0.229032472,39.6218605,140.9977722,1.299999952,-631.4378662,34.77427292,79.0
2018-10-05 18:48:48.440,0.044,-0.1755,-0.2304999999999999,-0.1176798,0.4314926,11.26784085,-296000.0,-142500.0,-480000.0,96972.31445,38.08,0.0,0.229032472,39.6218605,140.9977722,1.299999952,-631.4378662,34.77427292,79.0
2018-10-05 18:48:48.480,0.062,-0.199,-0.207,-0.12748645,0.44129925,11.8464332,-295000.0,-145000.0,-480000.0,96971.37451,38.08,0.0,-0.681672812,39.96252441,149.0322418,1.25,-627.9680176,36.35015488,80.0
2018-10-05 18:48:48.520,0.0834999999999999,-0.2,-0.187,-0.0980665,0.652142225,12.135729375,-297000.0,-148500.0,-482500.0,96970.70923,38.075,0.0,-0.681672812,39.96252441,149.0322418,1.25,-627.9680176,36.35015488,80.0
2018-10-05 18:48:48.560,0.105,-0.201,-0.167,-0.06864655,0.8629852,12.42502555,-299000.0,-152000.0,-485000.0,96970.04395,38.07,0.0,-0.681672812,39.96252441,149.0322418,1.209999919,-627.9680176,37.91675186,82.0
2018-10-05 18:48:48.600,0.077,-0.19325,-0.17725,-0.06864655,1.0223432625,12.606448575000002,-301000.0,-153000.0,-482500.0,96969.6151775,38.07,0.0,-0.681672812,39.96252441,149.0322418,1.209999919,-627.9680176,37.91675186,82.0
2018-10-05 18:48:48.640,0.0489999999999999,-0.1855,-0.1875,-0.06864655,1.181701325,12.7878716,-303000.0,-154000.0,-480000.0,96969.186405,38.07,0.0,-0.681672812,39.96252441,149.0322418,1.1999999286666667,-626.7838745333333,38.421888986666666,82.66666666666667
2018-10-05 18:48:48.680,0.0209999999999999,-0.17775,-0.1977499999999999,-0.06864655,1.3410593875,12.969294625,-305000.0,-155000.0,-477500.0,96968.7576325,38.07,0.0,-0.681672812,39.96252441,149.0322418,1.1899999383333333,-625.5997314666668,38.92702611333333,83.33333333333333
2018-10-05 18:48:48.720,-0.007,-0.17,-0.208,-0.06864655,1.50041745,13.15071765,-307000.0,-156000.0,-475000.0,96968.32886,38.07,0.0,-0.681672812,39.96252441,149.0322418,1.179999948,-624.4155884,39.43216324,84.0
2018-10-05 18:48:48.760,-0.054,-0.159,-0.237,-0.02941995,1.5886773,12.1406327,-304000.0,-162000.0,-476000.0,96971.40503,38.06,0.0,-0.681672812,39.96252441,149.0322418,1.179999948,-624.4155884,39.43216324,84.0
2018-10-05 18:48:48.800,-0.0353333333333333,-0.1443333333333333,-0.2703333333333333,-0.0588399,1.5134929833333337,11.69933345,-304333.3333333333,-163000.0,-472333.3333333333,96968.55062,38.06,0.0,-0.473353386,40.213495255,151.95217895000002,1.1549999715,-624.4155884,40.17884064,84.5
2018-10-05 18:48:48.840,-0.0166666666666666,-0.1296666666666666,-0.3036666666666667,-0.08825985,1.438308666666667,11.2580342,-304666.6666666667,-164000.0,-468666.6666666667,96965.69621,38.06,0.0,-0.26503396,40.4644661,154.8721161,1.129999995,-624.4155884,40.92551804,85.0
2018-10-05 18:48:48.880,0.002,-0.115,-0.337,-0.1176798,1.36312435,10.81673495,-305000.0,-165000.0,-465000.0,96962.8418,38.06,0.0,-0.26503396,40.4644661,154.8721161,1.129999995,-624.4155884,40.92551804,85.0
2018-10-05 18:48:48.920,-0.0066666666666666,-0.1153333333333333,-0.366,-0.1699819333333333,1.3271666333333334,10.8265416,-303333.3333333333,-167666.66666666666,-463333.3333333333,96965.41748333332,38.06,0.0,-0.26503396,40.4644661,154.8721161,1.079999924,-618.5964355,42.36314011,86.0
2018-10-05 18:48:48.960,-0.0153333333333333,-0.1156666666666666,-0.395,-0.2222840666666666,1.2912089166666667,10.83634825,-301666.6666666667,-170333.33333333334,-461666.6666666667,96967.99316666668,38.06,0.0,-0.26503396,40.4644661,154.8721161,1.0549999475,-618.5964355,43.09466553,87.0
2018-10-05 18:48:49.000,-0.024,-0.116,-0.424,-0.2745862,1.2552512,10.8461549,-300000.0,-173000.0,-460000.0,96970.56885,38.06,0.0,-0.26503396,40.4644661,154.8721161,1.029999971,-618.5964355,43.82619095,88.0
2018-10-05 18:48:49.040,0.0075,-0.1475,-0.437,-0.26477955,1.10815145,11.184484325,-297000.0,-176000.0,-461500.0,96969.6167,38.06,0.0,-0.26503396,40.4644661,154.8721161,1.029999971,-618.5964355,43.82619095,88.0
2018-10-05 18:48:49.080,0.039,-0.179,-0.45,-0.2549729,0.9610517,11.52281375,-294000.0,-179000.0,-463000.0,96968.66455,38.06,0.0,-0.26503396,40.4644661,154.8721161,0.98999995,-618.2798462,45.22027969,89.0
2018-10-05 18:48:49.120,0.0546666666666666,-0.186,-0.4436666666666666,-0.2157463,0.8499096666666667,11.594729183333332,-291000.0,-182000.0,-462000.0,96968.29223666666,38.056666666666665,0.0,-2.596328974,40.15825272,161.3544769,0.98999995,-618.2798462,45.22027969,89.0
2018-10-05 18:48:49.160,0.0703333333333333,-0.193,-0.4373333333333333,-0.1765197,0.7387676333333333,11.666644616666666,-288000.0,-185000.0,-461000.0,96967.91992333332,38.053333333333335,0.0,-2.596328974,40.15825272,161.3544769,0.949999988,-618.2798462,46.61394882,91.0
2018-10-05 18:48:49.200,0.086,-0.2,-0.431,-0.1372931,0.6276256,11.73856005,-285000.0,-188000.0,-460000.0,96967.54761,38.05,0.0,-2.596328974,40.15825272,161.3544769,0.949999988,-618.2798462,46.61394882,91.0
2018-10-05 18:48:49.240,0.064,-0.1986666666666666,-0.396,-0.1732508166666666,0.5426346333333334,11.179581,-281666.6666666667,-192000.0,-457666.6666666667,96967.43367666668,38.05,0.0,-2.596328974,40.15825272,161.3544769,0.9349999725,-617.6524353,47.28896713,91.5
2018-10-05 18:48:49.280,0.042,-0.1973333333333333,-0.361,-0.2092085333333333,0.4576436666666666,10.62060195,-278333.3333333333,-196000.0,-455333.3333333333,96967.31974333333,38.05,0.0,-2.596328974,40.15825272,161.3544769,0.919999957,-617.0250244,47.96398544,92.0
2018-10-05 18:48:49.320,0.02,-0.196,-0.326,-0.24516625,0.3726527,10.0616229,-275000.0,-200000.0,-453000.0,96967.20581,38.05,0.0,-2.596328974,40.15825272,161.3544769,0.919999957,-617.0250244,47.96398544,92.0
2018-10-05 18:48:49.360,0.015,-0.239,-0.286,-0.14709975,0.42168595,11.11093445,-280000.0,-206000.0,-449000.0,96970.73364,38.05,0.0,-2.596328974,40.15825272,161.3544769,0.919999957,-617.0250244,47.96398544,92.0
2018-10-05 18:48:49.400,0.0099999999999999,-0.245,-0.2726666666666666,-0.1013353833333333,0.3988037666666666,11.4541672,-279333.3333333333,-207333.3333333333,-445000.0,96969.23624666668,38.04666666666667,0.0,-3.820015907,40.58667374,169.2244263,0.909999967,-617.0250244,49.30121231,93.0
2018-10-05 18:48:49.440,0.0049999999999999,-0.251,-0.2593333333333333,-0.0555710166666666,0.3759215833333333,11.79739995,-278666.6666666667,-208666.66666666663,-441000.0,96967.73885333334,38.04333333333333,0.0,-3.820015907,40.58667374,169.2244263,0.909999967,-617.0250244,49.30121231,93.0
2018-10-05 18:48:49.480,0.0,-0.257,-0.246,-0.00980665,0.3530394,12.1406327,-278000.0,-210000.0,-437000.0,96966.24146,38.04,0.0,-3.820015907,40.58667374,169.2244263,0.914999962,-617.8998108000001,49.944408415,94.0
2018-10-05 18:48:49.520,0.0135,-0.262,-0.2365,-0.004903325,0.406975975,12.77806495,-275000.0,-211000.0,-433500.0,96969.677735,38.04,0.0,-3.820015907,40.58667374,169.2244263,0.919999957,-618.7745972,50.58760452,95.0
2018-10-05 18:48:49.560,0.027,-0.267,-0.227,0.0,0.46091255,13.4154972,-272000.0,-212000.0,-430000.0,96973.11401,38.04,0.0,-3.820015907,40.58667374,169.2244263,0.924999982,-618.7745972,51.218185425,95.5
2018-10-05 18:48:49.600,0.0316666666666666,-0.264,-0.2183333333333333,-0.0163444166666666,0.5491724,13.3958839,-274000.0,-214333.3333333333,-429666.6666666667,96970.96354,38.04,0.0,-3.820015907,40.58667374,169.2244263,0.930000007,-618.7745972,51.84876633,96.0
2018-10-05 18:48:49.640,0.0363333333333333,-0.261,-0.2096666666666666,-0.0326888333333333,0.6374322499999999,13.3762706,-276000.0,-216666.66666666663,-429333.3333333333,96968.81307,38.04,0.0,-3.820015907,40.58667374,169.2244263,0.930000007,-618.7745972,51.84876633,96.0
2018-10-05 18:48:49.680,0.041,-0.258,-0.201,-0.04903325,0.7256921,13.3566573,-278000.0,-219000.0,-429000.0,96966.6626,38.04,0.0,-3.820015907,40.58667374,169.2244263,0.930000007,-618.7745972,51.84876633,96.0
2018-10-05 18:48:49.720,0.0456666666666666,-0.2593333333333333,-0.2113333333333333,-0.0392266,0.7714564666666667,13.46453045,-278000.0,-221000.0,-426000.0,96967.51912666668,38.03666666666667,0.0,-3.820015907,40.58667374,169.2244263,0.949999988,-579.6123657,53.04673386,97.0
2018-10-05 18:48:49.760,0.0503333333333333,-0.2606666666666666,-0.2216666666666666,-0.02941995,0.8172208333333333,13.5724036,-278000.0,-223000.0,-423000.0,96968.37565333334,38.03333333333333,0.0,-3.820015907,40.58667374,169.2244263,0.949999988,-579.6123657,53.04673386,97.0
2018-10-05 18:48:49.800,0.055,-0.262,-0.232,-0.0196133,0.8629852,13.68027675,-278000.0,-225000.0,-420000.0,96969.23218,38.03,0.0,-2.48063755,41.05111313,177.2494965,0.949999988,-579.6123657,54.22303391,98.0
2018-10-05 18:48:49.840,0.0626666666666666,-0.2583333333333333,-0.2526666666666666,-0.0196133,0.8401030166666666,13.575672483333332,-278333.3333333333,-226333.3333333333,-420000.0,96968.78865666669,38.03,0.0,-2.48063755,41.05111313,177.2494965,0.9549999835,-581.6329956,54.76710892,98.5
2018-10-05 18:48:49.880,0.0703333333333333,-0.2546666666666666,-0.2733333333333333,-0.0196133,0.8172208333333334,13.471068216666668,-278666.6666666667,-227666.66666666663,-420000.0,96968.34513333334,38.03,0.0,-2.48063755,41.05111313,177.2494965,0.959999979,-583.6536255,55.31118393,99.0
2018-10-05 18:48:49.920,0.078,-0.251,-0.294,-0.0196133,0.79433865,13.36646395,-279000.0,-229000.0,-420000.0,96967.90161,38.03,0.0,-2.48063755,41.05111313,177.2494965,0.959999979,-583.6536255,55.31118393,99.0
2018-10-05 18:48:49.960,0.106,-0.268,-0.315,-0.06864655,0.6276256,13.40569055,-279000.0,-236000.0,-412000.0,96973.66943,38.03,0.0,-2.48063755,41.05111313,177.2494965,0.959999979,-583.6536255,55.31118393,99.0
2018-10-05 18:48:50.000,0.102,-0.2665,-0.30825,-0.0465815875,0.59820565,13.3051723875,-277750.0,-238750.0,-409250.0,96970.950315,38.03,0.0,-2.48063755,41.05111313,177.2494965,0.9566666486666666,-583.6536255,55.67414729,99.33333333333331
2018-10-05 18:48:50.040,0.098,-0.265,-0.3015,-0.024516625,0.5687857000000001,13.204654225,-276500.0,-241500.0,-406500.0,96968.2312,38.03,0.0,-2.48063755,41.05111313,177.2494965,0.9533333183333332,-583.6536255,56.03711065,99.66666666666669
2018-10-05 18:48:50.080,0.094,-0.2635,-0.2947499999999999,-0.0024516625,0.53936575,13.1041360625,-275250.0,-244250.0,-403750.0,96965.512085,38.03,0.0,-2.48063755,41.05111313,177.2494965,0.949999988,-583.6536255,56.40007401,100.0
2018-10-05 18:48:50.120,0.09,-0.262,-0.288,0.0196133,0.5099458,13.0036179,-274000.0,-247000.0,-401000.0,96962.79297,38.03,0.0,-2.361860156,41.63962555,0.8469772499999948,0.930000007,-578.7199097,57.43094254,101.0
2018-10-05 18:48:50.160,0.025,-0.269,-0.25,0.0980665,0.75511205,13.20955755,-281000.0,-254000.0,-405000.0,96971.96655,38.02,0.0,-2.3024714589999995,41.93388176,-87.35428237500001,0.924999982,-578.7199097,57.92142487,101.5
2018-10-05 18:48:50.200,0.0136666666666666,-0.2606666666666666,-0.2533333333333333,0.0980665,0.7060788,13.235708616666669,-277333.3333333333,-256666.66666666663,-403000.0,96972.14152,38.02,0.0,-2.243082762,42.22813797,-175.555542,0.919999957,-578.7199097,58.4119072,102.0
2018-10-05 18:48:50.240,0.0023333333333333,-0.2523333333333333,-0.2566666666666666,0.0980665,0.65704555,13.261859683333332,-273666.6666666667,-259333.3333333333,-401000.0,96972.31649,38.02,0.0,-2.243082762,42.22813797,-175.555542,0.9099999665,-575.7581787500001,58.87088013,102.5
2018-10-05 18:48:50.280,-0.009,-0.244,-0.26,0.0980665,0.6080123,13.28801075,-270000.0,-262000.0,-399000.0,96972.49146,38.02,0.0,-2.243082762,42.22813797,-175.555542,0.899999976,-572.7964478,59.32985306,103.0
2018-10-05 18:48:50.320,0.022,-0.2453333333333333,-0.2503333333333333,0.06864655,0.6864655,12.921895816666666,-271333.3333333333,-263333.3333333333,-396333.3333333333,96971.29923666667,38.016666666666666,0.0,-2.243082762,42.22813797,-175.555542,0.899999976,-572.7964478,59.32985306,103.0
2018-10-05 18:48:50.360,0.053,-0.2466666666666666,-0.2406666666666666,0.0392266,0.7649187,12.555780883333334,-272666.6666666667,-264666.6666666667,-393666.6666666667,96970.10701333333,38.013333333333335,0.0,-2.243082762,42.22813797,-175.555542,0.899999976,-572.7964478,59.32985306,103.0
2018-10-05 18:48:50.400,0.084,-0.248,-0.231,0.00980665,0.8433719,12.18966595,-274000.0,-266000.0,-391000.0,96968.91479,38.01,0.0,-1.9946202635,42.473672865,-172.37107085,0.8899999855,-572.7964478,59.778907775,103.5
2018-10-05 18:48:50.440,0.061,-0.239,-0.239,0.0,1.005181625,12.18966595,-272500.0,-269000.0,-383500.0,96970.09277,38.01,0.0,-1.746157765,42.71920776,-169.1865997,0.879999995,-572.7964478,60.22796249,104.0
2018-10-05 18:48:50.480,0.038,-0.23,-0.247,-0.00980665,1.16699135,12.18966595,-271000.0,-272000.0,-376000.0,96971.27075,38.01,0.0,-1.746157765,42.71920776,-169.1865997,0.870000005,-580.5896606,61.0578804,105.0
2018-10-05 18:48:50.520,0.012,-0.2336666666666666,-0.2603333333333333,0.0065377666666666,1.1016136833333334,12.2975391,-268666.6666666667,-274333.3333333333,-378000.0,96969.92390666666,38.01,0.0,-1.746157765,42.71920776,-169.1865997,0.870000005,-580.5896606,61.0578804,105.0
2018-10-05 18:48:50.560,-0.0139999999999999,-0.2373333333333333,-0.2736666666666666,0.0228821833333333,1.0362360166666666,12.40541225,-266333.3333333333,-276666.6666666667,-380000.0,96968.57706333332,38.01,0.0,-1.746157765,42.71920776,-169.1865997,0.86499998,-580.5896606,61.455970765,105.5
2018-10-05 18:48:50.600,-0.04,-0.241,-0.287,0.0392266,0.97085835,12.5132854,-264000.0,-279000.0,-382000.0,96967.23022,38.01,0.0,-1.746157765,42.71920776,-169.1865997,0.859999955,-580.5896606,61.85406113,106.0
2018-10-05 18:48:50.640,-0.022,-0.2426666666666666,-0.2996666666666666,0.0653776666666666,0.9839338833333332,12.392336716666666,-266000.0,-280000.0,-382333.3333333333,96967.82226333334,38.00666666666667,0.0,-1.746157765,42.71920776,-169.1865997,0.859999955,-579.9997253,62.21802521,106.5
2018-10-05 18:48:50.680,-0.004,-0.2443333333333333,-0.3123333333333333,0.0915287333333333,0.9970094166666666,12.271388033333333,-268000.0,-281000.0,-382666.6666666667,96968.41430666666,38.00333333333333,0.0,-1.746157765,42.71920776,-169.1865997,0.859999955,-579.40979,62.58198929,107.0
2018-10-05 18:48:50.720,0.014,-0.246,-0.325,0.1176798,1.01008495,12.15043935,-270000.0,-282000.0,-383000.0,96969.00635,38.0,0.0,-1.746157765,42.71920776,-169.1865997,0.859999955,-579.40979,62.58198929,107.0
2018-10-05 18:48:50.760,-0.001,-0.262,-0.342,0.14709975,1.1571847,12.8270982,-263000.0,-287000.0,-371000.0,96969.12842,38.0,0.0,-1.746157765,42.71920776,-169.1865997,0.859999955,-579.40979,62.58198929,107.0
2018-10-05 18:48:50.800,-0.0069999999999999,-0.2633333333333333,-0.3463333333333333,0.1307553333333333,1.176798,12.967660183333331,-257666.66666666663,-289000.0,-366333.3333333333,96970.39388,38.0,0.0,-2.074537277,42.68281174,-160.4939575,0.859999955,-579.40979,63.27383041,107.0
2018-10-05 18:48:50.840,-0.0129999999999999,-0.2646666666666666,-0.3506666666666667,0.1144109166666666,1.1964112999999998,13.108222166666668,-252333.3333333333,-291000.0,-361666.6666666667,96971.65934,38.0,0.0,-2.074537277,42.68281174,-160.4939575,0.859999955,-579.40979,63.27383041,107.0
2018-10-05 18:48:50.880,-0.019,-0.266,-0.355,0.0980665,1.2160246,13.24878415,-247000.0,-293000.0,-357000.0,96972.9248,38.0,0.0,-2.074537277,42.68281174,-160.4939575,0.859999955,-579.40979,63.27383041,107.0
2018-10-05 18:48:50.920,-0.015,-0.2636666666666666,-0.3566666666666666,0.0947976166666666,1.0852692666666666,13.22917085,-246333.3333333333,-294333.3333333333,-357000.0,96973.97867666668,38.0,0.0,-2.074537277,42.68281174,-160.4939575,0.849999964,-585.1442261,63.93448257,108.0
2018-10-05 18:48:50.960,-0.011,-0.2613333333333333,-0.3583333333333333,0.0915287333333333,0.9545139333333332,13.20955755,-245666.66666666663,-295666.6666666667,-357000.0,96975.03255333332,38.0,0.0,-2.074537277,42.68281174,-160.4939575,0.839999974,-585.1442261,64.55497742,109.0
2018-10-05 18:48:51.000,-0.007,-0.259,-0.36,0.08825985,0.8237586,13.18994425,-245000.0,-297000.0,-357000.0,96976.08643,38.0,0.0,-2.074537277,42.68281174,-160.4939575,0.839999974,-585.1442261,64.55497742,109.0
2018-10-05 18:48:51.040,0.0235,-0.273,-0.3635,0.0784532,0.583495675,13.283107425,-237500.0,-300000.0,-352000.0,96972.01233,37.995000000000005,0.0,-2.074537277,42.68281174,-160.4939575,0.8349999785,-585.69955445,64.83745575,109.0
2018-10-05 18:48:51.080,0.054,-0.287,-0.367,0.06864655,0.34323275,13.3762706,-230000.0,-303000.0,-347000.0,96967.93823,37.99,0.0,-2.074537277,42.68281174,-160.4939575,0.829999983,-586.2548828,65.11993408,109.0
2018-10-05 18:48:51.120,0.0666666666666666,-0.2906666666666666,-0.3323333333333333,0.0424954833333333,0.3955348833333333,13.663932333333332,-230666.66666666663,-305000.0,-348333.3333333333,96968.01961,37.99,0.0,-2.074537277,42.68281174,-160.4939575,0.829999983,-586.2548828,65.11993408,109.0
2018-10-05 18:48:51.160,0.0793333333333333,-0.2943333333333333,-0.2976666666666667,0.0163444166666666,0.4478370166666666,13.951594066666669,-231333.3333333333,-307000.0,-349666.6666666667,96968.10099,37.99,0.0,-2.074537277,42.68281174,-160.4939575,0.829999983,-586.2548828,65.11993408,109.0
2018-10-05 18:48:51.200,0.092,-0.298,-0.263,-0.00980665,0.50013915,14.2392558,-232000.0,-309000.0,-351000.0,96968.18237,37.99,0.0,-2.074537277,42.68281174,-160.4939575,0.8199999925,-586.2548828,65.387413025,109.5
2018-10-05 18:48:51.240,0.075,-0.3025,-0.2475,0.02941995,0.436395925,14.106866025,-225000.0,-313000.0,-350500.0,96969.110105,37.985,0.0,-2.074537277,42.68281174,-160.4939575,0.810000002,-586.2548828,65.65489197,110.0
2018-10-05 18:48:51.280,0.058,-0.307,-0.232,0.06864655,0.3726527,13.97447625,-218000.0,-317000.0,-350000.0,96970.03784,37.98,0.0,-2.443423748,43.10178375,-149.0736542,0.789999962,-585.4907837,66.09872437,110.0
2018-10-05 18:48:51.320,0.027,-0.3076666666666666,-0.2106666666666666,0.0588399,0.5262902166666666,13.971207366666668,-219000.0,-318666.6666666667,-345333.3333333333,96969.17724333334,37.98,0.0,-2.443423748,43.10178375,-149.0736542,0.789999962,-585.4907837,66.09872437,110.0
2018-10-05 18:48:51.360,-0.0039999999999999,-0.3083333333333333,-0.1893333333333333,0.04903325,0.6799277333333333,13.967938483333334,-220000.0,-320333.3333333333,-340666.6666666667,96968.31664666666,37.98,0.0,-2.443423748,43.10178375,-149.0736542,0.75999999,-585.4907837,66.51039124,111.0
2018-10-05 18:48:51.400,-0.035,-0.309,-0.168,0.0392266,0.83356525,13.9646696,-221000.0,-322000.0,-336000.0,96967.45605,37.98,0.0,-2.443423748,43.10178375,-149.0736542,0.75999999,-585.4907837,66.51039124,111.0
2018-10-05 18:48:51.440,-0.054,-0.304,-0.1735,0.102969825,0.9414384,14.332418975,-222000.0,-323500.0,-334000.0,96969.38171,37.98,0.0,-2.443423748,43.10178375,-149.0736542,0.75999999,-585.4907837,66.51039124,111.0
2018-10-05 18:48:51.480,-0.073,-0.299,-0.179,0.16671305,1.04931155,14.70016835,-223000.0,-325000.0,-332000.0,96971.30737,37.98,0.0,-2.443423748,43.10178375,-149.0736542,0.7399999795,-576.7658081,66.67416382,111.0
2018-10-05 18:48:51.520,-0.0673333333333333,-0.298,-0.1963333333333333,0.1994018833333333,0.980665,14.657672866666667,-220666.66666666663,-325333.3333333333,-331333.3333333333,96970.69905333332,37.98,0.0,-2.443423748,43.10178375,-149.0736542,0.719999969,-568.0408325,66.8379364,111.0
2018-10-05 18:48:51.560,-0.0616666666666666,-0.297,-0.2136666666666666,0.2320907166666666,0.91201845,14.615177383333332,-218333.3333333333,-325666.6666666667,-330666.6666666667,96970.09073666668,37.98,0.0,-2.443423748,43.10178375,-149.0736542,0.694999963,-568.0408325,66.976501465,111.0
2018-10-05 18:48:51.600,-0.056,-0.296,-0.231,0.26477955,0.8433719,14.5726819,-216000.0,-326000.0,-330000.0,96969.48242,37.98,0.0,-2.443423748,43.10178375,-149.0736542,0.669999957,-568.0408325,67.11506653,111.0
2018-10-05 18:48:51.640,-0.0433333333333333,-0.294,-0.238,0.2615106666666666,0.8204897166666666,14.428851033333332,-217666.66666666663,-326333.3333333333,-331666.6666666667,96969.75504333334,37.97666666666667,0.0,-0.368098438,42.45444107,-141.088028,0.669999957,-568.0408325,67.11506653,111.0
2018-10-05 18:48:51.680,-0.0306666666666666,-0.292,-0.245,0.2582417833333333,0.7976075333333333,14.285020166666667,-219333.3333333333,-326666.6666666667,-333333.3333333333,96970.02766666666,37.97333333333333,0.0,-0.368098438,42.45444107,-141.088028,0.599999964,-570.453064,67.32624817,111.0
2018-10-05 18:48:51.720,-0.018,-0.29,-0.252,0.2549729,0.77472535,14.1411893,-221000.0,-327000.0,-335000.0,96970.30029,37.97,0.0,-0.368098438,42.45444107,-141.088028,0.599999964,-570.453064,67.32624817,111.0
2018-10-05 18:48:51.760,-0.0235,-0.291,-0.248,0.24516625,0.77472535,13.8862164,-221000.0,-328500.0,-335000.0,96970.062255,37.97,0.0,-0.368098438,42.45444107,-141.088028,0.599999964,-570.453064,67.32624817,111.0
2018-10-05 18:48:51.800,-0.029,-0.292,-0.244,0.2353596,0.77472535,13.6312435,-221000.0,-330000.0,-335000.0,96969.82422,37.97,0.0,-0.368098438,42.45444107,-141.088028,0.519999981,-570.453064,67.49343872,112.0
2018-10-05 18:48:51.840,-0.0045,-0.2835,-0.2664999999999999,0.2745862,0.8041453000000001,14.057832775,-214000.0,-332000.0,-329500.0,96968.90259,37.965,0.0,-0.368098438,42.45444107,-141.088028,0.519999981,-570.453064,67.49343872,112.0
2018-10-05 18:48:51.880,0.02,-0.275,-0.289,0.3138128,0.83356525,14.48442205,-207000.0,-334000.0,-324000.0,96967.98096,37.96,0.0,-0.368098438,42.45444107,-141.088028,0.439999998,-576.2315674,67.59776306,112.0
2018-10-05 18:48:51.920,-0.005,-0.278,-0.295,0.308909475,0.7060788,15.548443575,-206000.0,-335500.0,-323500.0,96966.323855,37.96,0.0,-0.368098438,42.45444107,-141.088028,0.439999998,-576.2315674,67.59776306,112.0
2018-10-05 18:48:51.960,-0.03,-0.281,-0.301,0.30400615,0.57859235,16.6124651,-205000.0,-337000.0,-323000.0,96964.66675,37.96,0.0,-0.368098438,42.45444107,-141.088028,0.340000004,-576.2315674,67.64550781,112.0
2018-10-05 18:48:52.000,0.01075,-0.2755,-0.283,0.2427145874999999,0.5908506625,16.3256205875,-203500.0,-338000.0,-321000.0,96963.6291525,37.96,0.0,-0.368098438,42.45444107,-141.088028,0.340000004,-576.2315674,67.64550781,112.0
2018-10-05 18:48:52.040,0.0515,-0.27,-0.265,0.181423025,0.603108975,16.038776075,-202000.0,-339000.0,-319000.0,96962.591555,37.96,0.0,-0.368098438,42.45444107,-141.088028,0.340000004,-576.2315674,67.64550781,112.0
2018-10-05 18:48:52.080,0.09225,-0.2645,-0.247,0.1201314625,0.6153672875,15.7519315625,-200500.0,-340000.0,-317000.0,96961.5539575,37.96,0.0,-0.0390982034999999,42.77017784,-135.9795914,0.2849999965,-582.54785155,67.63555145000001,112.0
2018-10-05 18:48:52.120,0.133,-0.259,-0.229,0.0588399,0.6276256,15.46508705,-199000.0,-341000.0,-315000.0,96960.51636,37.96,0.0,0.289902031,43.08591461,-130.8711548,0.229999989,-588.8641357,67.62559509,112.0
2018-10-05 18:48:52.160,0.076,-0.2625,-0.2085,0.004903325,0.6913688250000001,15.19050085,-195000.0,-343500.0,-307000.0,96962.542725,37.96,0.0,0.289902031,43.08591461,-130.8711548,0.079999998,-588.8641357,67.53118896,112.0
2018-10-05 18:48:52.200,0.019,-0.266,-0.188,-0.04903325,0.75511205,14.91591465,-191000.0,-346000.0,-299000.0,96964.56909,37.96,0.0,0.289902031,43.08591461,-130.8711548,0.079999998,-588.8641357,67.53118896,112.0
2018-10-05 18:48:52.240,0.0,-0.2495,-0.185,-0.08825985,0.8433719,13.4939504,-189500.0,-347000.0,-300000.0,96961.782835,37.96,0.0,0.289902031,43.08591461,-130.8711548,0.079999998,-588.8641357,67.53118896,112.0
2018-10-05 18:48:52.280,-0.019,-0.233,-0.182,-0.12748645,0.93163175,12.07198615,-188000.0,-348000.0,-301000.0,96958.99658,37.96,0.0,0.289902031,43.08591461,-130.8711548,-0.0049999989999999,-587.53671265,67.444221495,111.5
2018-10-05 18:48:52.320,-0.0559999999999999,-0.2406666666666666,-0.1903333333333333,-0.1176798,1.0820003833333334,11.52281375,-186333.3333333333,-349000.0,-300333.3333333333,96957.80436,37.95666666666667,0.0,0.289902031,43.08591461,-130.8711548,-0.089999996,-586.2092896,67.35725403,111.0
2018-10-05 18:48:52.360,-0.093,-0.2483333333333333,-0.1986666666666666,-0.10787315,1.2323690166666663,10.97364135,-184666.66666666663,-350000.0,-299666.6666666667,96956.61214,37.95333333333333,0.0,0.289902031,43.08591461,-130.8711548,-0.174999993,-586.2092896,67.24708557,111.0
2018-10-05 18:48:52.400,-0.13,-0.256,-0.207,-0.0980665,1.38273765,10.42446895,-183000.0,-351000.0,-299000.0,96955.41992,37.95,0.0,0.289902031,43.08591461,-130.8711548,-0.25999999,-586.2092896,67.13691711,111.0
2018-10-05 18:48:52.440,-0.018,-0.2334999999999999,-0.242,0.00980665,1.387640975,11.67972015,-181000.0,-350500.0,-296500.0,96955.69458,37.95,0.0,0.289902031,43.08591461,-130.8711548,-0.25999999,-586.2092896,67.13691711,111.0
2018-10-05 18:48:52.480,0.094,-0.211,-0.277,0.1176798,1.3925443,12.93497135,-179000.0,-350000.0,-294000.0,96955.96924,37.95,0.0,0.289902031,43.08591461,-130.8711548,-0.25999999,-586.2092896,67.13691711,111.0
2018-10-05 18:48:52.520,0.087,-0.21,-0.3115,0.0588399,1.372931,13.89602305,-174500.0,-352500.0,-288500.0,96954.141235,37.95,0.0,1.011960268,43.77761078,-122.2069092,-0.409999996,-593.6448975,66.87922668,111.0
2018-10-05 18:48:52.560,0.08,-0.209,-0.346,0.0,1.3533177,14.85707475,-170000.0,-355000.0,-283000.0,96952.31323,37.95,0.0,1.011960268,43.77761078,-122.2069092,-0.409999996,-593.6448975,66.87922668,111.0
2018-10-05 18:48:52.600,-0.0026666666666666,-0.2083333333333333,-0.3553333333333333,-0.0032688833333333,1.1441091666666667,14.526917533333334,-165666.66666666666,-357333.3333333333,-287666.6666666667,96952.77099333334,37.946666666666665,0.0,1.011960268,43.77761078,-122.2069092,-0.4899999945,-593.6448975,66.736312865,111.0
2018-10-05 18:48:52.640,-0.0853333333333333,-0.2076666666666666,-0.3646666666666666,-0.0065377666666666,0.9349006333333334,14.196760316666667,-161333.33333333334,-359666.6666666667,-292333.3333333333,96953.22875666666,37.943333333333335,0.0,1.011960268,43.77761078,-122.2069092,-0.569999993,-593.6448975,66.59339905,111.0
2018-10-05 18:48:52.680,-0.168,-0.207,-0.374,-0.00980665,0.7256921,13.8666031,-157000.0,-362000.0,-297000.0,96953.68652,37.94,0.0,1.011960268,43.77761078,-122.2069092,-0.6599999965000001,-601.95626835,66.41482544,110.5
2018-10-05 18:48:52.720,-0.1026666666666666,-0.2023333333333333,-0.3736666666666666,-0.0457643666666666,0.6799277333333333,13.196482016666668,-153000.0,-363333.3333333333,-297666.6666666667,96950.54524666668,37.94,0.0,1.011960268,43.77761078,-122.2069092,-0.75,-610.2676392,66.23625183,110.0
2018-10-05 18:48:52.760,-0.0373333333333333,-0.1976666666666666,-0.3733333333333333,-0.0817220833333333,0.6341633666666666,12.526360933333333,-149000.0,-364666.6666666667,-298333.3333333333,96947.40397333332,37.94,0.0,1.011960268,43.77761078,-122.2069092,-0.75,-610.2676392,66.23625183,110.0
2018-10-05 18:48:52.800,0.028,-0.193,-0.373,-0.1176798,0.588399,11.85623985,-145000.0,-366000.0,-299000.0,96944.2627,37.94,0.0,1.011960268,43.77761078,-122.2069092,-0.930000007,-610.2676392,65.84654236,110.0
2018-10-05 18:48:52.840,0.137,-0.1995,-0.3555,-0.063743225,0.392266,11.527717075,-136500.0,-368500.0,-292000.0,96946.337895,37.935,0.0,0.138213694,43.799531935000005,-118.57045365,-0.930000007,-610.2676392,65.84654236,110.0
2018-10-05 18:48:52.880,0.246,-0.206,-0.338,-0.00980665,0.196133,11.1991943,-128000.0,-371000.0,-285000.0,96948.41309,37.93,0.0,-0.73553288,43.82145309,-114.9339981,-0.930000007,-610.2676392,65.84654236,110.0
2018-10-05 18:48:52.920,0.311,-0.2085,-0.293,-0.0196133,0.308909475,10.1793027,-121000.0,-375500.0,-283000.0,96942.745975,37.93,0.0,-0.73553288,43.82145309,-114.9339981,-1.100000024,-613.3665161,65.3888092,109.0
2018-10-05 18:48:52.960,0.376,-0.211,-0.248,-0.02941995,0.42168595,9.1594111,-114000.0,-380000.0,-281000.0,96937.07886,37.93,0.0,-0.73553288,43.82145309,-114.9339981,-1.100000024,-613.3665161,65.3888092,109.0
2018-10-05 18:48:53.000,0.324,-0.1996666666666666,-0.2476666666666666,-0.0947976166666666,0.5262902166666666,8.302963666666667,-110666.66666666669,-382333.3333333333,-275000.0,96939.78271666668,37.93,0.0,-0.73553288,43.82145309,-114.9339981,-1.25999999,-613.3665161,64.90870667,109.0
2018-10-05 18:48:53.040,0.272,-0.1883333333333333,-0.2473333333333333,-0.1601752833333333,0.6308944833333333,7.446516233333333,-107333.33333333331,-384666.6666666667,-269000.0,96942.48657333331,37.93,0.0,-0.73553288,43.82145309,-114.9339981,-1.25999999,-613.3665161,64.90870667,109.0
2018-10-05 18:48:53.080,0.22,-0.177,-0.247,-0.22555295,0.73549875,6.5900688,-104000.0,-387000.0,-263000.0,96945.19043,37.93,0.0,-0.73553288,43.82145309,-114.9339981,-1.3199999925,-613.50097655,64.648124695,108.5
2018-10-05 18:48:53.120,-0.0194999999999999,-0.188,-0.262,-0.38245935,0.9414384,7.585443775,-102500.0,-388000.0,-263000.0,96940.1062,37.93,0.0,-0.73553288,43.82145309,-114.9339981,-1.379999995,-613.635437,64.38754272,108.0
2018-10-05 18:48:53.160,-0.259,-0.199,-0.277,-0.53936575,1.14737805,8.58081875,-101000.0,-389000.0,-263000.0,96935.02197,37.93,0.0,-0.73553288,43.82145309,-114.9339981,-1.449999928,-613.635437,63.87196732,108.0
2018-10-05 18:48:53.200,-0.3006666666666667,-0.201,-0.294,-0.4739880833333333,1.1310336333333333,9.528794916666667,-97333.33333333331,-388333.3333333333,-264333.3333333333,96939.37581333332,37.92666666666667,0.0,-0.73553288,43.82145309,-114.9339981,-1.449999928,-613.635437,63.87196732,108.0
2018-10-05 18:48:53.240,-0.3423333333333333,-0.2029999999999999,-0.311,-0.4086104166666666,1.1146892166666666,10.476771083333333,-93666.66666666669,-387666.6666666667,-265666.6666666667,96943.72965666666,37.92333333333333,0.0,-0.73553288,43.82145309,-114.9339981,-1.449999928,-613.635437,63.87196732,108.0
2018-10-05 18:48:53.280,-0.384,-0.205,-0.328,-0.34323275,1.0983448,11.42474725,-90000.0,-387000.0,-267000.0,96948.0835,37.92,0.0,-1.6766322255,44.672475815,-110.2754936,-1.469999969,-610.9800415,63.600109105,107.5
2018-10-05 18:48:53.320,-0.3506666666666667,-0.2056666666666666,-0.3453333333333333,-0.3399638666666666,1.0329671333333337,11.437822783333331,-86000.0,-385666.6666666667,-271666.6666666667,96946.12834,37.92,0.0,-2.617731571,45.52349854,-105.6169891,-1.49000001,-608.324646,63.32825089,107.0
2018-10-05 18:48:53.360,-0.3173333333333333,-0.2063333333333333,-0.3626666666666667,-0.3366949833333333,0.9675894666666668,11.450898316666668,-82000.0,-384333.3333333333,-276333.3333333333,96944.17318,37.92,0.0,-2.617731571,45.52349854,-105.6169891,-1.49666667,-608.324646,63.142144523333336,107.0
2018-10-05 18:48:53.400,-0.284,-0.207,-0.38,-0.3334261,0.9022118,11.46397385,-78000.0,-383000.0,-281000.0,96942.21802,37.92,0.0,-2.617731571,45.52349854,-105.6169891,-1.50333333,-608.324646,62.956038156666665,107.0
2018-10-05 18:48:53.440,-0.2219999999999999,-0.2043333333333333,-0.377,-0.3693838166666666,0.95124505,12.045835083333332,-73000.0,-381000.0,-283000.0,96941.10311,37.92,0.0,-2.617731571,45.52349854,-105.6169891,-1.50999999,-608.324646,62.76993179,107.0
2018-10-05 18:48:53.480,-0.1599999999999999,-0.2016666666666666,-0.374,-0.4053415333333333,1.0002783000000002,12.627696316666666,-68000.0,-379000.0,-285000.0,96939.9882,37.92,0.0,-2.617731571,45.52349854,-105.6169891,-1.50999999,-607.84207155,62.46437454,106.5
2018-10-05 18:48:53.520,-0.098,-0.199,-0.371,-0.44129925,1.04931155,13.20955755,-63000.0,-377000.0,-287000.0,96938.87329,37.92,0.0,-2.617731571,45.52349854,-105.6169891,-1.50999999,-607.3594971,62.15881729,106.0
2018-10-05 18:48:53.560,0.055,-0.214,-0.407,-0.46091255,0.6472389,13.32723735,-52000.0,-371000.0,-291000.0,96941.89453,37.91,0.0,-2.617731571,45.52349854,-105.6169891,-1.50999999,-607.3594971,62.15881729,106.0
2018-10-05 18:48:53.600,0.05175,-0.22075,-0.3999999999999999,-0.4584608874999999,0.5565273875,12.9276163625,-47000.0,-371750.0,-290250.0,96941.947935,37.91,0.0,-4.450171471,42.02131653,-98.15220642,-1.50999999,-607.3594971,61.52274704,106.0
2018-10-05 18:48:53.640,0.0485,-0.2274999999999999,-0.393,-0.4560092249999999,0.465815875,12.527995375,-42000.0,-372500.0,-289500.0,96942.00134,37.91,0.0,-4.450171471,42.02131653,-98.15220642,-1.50999999,-604.4704285,61.17935562,105.5
2018-10-05 18:48:53.680,0.04525,-0.2342499999999999,-0.386,-0.4535575625,0.3751043624999999,12.1283743875,-37000.0,-373250.0,-288750.0,96942.054745,37.91,0.0,-4.450171471,42.02131653,-98.15220642,-1.50999999,-601.5813599,60.8359642,105.0
2018-10-05 18:48:53.720,0.042,-0.241,-0.379,-0.4511059,0.28439285,11.7287534,-32000.0,-374000.0,-288000.0,96942.10815,37.91,0.0,-4.450171471,42.02131653,-98.15220642,-1.50999999,-601.5813599,60.8359642,105.0
2018-10-05 18:48:53.760,0.0085,-0.241,-0.3345,-0.4707192,0.357942725,11.4149406,-29000.0,-374000.0,-291000.0,96941.21704,37.91,0.0,-4.450171471,42.02131653,-98.15220642,-1.50999999,-601.5813599,60.11359787,104.0
2018-10-05 18:48:53.800,-0.025,-0.241,-0.29,-0.4903325,0.4314926,11.1011278,-26000.0,-374000.0,-294000.0,96940.32593,37.91,0.0,-4.450171471,42.02131653,-98.15220642,-1.50999999,-601.5813599,60.11359787,104.0
2018-10-05 18:48:53.840,-0.025,-0.244,-0.263,-0.465815875,0.554075725,11.571847,-19000.0,-373500.0,-291500.0,96938.68103,37.91,0.0,-4.450171471,42.02131653,-98.15220642,-1.50999999,-601.5813599,60.11359787,104.0
2018-10-05 18:48:53.880,-0.025,-0.247,-0.236,-0.44129925,0.67665885,12.0425662,-12000.0,-373000.0,-289000.0,96937.03613,37.91,0.0,-4.450171471,42.02131653,-98.15220642,-1.50999999,-601.5813599,60.11359787,104.0
2018-10-05 18:48:53.920,-0.0885,-0.2435,-0.2299999999999999,-0.4854291749999999,0.83356525,11.861143175,-10000.0,-373000.0,-294000.0,96939.52942,37.905,0.0,-4.904289245999999,41.953754425,-94.32746887,-1.5,-590.4312134,59.7314682,103.5
2018-10-05 18:48:53.960,-0.152,-0.24,-0.224,-0.5295591,0.99047165,11.67972015,-8000.0,-373000.0,-299000.0,96942.02271,37.9,0.0,-5.358407021,41.88619232,-90.50273132,-1.49000001,-579.2810669,59.34933853,103.0
2018-10-05 18:48:54.000,-0.1363333333333333,-0.235,-0.2423333333333333,-0.5360968666666667,1.0427737833333333,11.81701325,-5666.666666666666,-373333.3333333333,-303000.0,96942.34416,37.9,0.0,-5.358407021,41.88619232,-90.50273132,-1.4799999595,-579.2810669,58.94891739,103.0
2018-10-05 18:48:54.040,-0.1206666666666666,-0.23,-0.2606666666666667,-0.5426346333333333,1.0950759166666666,11.95430635,-3333.333333333333,-373666.6666666667,-307000.0,96942.66561,37.9,0.0,-5.358407021,41.88619232,-90.50273132,-1.469999909,-579.2810669,58.54849625,103.0
2018-10-05 18:48:54.080,-0.105,-0.225,-0.279,-0.5491724,1.14737805,12.09159945,-1000.0,-374000.0,-311000.0,96942.98706,37.9,0.0,-5.358407021,41.88619232,-90.50273132,-1.4549999235,-579.3272095,58.13438034,102.5
2018-10-05 18:48:54.120,-0.0852499999999999,-0.22625,-0.299,-0.5467207375,1.0787315,12.2190859,0.0,-373000.0,-313250.0,96941.7922975,37.8975,0.0,-5.358407021,41.88619232,-90.50273132,-1.439999938,-579.3733521,57.72026443,102.0
2018-10-05 18:48:54.160,-0.0655,-0.2275,-0.319,-0.544269075,1.01008495,12.34657235,1000.0,-372000.0,-315500.0,96940.597535,37.895,0.0,-5.358407021,41.88619232,-90.50273132,-1.4299999476666667,-579.3733521,57.42778396333333,101.66666666666669
2018-10-05 18:48:54.200,-0.04575,-0.22875,-0.3389999999999999,-0.5418174124999999,0.9414384,12.4740588,2000.0,-371000.0,-317750.0,96939.4027725,37.8925,0.0,-5.358407021,41.88619232,-90.50273132,-1.4199999573333333,-579.3733521,57.135303496666666,101.33333333333331
2018-10-05 18:48:54.240,-0.026,-0.23,-0.359,-0.53936575,0.87279185,12.60154525,3000.0,-370000.0,-320000.0,96938.20801,37.89,0.0,-5.358407021,41.88619232,-90.50273132,-1.409999967,-579.3733521,56.84282303,101.0
2018-10-05 18:48:54.280,0.0094999999999999,-0.243,-0.3755,-0.5295591,0.6864655,13.587113575,8000.0,-369000.0,-322500.0,96934.49097,37.89,0.0,-5.43747139,39.47892761,-82.73709106,-1.370000005,-578.3243408,55.9630928,100.0
2018-10-05 18:48:54.320,0.045,-0.256,-0.392,-0.51975245,0.50013915,14.5726819,13000.0,-368000.0,-325000.0,96930.77393,37.89,0.0,-5.43747139,39.47892761,-82.73709106,-1.370000005,-578.3243408,55.9630928,100.0
2018-10-05 18:48:54.360,0.053,-0.269,-0.35,-0.46091255,0.196133,13.9058297,21000.0,-367000.0,-331000.0,96934.55811,37.89,0.0,-5.43747139,39.47892761,-82.73709106,-1.3549999595000002,-578.3243408,55.48741531,99.5
2018-10-05 18:48:54.400,0.12,-0.2773333333333333,-0.3116666666666666,-0.4478370166666666,0.1307553333333339,14.26867575,25333.33333333333,-367333.3333333333,-327333.3333333333,96936.77165,37.89,0.0,-5.43747139,39.47892761,-82.73709106,-1.3474999367500002,-578.3243408,55.249576565,99.25
2018-10-05 18:48:54.440,0.187,-0.2856666666666667,-0.2733333333333333,-0.4347614833333333,0.0653776666666678,14.6315218,29666.666666666664,-367666.6666666667,-323666.6666666667,96938.98519,37.89,0.0,-5.43747139,39.47892761,-82.73709106,-1.339999914,-578.3243408,55.01173782,99.0
2018-10-05 18:48:54.480,0.254,-0.294,-0.235,-0.42168595,1.84e-15,14.99436785,34000.0,-368000.0,-320000.0,96941.19873,37.89,0.0,-5.43747139,39.47892761,-82.73709106,-1.329999924,-554.4071045,54.00822067,98.0
2018-10-05 18:48:54.520,0.2553333333333333,-0.302,-0.206,-0.3955348833333333,0.0457643666666678,15.576229083333333,34666.666666666664,-368666.6666666667,-319333.3333333333,96941.81722,37.88666666666667,0.0,-5.43747139,39.47892761,-82.73709106,-1.329999924,-554.4071045,54.00822067,98.0
2018-10-05 18:48:54.560,0.2566666666666666,-0.31,-0.177,-0.3693838166666666,0.0915287333333339,16.158090316666666,35333.333333333336,-369333.3333333333,-318666.6666666667,96942.43571,37.88333333333333,0.0,-5.43747139,39.47892761,-82.73709106,-1.329999924,-554.4071045,54.00822067,98.0
2018-10-05 18:48:54.600,0.258,-0.318,-0.148,-0.34323275,0.1372931,16.73995155,36000.0,-370000.0,-318000.0,96943.0542,37.88,0.0,-5.020730972,41.60055542,-75.14235687,-1.339999914,-554.4071045,52.95497513,97.0
2018-10-05 18:48:54.640,0.031,-0.306,-0.066,-0.40207265,0.46091255,15.15127425,37000.0,-373000.0,-309000.0,96939.42261,37.88,0.0,-5.020730972,41.60055542,-75.14235687,-1.339999914,-554.4071045,52.95497513,97.0
2018-10-05 18:48:54.680,0.0035999999999999,-0.3038,-0.0706,-0.3903046699999999,0.59036033,14.97671588,35400.0,-372400.0,-308000.0,96938.514406,37.88,0.0,-5.020730972,41.60055542,-75.14235687,-1.3549999595000002,-556.20889285,52.38025284,96.5
2018-10-05 18:48:54.720,-0.0238,-0.3016,-0.0752,-0.3785366899999999,0.71980811,14.80215751,33800.0,-371800.0,-307000.0,96937.606202,37.88,0.0,-5.020730972,41.60055542,-75.14235687,-1.370000005,-558.0106812,51.80553055,96.0
2018-10-05 18:48:54.760,-0.0511999999999999,-0.2994,-0.0798,-0.36676871,0.84925589,14.62759914,32200.0,-371200.0,-306000.0,96936.697998,37.88,0.0,-5.020730972,41.60055542,-75.14235687,-1.394999981,-558.0106812,51.21094513,95.5
