time,field.airspeed,field.angular_velocity.x,field.angular_velocity.y,field.angular_velocity.z,field.linear_acceleration.x,field.linear_acceleration.y,field.linear_acceleration.z,field.magnetic_field.x,field.magnetic_field.y,field.magnetic_field.z,field.fluid_pressure,field.temperature,field.alt_error,field.aspd_error,field.xtrack_error,field.wp_dist,field.measured.pitch,field.measured.roll,field.measured.yaw,fault_state
42:23.8,0,-0.296,0.041333333,0.033666667,0.2353596,0.630894483,9.858952133,-5666.666667,231000,-293666.6667,97362.80111,37.85,7.919999599,245.1860352,9.889591217,155,-0.922396898,-10.12098885,119.1688766,0
42:23.9,0,-0.28,0.023,0.025,0.2549729,0.6276256,10.69905515,-1000,236000,-289000,97362.13989,37.85,7.919999599,245.1860352,9.889591217,155,-0.922396898,-10.12098885,119.1688766,0
42:23.9,0,-0.2125,0.024,0.0135,0.210842975,0.5687857,10.27246588,-7500,245000,-282000,97360.2478,37.85,7.919999599,245.1860352,9.889591217,155,-0.922396898,-10.12098885,119.1688766,0
42:24.0,0,-0.145,0.025,0.002,0.16671305,0.5099458,9.8458766,-14000,254000,-275000,97358.35571,37.85,7.819999695,245.1860352,9.37120533,154,-0.922396898,-10.12098885,119.1688766,0
42:24.0,0,-0.156,0.029,0.003,0.134024217,0.40207265,9.515719383,-10333.33333,256666.6667,-273666.6667,97359.84904,37.85,7.819999695,245.1860352,9.37120533,154,-0.922396898,-10.12098885,119.1688766,0
42:24.0,0,-0.167,0.033,0.004,0.101335383,0.2941995,9.185562167,-6666.666667,259333.3333,-272333.3333,97361.34236,37.85,7.739999771,230.0099335,10.36779881,152,-0.922396898,-10.12098885,119.1688766,0
42:24.1,0,-0.178,0.037,0.005,0.06864655,0.18632635,8.85540495,-3000,262000,-271000,97362.83569,37.85,7.739999771,230.0099335,10.36779881,152,-0.922396898,-10.12098885,119.1688766,0
42:24.1,0,-0.1825,0.0225,0.04,0.034323275,0.0980665,8.6690786,-8500,264000,-279000,97361.23352,37.85,7.739999771,230.0099335,10.36779881,152,-0.922396898,-10.12098885,119.1688766,0
42:24.2,0,-0.187,0.008,0.075,0,0.00980665,8.48275225,-14000,266000,-287000,97359.63135,37.85,7.659999847,230.0099335,9.786506653,151,-2.109158039,-15.61358356,118.7378922,0
42:24.2,0,-0.1745,-0.0055,0.1075,0.0196133,0.024516625,8.62004535,-17000,267500,-287000,97359.52149,37.845,7.629999876,227.5431595,9.51252079,150,-2.109158039,-15.61358356,118.7378922,0
42:24.2,0,-0.162,-0.019,0.14,0.0392266,0.0392266,8.75733845,-20000,269000,-287000,97359.41162,37.84,7.599999905,225.0763855,9.238534927,149,-2.109158039,-15.61358356,118.7378922,0
42:24.3,0,-0.122666667,-0.02,0.151333333,0.0196133,-0.04903325,8.495827783,-16333.33333,272000,-284666.6667,97358.86434,37.84,7.579999924,225.0763855,9.999996184,148,-2.109158039,-15.61358356,118.7378922,0
42:24.3,0,-0.083333333,-0.021,0.162666667,0,-0.1372931,8.234317117,-12666.66667,275000,-282333.3333,97358.31706,37.84,7.559999943,225.0763855,10.76145744,147,-2.109158039,-15.61358356,118.7378922,0
42:24.4,0,-0.044,-0.022,0.174,-0.0196133,-0.22555295,7.97280645,-9000,278000,-280000,97357.76978,37.84,7.559999943,225.0763855,10.76145744,147,-2.109158039,-15.61358356,118.7378922,0
42:24.4,0,-0.015666667,-0.025333333,0.193333333,0.00980665,-0.219015183,7.9629998,-10000,278666.6667,-276666.6667,97358.726,37.84,7.559999943,225.0763855,10.76145744,147,-2.109158039,-15.61358356,118.7378922,0
42:24.4,0,0.012666667,-0.028666667,0.212666667,0.0392266,-0.212477417,7.95319315,-11000,279333.3333,-273333.3333,97359.68221,37.84,7.539999962,219.6321411,10.09545231,146,-2.109158039,-15.61358356,118.7378922,0
42:24.5,0,0.041,-0.032,0.232,0.06864655,-0.20593965,7.9433865,-12000,280000,-270000,97360.63843,37.84,7.549999953,219.6321411,10.45743466,145,-2.488665343,-16.55165052,117.2314339,0
42:24.5,0,0.0105,-0.0395,0.2665,0.04903325,-0.0784532,8.144422825,-5500,282500,-267500,97358.28247,37.84,7.559999943,219.6321411,10.819417,144,-2.868172646,-17.48971748,115.7249756,0
42:24.6,0,-0.02,-0.047,0.301,0.02941995,0.04903325,8.34545915,1000,285000,-265000,97355.92651,37.84,7.559999943,219.6321411,10.819417,144,-2.868172646,-17.48971748,115.7249756,0
42:24.6,0,-0.096,-0.0685,0.3025,0.063743225,0.14709975,8.811275025,-500,280000,-267000,97355.3772,37.84,7.559999943,219.6321411,10.819417,144,-2.868172646,-17.48971748,115.7249756,0
42:24.6,0,-0.172,-0.09,0.304,0.0980665,0.24516625,9.2770909,-2000,275000,-269000,97354.82788,37.84,7.599999905,211.5707397,10.08511925,142,-2.868172646,-17.48971748,115.7249756,0
42:24.7,0,-0.220666667,-0.093666667,0.306333333,0.08825985,0.310543917,9.56148375,666.6666667,278666.6667,-271000,97355.15544,37.84,7.599999905,211.5707397,10.08511925,142,-2.868172646,-17.48971748,115.7249756,0
42:24.7,0,-0.269333333,-0.097333333,0.308666667,0.0784532,0.375921583,9.8458766,3333.333333,282333.3333,-273000,97355.48299,37.84,7.599999905,211.5707397,10.08511925,142,-2.868172646,-17.48971748,115.7249756,0
42:24.8,0,-0.318,-0.101,0.311,0.06864655,0.44129925,10.13026945,6000,286000,-275000,97355.81055,37.84,7.649999619,211.5707397,12.2056179,141,-2.868172646,-17.48971748,115.7249756,0
42:24.8,0,-0.361333333,-0.100666667,0.304,0.114410917,0.4903325,10.28717585,8333.333333,289666.6667,-268333.3333,97356.95394,37.84,7.649999619,211.5707397,12.2056179,141,-3.506482124,-19.38521576,110.3707581,0
42:24.8,0,-0.404666667,-0.100333333,0.297,0.160175283,0.53936575,10.44408225,10666.66667,293333.3333,-261666.6667,97358.09733,37.84,7.710000038,196.0156403,11.30936527,139,-3.506482124,-19.38521576,110.3707581,0
42:24.9,0,-0.448,-0.1,0.29,0.20593965,0.588399,10.60098865,13000,297000,-255000,97359.24072,37.84,7.710000038,196.0156403,11.30936527,139,-3.506482124,-19.38521576,110.3707581,0
42:24.9,0,-0.466,-0.1115,0.2685,0.18632635,0.6276256,10.99815798,23500,305500,-244500,97358.40149,37.84,7.710000038,196.0156403,11.30936527,139,-3.506482124,-19.38521576,110.3707581,0
42:25.0,0,-0.484,-0.123,0.247,0.16671305,0.6668522,11.3953273,34000,314000,-234000,97357.56226,37.84,7.779999733,196.0156403,10.44201851,137,-3.506482124,-19.38521576,110.3707581,0
42:25.0,0,-0.461,-0.119,0.227666667,0.1765197,0.6080123,11.12400998,35333.33333,319333.3333,-230333.3333,97358.90707,37.84,7.779999733,196.0156403,10.44201851,137,-3.506482124,-19.38521576,110.3707581,0
42:25.0,0,-0.438,-0.115,0.208333333,0.18632635,0.5491724,10.85269267,36666.66667,324666.6667,-226666.6667,97360.25187,37.84,7.814999819,189.8600083,10.71838379,136.5,-3.506482124,-19.38521576,110.3707581,0
42:25.1,0,-0.415,-0.111,0.189,0.196133,0.4903325,10.58137535,38000,330000,-223000,97361.59668,37.84,7.849999905,183.7043762,10.99474907,136,-3.506482124,-19.38521576,110.3707581,0
42:25.1,0,-0.375666667,-0.126,0.180666667,0.163444167,0.424954833,10.61733307,39666.66667,334000,-214666.6667,97360.9904,37.83666667,7.919999599,183.7043762,10.10977268,134,-3.506482124,-19.38521576,110.3707581,0
42:25.2,0,-0.336333333,-0.141,0.172333333,0.130755333,0.359577167,10.65329078,41333.33333,338000,-206333.3333,97360.38411,37.83333333,7.919999599,183.7043762,10.10977268,134,-3.506482124,-19.38521576,110.3707581,0
42:25.2,0,-0.297,-0.156,0.164,0.0980665,0.2941995,10.6892485,43000,342000,-198000,97359.77783,37.83,7.919999599,183.7043762,10.10977268,134,-3.506482124,-19.38521576,110.3707581,0
42:25.2,0,-0.2635,-0.159,0.16,0.0980665,0.22555295,10.55685873,53500,348500,-183500,97363.17444,37.835,7.919999599,183.7043762,10.10977268,134,-3.506482124,-19.38521576,110.3707581,0
42:25.3,0,-0.23,-0.162,0.156,0.0980665,0.1569064,10.42446895,64000,355000,-169000,97366.57104,37.84,8.010000229,160.6422424,12.11920929,132,-3.340606689,-29.04216957,103.7457733,0
42:25.3,0,-0.218,-0.171666667,0.167666667,0.124217567,0.140561983,10.36562905,65000,354000,-168333.3333,97365.46834,37.83666667,8.010000229,160.6422424,12.11920929,132,-3.340606689,-29.04216957,103.7457733,0
42:25.4,0,-0.206,-0.181333333,0.179333333,0.150368633,0.124217567,10.30678915,66000,353000,-167666.6667,97364.36564,37.83333333,8.099999428,160.6422424,11.0957737,131,-3.340606689,-29.04216957,103.7457733,0
42:25.4,0,-0.194,-0.191,0.191,0.1765197,0.10787315,10.24794925,67000,352000,-167000,97363.26294,37.83,8.099999428,160.6422424,11.0957737,131,-3.340606689,-29.04216957,103.7457733,0
42:25.4,0,-0.188,-0.203,0.2035,0.191229675,0.12748645,10.6696352,71000,358000,-156500,97364.19983,37.83,8.154999733,148.3757019,11.74877072,130,-3.340606689,-29.04216957,103.7457733,0
42:25.5,0,-0.182,-0.215,0.216,0.20593965,0.14709975,11.09132115,75000,364000,-146000,97365.13672,37.83,8.210000038,136.1091614,12.40176773,129,-3.340606689,-29.04216957,103.7457733,0
42:25.5,0,-0.2115,-0.2195,0.226,0.18632635,0.102969825,11.36590735,80500,365500,-139000,97368.17627,37.83,8.329999924,136.1091614,11.31666565,127,-3.340606689,-29.04216957,103.7457733,0
42:25.6,0,-0.241,-0.224,0.236,0.16671305,0.0588399,11.64049355,86000,367000,-132000,97371.21582,37.83,8.329999924,136.1091614,11.31666565,127,-3.340606689,-29.04216957,103.7457733,0
42:25.6,0,-0.233333333,-0.238,0.260333333,0.199401883,-0.006537767,11.85623985,90666.66667,367000,-129000,97370.56071,37.83,8.400000096,124.2083054,10.80203724,126.5,-3.340606689,-29.04216957,103.7457733,0
42:25.6,0,-0.225666667,-0.252,0.284666667,0.232090717,-0.071915433,12.07198615,95333.33333,367000,-126000,97369.9056,37.83,8.470000267,112.3074493,10.28740883,126,-3.340606689,-29.04216957,103.7457733,0
42:25.7,0,-0.218,-0.266,0.309,0.26477955,-0.1372931,12.28773245,100000,367000,-123000,97369.25049,37.83,8.470000267,112.3074493,10.28740883,126,-1.921804786,-34.26613235,96.11837006,0
42:25.7,0,-0.188666667,-0.274,0.325333333,0.277855083,-0.1176798,12.49040322,103666.6667,367666.6667,-115666.6667,97370.33081,37.83,8.599999428,112.3074493,10.72361946,124,-1.921804786,-34.26613235,96.11837006,0
42:25.8,0,-0.159333333,-0.282,0.341666667,0.290930617,-0.0980665,12.69307398,107333.3333,368333.3333,-108333.3333,97371.41114,37.83,8.634999514,108.8552208,10.46566629,123.75,-1.921804786,-34.26613235,96.11837006,0
42:25.8,0,-0.13,-0.29,0.358,0.30400615,-0.0784532,12.89574475,111000,369000,-101000,97372.49146,37.83,8.6699996,105.4029922,10.20771313,123.5,-1.921804786,-34.26613235,96.11837006,0
42:25.8,0,-0.1255,-0.299,0.3735,0.338329425,-0.12748645,13.23407418,114500,366500,-102000,97373.8617,37.825,8.704999685,101.9507637,9.94975996,123.25,-1.921804786,-34.26613235,96.11837006,0
42:25.9,0,-0.121,-0.308,0.389,0.3726527,-0.1765197,13.5724036,118000,364000,-103000,97375.23193,37.82,8.739999771,98.49853516,9.691806793,123,-1.921804786,-34.26613235,96.11837006,0
42:25.9,0,-0.123333333,-0.31,0.405,0.359577167,-0.1176798,13.22263308,123666.6667,367333.3333,-95333.33333,97375.73649,37.82333333,8.739999771,98.49853516,9.691806793,123,-1.921804786,-34.26613235,96.11837006,0
42:26.0,0,-0.125666667,-0.312,0.421,0.346501633,-0.0588399,12.87286257,129333.3333,370666.6667,-87666.66667,97376.24105,37.82666667,8.869999886,98.49853516,8.701957703,121,-1.921804786,-34.26613235,96.11837006,0
42:26.0,0,-0.128,-0.314,0.437,0.3334261,1.53E-15,12.52309205,135000,374000,-80000,97376.74561,37.83,8.869999886,98.49853516,8.701957703,121,-1.921804786,-34.26613235,96.11837006,0
42:26.0,0,-0.105,-0.3195,0.431,0.32361945,0.073549875,12.60154525,152500,372500,-73000,97378.0365,37.825,8.989999771,73.98033142,10.48922157,120,-1.761898398,-36.94722366,85.95587158,0
42:26.1,0,-0.082,-0.325,0.425,0.3138128,0.14709975,12.67999845,170000,371000,-66000,97379.32739,37.82,9.049999714,73.98033142,9.948937892,119,-1.761898398,-36.94722366,85.95587158,0
42:26.1,0,-0.088,-0.3405,0.417,0.367749375,0.279489525,12.99871458,165000,367500,-68500,97380.68543,37.82,9.109999657,73.98033142,9.408654213,118,-1.761898398,-36.94722366,85.95587158,0
42:26.2,0,-0.094,-0.356,0.409,0.42168595,0.4118793,13.3174307,160000,364000,-71000,97382.04346,37.82,9.109999657,73.98033142,9.408654213,118,-1.761898398,-36.94722366,85.95587158,0
42:26.2,0,-0.096,-0.359,0.398666667,0.444568133,0.415148183,13.50375705,173000,366666.6667,-64666.66667,97383.54696,37.82,9.109999657,73.98033142,9.408654213,118,-1.761898398,-36.94722366,85.95587158,0
42:26.2,0,-0.098,-0.362,0.388333333,0.467450317,0.418417067,13.6900834,186000,369333.3333,-58333.33333,97385.05046,37.82,9.239999771,39.97087479,9.801692963,117,-1.761898398,-36.94722366,85.95587158,0
42:26.3,0,-0.1,-0.365,0.378,0.4903325,0.42168595,13.87640975,199000,372000,-52000,97386.55396,37.82,9.304999829,39.97087479,9.263785363,116,-1.761898398,-36.94722366,85.95587158,0
42:26.3,0,-0.121,-0.3555,0.36,0.46091255,0.377556025,13.49885373,204500,369000,-53000,97386.96595,37.82,9.369999886,39.97087479,8.725877762,115,-1.761898398,-36.94722366,85.95587158,0
42:26.4,0,-0.142,-0.346,0.342,0.4314926,0.3334261,13.1212977,210000,366000,-54000,97387.37793,37.82,9.369999886,39.97087479,8.725877762,115,-1.761898398,-36.94722366,85.95587158,0
42:26.4,0,-0.125,-0.359,0.315,0.48052585,0.2353596,13.23407418,212500,369000,-48500,97385.68726,37.82,9.369999886,39.97087479,8.725877762,115,-1.761898398,-36.94722366,85.95587158,0
42:26.4,0,-0.108,-0.372,0.288,0.5295591,0.1372931,13.34685065,215000,372000,-43000,97383.99658,37.82,9.5,14.21346664,10.66420269,114,-1.105249047,-39.00814056,73.98274994,0
42:26.5,0,-0.094,-0.3735,0.30025,0.544269075,0.04903325,13.49149874,226250,370250,-40750,97385.88409,37.82,9.565000057,14.21346664,10.08054924,113.5,-1.105249047,-39.00814056,73.98274994,0
42:26.5,0,-0.08,-0.375,0.3125,0.55897905,-0.0392266,13.63614683,237500,368500,-38500,97387.77161,37.82,9.630000114,14.21346664,9.49689579,113,-1.105249047,-39.00814056,73.98274994,0
42:26.6,0,-0.066,-0.3765,0.32475,0.573689025,-0.12748645,13.78079491,248750,366750,-36250,97389.65912,37.82,9.630000114,14.21346664,9.49689579,113,-1.105249047,-39.00814056,73.98274994,0
42:26.6,0,-0.052,-0.378,0.337,0.588399,-0.2157463,13.925443,260000,365000,-34000,97391.54663,37.82,9.630000114,14.21346664,9.49689579,113,-1.105249047,-39.00814056,73.98274994,0
42:26.6,0,-0.003,-0.3865,0.3595,0.652142225,-0.10787315,14.46971208,270000,368000,-15500,97392.59644,37.815,9.769999504,-17.23918915,8.392457008,112,-1.105249047,-39.00814056,73.98274994,0
42:26.7,0,0.046,-0.395,0.382,0.71588545,1.84E-15,15.01398115,280000,371000,3000,97393.64624,37.81,9.829999447,-17.23918915,9.369835379,111.5,-1.105249047,-39.00814056,73.98274994,0
42:26.7,0,0.108333333,-0.389333333,0.396333333,0.719154333,0.14709975,15.10550988,281333.3333,363333.3333,-5666.666667,97394.84456,37.81,9.88999939,-17.23918915,10.34721375,111,-1.105249047,-39.00814056,73.98274994,0
42:26.8,0,0.170666667,-0.383666667,0.410666667,0.722423217,0.2941995,15.19703862,282666.6667,355666.6667,-14333.33333,97396.04289,37.81,9.88999939,-17.23918915,10.34721375,111,-0.143510059,-39.61253738,65.23117828,0
42:26.8,0,0.233,-0.378,0.425,0.7256921,0.44129925,15.28856735,284000,348000,-23000,97397.24121,37.81,9.944999695,-39.97859955,9.754989627,110.5,-0.143510059,-39.61253738,65.23117828,0
42:26.8,0,0.154,-0.381,0.417,0.858081875,0.514849125,15.77889985,291500,350000,-21500,97397.94312,37.81,10,-62.71800995,9.162765503,110,-0.143510059,-39.61253738,65.23117828,0
42:26.9,0,0.075,-0.384,0.409,0.99047165,0.588399,16.26923235,299000,352000,-20000,97398.64502,37.81,10,-62.71800995,9.162765503,110,-0.143510059,-39.61253738,65.23117828,0
42:26.9,0,-0.0835,-0.3805,0.396,0.9218251,0.456009225,15.80341648,315500,346500,-18500,97396.45081,37.81,10,-62.71800995,9.162765503,110,-0.143510059,-39.61253738,65.23117828,0
42:27.0,0,-0.242,-0.377,0.383,0.85317855,0.32361945,15.3376006,332000,341000,-17000,97394.25659,37.81,10.10999966,-62.71800995,8.021485329,109,-0.143510059,-39.61253738,65.23117828,0
42:27.0,0,-0.2475,-0.3815,0.367,0.77472535,0.367749375,15.02869113,317500,342500,-30000,97397.0398,37.81,10.14999962,-85.36081313,7.854729414,108.5,-0.143510059,-39.61253738,65.23117828,0
42:27.0,0,-0.253,-0.386,0.351,0.69627215,0.4118793,14.71978165,303000,344000,-43000,97399.823,37.81,10.18999958,-108.0036163,7.687973499,108,-0.143510059,-39.61253738,65.23117828,0
42:27.1,0,-0.262,-0.385,0.347333333,0.679927733,0.392266,14.56287525,309666.6667,343000,-36666.66667,97400.26449,37.81,10.18999958,-108.0036163,7.687973499,108,-0.143510059,-39.61253738,65.23117828,0
42:27.1,0,-0.271,-0.384,0.343666667,0.663583317,0.3726527,14.40596885,316333.3333,342000,-30333.33333,97400.70597,37.81,10.18999958,-108.0036163,7.687973499,108,-0.143510059,-39.61253738,65.23117828,0
42:27.2,0,-0.28,-0.383,0.34,0.6472389,0.3530394,14.24906245,323000,341000,-24000,97401.14746,37.81,10.26000023,-108.0036163,6.657584667,108,0.647962868,-41.17221451,53.25787354,0
42:27.2,0,-0.231666667,-0.384666667,0.33,0.69627215,0.2745862,14.15426483,335333.3333,338000,-18000,97398.47819,37.81,10.29500008,-127.5040665,7.833055258,107.5,0.647962868,-41.17221451,53.25787354,0
42:27.2,0,-0.183333333,-0.386333333,0.32,0.7453054,0.196133,14.05946722,347666.6667,335000,-12000,97395.80892,37.81,10.32999992,-147.0045166,9.008525848,107,0.647962868,-41.17221451,53.25787354,0
42:27.3,0,-0.135,-0.388,0.31,0.79433865,0.1176798,13.9646696,360000,332000,-6000,97393.13965,37.81,10.32999992,-147.0045166,9.008525848,107,0.647962868,-41.17221451,53.25787354,0
42:27.3,0,-0.16,-0.3845,0.3195,0.789435325,0.093163175,13.68027675,364000,326500,6500,97397.92481,37.81,10.32999992,-147.0045166,9.008525848,107,0.647962868,-41.17221451,53.25787354,0
42:27.4,0,-0.185,-0.381,0.329,0.784532,0.06864655,13.3958839,368000,321000,19000,97402.70996,37.81,10.39999962,-147.0045166,7.857359409,107,0.647962868,-41.17221451,53.25787354,0
42:27.4,0,-0.14,-0.3883,0.3365,0.82571993,0.06472389,13.60280422,383800,318600,26600,97402.92297,37.809,10.39999962,-147.0045166,7.857359409,107,0.647962868,-41.17221451,53.25787354,0
42:27.4,0,-0.095,-0.3956,0.344,0.86690786,0.06080123,13.80972453,399600,316200,34200,97403.13599,37.808,10.43499971,-153.0010757,7.711649895,107,0.862382516,-42.18614483,50.49303341,0
42:27.5,0,-0.05,-0.4029,0.3515,0.90809579,0.05687857,14.01664485,415400,313800,41800,97403.349,37.807,10.46999979,-158.9976349,7.56594038,107,1.076802164,-43.20007515,47.72819329,0
42:27.5,0,-0.005,-0.4102,0.359,0.94928372,0.05295591,14.22356516,431200,311400,49400,97403.56201,37.806,10.50499988,-164.9941941,7.420230866,107,1.291221812,-44.21400547,44.96335316,0
42:27.6,0,0.04,-0.4175,0.3665,0.99047165,0.04903325,14.43048548,447000,309000,57000,97403.77503,37.805,10.53999996,-170.9907532,7.274521351,107,1.50564146,-45.22793579,42.19851303,0
42:27.6,0,0.002,-0.426,0.384666667,1.046042667,0.16671305,14.70343723,464000,306666.6667,58333.33333,97406.16659,37.80333333,10.53999996,-170.9907532,7.274521351,107,1.50564146,-45.22793579,42.19851303,0
42:27.6,0,-0.036,-0.4345,0.402833333,1.101613683,0.28439285,14.97638899,481000,304333.3333,59666.66667,97408.55815,37.80166667,10.61999989,-208.4766388,6.248214245,107,1.50564146,-45.22793579,42.19851303,0
42:27.7,0,-0.074,-0.443,0.421,1.1571847,0.40207265,15.24934075,498000,302000,61000,97410.94971,37.8,10.65999985,-208.4766388,6.281153917,107,1.50564146,-45.22793579,42.19851303,0
42:27.7,0,-0.089,-0.43,0.413,1.113054775,0.34323275,14.7884282,514500,302500,69500,97410.51941,37.8,10.69999981,-208.4766388,6.31409359,107,1.50564146,-45.22793579,42.19851303,0
42:27.8,0,-0.104,-0.417,0.405,1.06892485,0.28439285,14.32751565,531000,303000,78000,97410.08911,37.8,10.69999981,-208.4766388,6.31409359,107,1.50564146,-45.22793579,42.19851303,0
42:27.8,0,-0.122,-0.423666667,0.396,1.0983448,0.238628483,14.33078453,514000,299666.6667,76333.33333,97410.05859,37.8,10.69999981,-208.4766388,6.31409359,107,1.532851219,-46.17053223,32.09933472,0
42:27.8,0,-0.14,-0.430333333,0.387,1.12776475,0.192864117,14.33405342,497000,296333.3333,74666.66667,97410.02808,37.8,10.77999973,-242.2523499,5.360710144,108,1.532851219,-46.17053223,32.09933472,0
42:27.9,0,-0.158,-0.437,0.378,1.1571847,0.14709975,14.3373223,480000,293000,73000,97409.99756,37.8,10.8199997,-242.2523499,5.276351929,108,1.532851219,-46.17053223,32.09933472,0
42:27.9,0,-0.1355,-0.435,0.3645,1.162088025,0.06864655,14.32751565,507000,281000,69500,97411.12671,37.8,10.85999966,-242.2523499,5.191993713,108,1.532851219,-46.17053223,32.09933472,0
42:28.0,0,-0.113,-0.433,0.351,1.16699135,-0.00980665,14.317709,534000,269000,66000,97412.25586,37.8,10.85999966,-242.2523499,5.191993713,108,1.532851219,-46.17053223,32.09933472,0
42:28.0,0,-0.044,-0.440333333,0.361,1.140840283,-0.026151067,14.38308667,553000,264666.6667,64666.66667,97413.21208,37.8,10.85999966,-242.2523499,5.191993713,108,1.532851219,-46.17053223,32.09933472,0
42:28.0,0,0.025,-0.447666667,0.371,1.114689217,-0.042495483,14.44846433,572000,260333.3333,63333.33333,97414.16829,37.8,10.94999981,-286.0408936,4.359444141,109,1.532851219,-46.17053223,32.09933472,0
42:28.1,0,0.094,-0.455,0.381,1.08853815,-0.0588399,14.513842,591000,256000,62000,97415.12451,37.8,10.94999981,-286.0408936,4.359444141,109,1.532851219,-46.17053223,32.09933472,0
42:28.1,0,0.1595,-0.465,0.3885,1.260154525,0,15.38663385,605500,248500,69500,97416.99219,37.8,10.94999981,-286.0408936,4.359444141,109,1.532851219,-46.17053223,32.09933472,0
42:28.2,0,0.225,-0.475,0.396,1.4317709,0.0588399,16.2594257,620000,241000,77000,97418.85986,37.8,11.05000019,-286.0408936,3.628186226,110,1.532851219,-46.17053223,32.09933472,0
42:28.2,0,0.210666667,-0.478333333,0.4,1.408888717,0.0784532,16.50132307,634333.3333,240666.6667,82000,97418.43465,37.8,11.05000019,-286.0408936,3.628186226,110,1.723964572,-46.9478035,20.7861805,0
42:28.2,0,0.196333333,-0.481666667,0.404,1.386006533,0.0980665,16.74322043,648666.6667,240333.3333,87000,97418.00944,37.8,11.13999939,-314.2158508,3.134803295,111,1.723964572,-46.9478035,20.7861805,0
42:28.3,0,0.182,-0.485,0.408,1.36312435,0.1176798,16.9851178,663000,240000,92000,97417.58423,37.8,11.13999939,-314.2158508,3.134803295,111,1.723964572,-46.9478035,20.7861805,0
42:28.3,0,0.1935,-0.4765,0.3905,1.2748645,0.230456275,16.50949528,634500,228000,59000,97416.46424,37.795,11.17999935,-314.2158508,2.868938089,111.5,1.723964572,-46.9478035,20.7861805,0
42:28.4,0,0.205,-0.468,0.373,1.18660465,0.34323275,16.03387275,606000,216000,26000,97415.34424,37.79,11.21999931,-314.2158508,2.603072882,112,1.723964572,-46.9478035,20.7861805,0
42:28.4,0,0.263,-0.4775,0.3545,1.250347875,0.22555295,16.7105316,574000,218000,16000,97417.6117,37.79,11.21999931,-314.2158508,2.603072882,112,1.723964572,-46.9478035,20.7861805,0
42:28.4,0,0.321,-0.487,0.336,1.3140911,0.10787315,17.38719045,542000,220000,6000,97419.87915,37.79,11.28999996,-353.9237976,2.197828531,113,1.723964572,-46.9478035,20.7861805,0
42:28.5,0,0.329,-0.47575,0.3355,1.287122813,0.120131463,17.28176896,543250,215000,8500,97418.69354,37.79,11.28999996,-353.9237976,2.197828531,113,1.723964572,-46.9478035,20.7861805,0
42:28.5,0,0.337,-0.4645,0.335,1.260154525,0.132389775,17.17634748,544500,210000,11000,97417.50794,37.79,11.28999996,-353.9237976,2.197828531,113,2.696625233,-42.60979843,8.800058365,0
42:28.6,0,0.345,-0.45325,0.3345,1.233186238,0.144648088,17.07092599,545750,205000,13500,97416.32233,37.79,11.34000015,-353.9237976,1.893513799,114,2.696625233,-42.60979843,8.800058365,0
42:28.6,0,0.353,-0.442,0.334,1.20621795,0.1569064,16.9655045,547000,200000,16000,97415.13672,37.79,11.34999991,-366.2159882,1.800528229,115,2.696625233,-42.60979843,8.800058365,0
42:28.6,0,0.4015,-0.4115,0.337,1.034601575,0.2941995,16.32807225,539500,203000,-1500,97413.98926,37.79,11.35999966,-378.5081787,1.707542658,116,2.696625233,-42.60979843,8.800058365,0
42:28.7,0,0.45,-0.381,0.34,0.8629852,0.4314926,15.69064,532000,206000,-19000,97412.8418,37.79,11.35999966,-378.5081787,1.707542658,116,2.696625233,-42.60979843,8.800058365,0
42:28.7,0,0.501,-0.36,0.3155,0.8237586,0.392266,15.09733768,525500,206000,-34000,97413.45215,37.79,11.35999966,-378.5081787,1.614557624,117,2.696625233,-42.60979843,8.800058365,0
42:28.8,0,0.552,-0.339,0.291,0.784532,0.3530394,14.50403535,519000,206000,-49000,97414.0625,37.79,11.35999966,-378.5081787,1.614557624,117,2.696625233,-42.60979843,8.800058365,0
42:28.8,0,0.594,-0.33125,0.2765,0.752660388,0.360394387,14.54326195,508000,200250,-59500,97412.61292,37.79,11.34499979,-389.8227692,1.627237439,118,2.696625233,-42.60979843,8.800058365,0
42:28.8,0,0.636,-0.3235,0.262,0.720788775,0.367749375,14.58248855,497000,194500,-70000,97411.16333,37.79,11.32999992,-401.1373596,1.639917254,119,2.696625233,-42.60979843,8.800058365,0
42:28.9,0,0.678,-0.31575,0.2475,0.688917163,0.375104363,14.62171515,486000,188750,-80500,97409.71375,37.79,11.32999992,-401.1373596,1.639917254,119,2.696625233,-42.60979843,8.800058365,0
42:28.9,0,0.72,-0.308,0.233,0.65704555,0.38245935,14.66094175,475000,183000,-91000,97408.26416,37.79,11.30499983,-401.1373596,1.690635502,119.5,3.940568448,-36.68109799,2.717772246,0
42:29.0,0,0.702,-0.278,0.228,0.5491724,0.40207265,14.64132845,432000,144000,-161000,97410.67505,37.78,11.27999973,-401.1373596,1.74135375,120,5.184511662,-30.75239754,-3.364513874,0
42:29.0,0,0.68,-0.262,0.209,0.5295591,0.475622525,14.7295883,434500,146500,-185000,97406.23474,37.78,11.27999973,-401.1373596,1.74135375,120,5.184511662,-30.75239754,-3.364513874,0
42:29.0,0,0.658,-0.246,0.19,0.5099458,0.5491724,14.81784815,437000,149000,-209000,97401.79443,37.78,11.18999958,-418.1072388,1.90196383,122,5.184511662,-30.75239754,-3.364513874,0
42:29.1,0,0.636666667,-0.224,0.176666667,0.4314926,0.748574283,14.4550021,423666.6667,143333.3333,-212000,97402.48413,37.78,11.18999958,-418.1072388,1.90196383,122,5.184511662,-30.75239754,-3.364513874,0
42:29.1,0,0.615333333,-0.202,0.163333333,0.3530394,0.947976167,14.09215605,410333.3333,137666.6667,-215000,97403.17383,37.78,11.18999958,-418.1072388,1.90196383,122,5.184511662,-30.75239754,-3.364513874,0
42:29.2,0,0.594,-0.18,0.15,0.2745862,1.14737805,13.72931,397000,132000,-218000,97403.86353,37.78,11.07999992,-418.1072388,2.130198717,124,5.184511662,-30.75239754,-3.364513874,0
42:29.2,0,0.574,-0.157,0.099,0.2157463,0.784532,12.9643913,391000,122500,-235000,97400.54322,37.78,11,-428.8503724,2.265449405,125,5.184511662,-30.75239754,-3.364513874,0
42:29.2,0,0.554,-0.134,0.048,0.1569064,0.42168595,12.1994726,385000,113000,-252000,97397.2229,37.78,10.92000008,-439.5935059,2.400700092,126,5.184511662,-30.75239754,-3.364513874,0
42:29.3,0,0.5625,-0.12825,0.039,0.171616375,0.419234287,12.39315394,380250,107000,-259000,97396.53931,37.78,10.83500004,-439.5935059,2.557083726,127,5.184511662,-30.75239754,-3.364513874,0
42:29.3,0,0.571,-0.1225,0.03,0.18632635,0.416782625,12.58683528,375500,101000,-266000,97395.85572,37.78,10.75,-439.5935059,2.71346736,128,5.184511662,-30.75239754,-3.364513874,0
42:29.4,0,0.5795,-0.11675,0.021,0.201036325,0.414330963,12.78051661,370750,95000,-273000,97395.17212,37.78,10.75,-439.5935059,2.71346736,128,5.184511662,-30.75239754,-3.364513874,0
42:29.4,0,0.588,-0.111,0.012,0.2157463,0.4118793,12.97419795,366000,89000,-280000,97394.48853,37.78,10.64499998,-432.6319733,2.878302455,128.5,6.671979189,-22.22526026,-6.217522383,0
42:29.4,0,0.6175,-0.083,0.0175,0.18632635,0.3334261,12.5917386,370500,79500,-280000,97391.568,37.78,10.53999996,-425.6704407,3.04313755,129,8.159446716,-13.69812298,-9.070530891,0
42:29.5,0,0.647,-0.055,0.023,0.1569064,0.2549729,12.20927925,375000,70000,-280000,97388.64746,37.78,10.53999996,-425.6704407,3.04313755,129,8.159446716,-13.69812298,-9.070530891,0
42:29.5,0,0.7175,-0.0395,0.0145,0.1176798,0.1765197,11.41984393,358500,56000,-299000,97386.92932,37.78,10.53999996,-425.6704407,3.04313755,129,8.159446716,-13.69812298,-9.070530891,0
42:29.6,0,0.788,-0.024,0.006,0.0784532,0.0980665,10.6304086,342000,42000,-318000,97385.21118,37.78,10.31999969,-425.6704407,3.398170471,131,8.159446716,-13.69812298,-9.070530891,0
42:29.6,0,0.783333333,-0.014333333,0.014666667,0.071915433,0.12748645,10.5127288,338666.6667,33000,-317333.3333,97384.40348,37.78,10.19499969,-414.572815,3.567233324,132,8.159446716,-13.69812298,-9.070530891,0
42:29.6,0,0.778666667,-0.004666667,0.023333333,0.065377667,0.1569064,10.395049,335333.3333,24000,-316666.6667,97383.59579,37.78,10.06999969,-403.4751892,3.736296177,133,8.159446716,-13.69812298,-9.070530891,0
42:29.7,0,0.774,0.005,0.032,0.0588399,0.18632635,10.2773692,332000,15000,-316000,97382.78809,37.78,9.986666358,-403.4751892,3.854640484,133.6666667,8.204797745,-11.29411502,-9.201294899,0
42:29.7,0,0.697,0.0145,0.037,0.02941995,0.201036325,9.67916355,330000,-2500,-325500,97380.10865,37.775,9.903333027,-403.4751892,3.972984791,134.3333333,8.250148773,-8.890107057,-9.332058906,0
42:29.8,0,0.62,0.024,0.042,0,0.2157463,9.0809579,328000,-20000,-335000,97377.4292,37.77,9.819999695,-403.4751892,4.091329098,135,8.295499802,-6.486099095,-9.462822914,0
42:29.8,0,0.561666667,0.03,0.046666667,0,0.238628483,9.01231135,328333.3333,-30666.66667,-338333.3333,97377.27661,37.77,9.819999695,-403.4751892,4.091329098,135,8.431552887,0.72592479,-9.855114937,0
42:29.8,0,0.503333333,0.036,0.051333333,0,0.261510667,8.9436648,328666.6667,-41333.33333,-341666.6667,97377.12403,37.77,9.569999695,-383.9904785,4.412549019,136,8.431552887,0.72592479,-9.855114937,0
42:29.9,0,0.445,0.042,0.056,0,0.28439285,8.87501825,329000,-52000,-345000,97376.97144,37.77,9.444999695,-383.9904785,4.573157072,137,8.431552887,0.72592479,-9.855114937,0
42:29.9,0,0.466,0.054,0.0485,-0.00980665,0.22555295,8.5513988,331500,-62500,-339000,97373.72742,37.77,9.319999695,-383.9904785,4.733765125,138,8.431552887,0.72592479,-9.855114937,0
42:30.0,0,0.487,0.066,0.041,-0.0196133,0.16671305,8.22777935,334000,-73000,-333000,97370.4834,37.77,9.319999695,-383.9904785,4.733765125,138,8.431552887,0.72592479,-9.855114937,0
42:30.0,0,0.439666667,0.068333333,0.048,-0.035957717,0.28439285,8.20816605,332333.3333,-79333.33333,-335333.3333,97370.84147,37.77,9.319999695,-383.9904785,4.733765125,138,8.431552887,0.72592479,-9.855114937,0
42:30.0,0,0.392333333,0.070666667,0.055,-0.052302133,0.40207265,8.18855275,330666.6667,-85666.66667,-337666.6667,97371.19955,37.77,9.090000153,-350.8546753,5.021172524,140,8.431552887,0.72592479,-9.855114937,0
42:30.1,0,0.345,0.073,0.062,-0.06864655,0.51975245,8.16893945,329000,-92000,-340000,97371.55762,37.77,9.090000153,-350.8546753,5.021172524,140,8.431552887,0.72592479,-9.855114937,0
42:30.1,0,0.29,0.0735,0.0355,-0.053936575,0.4707192,8.26700595,329000,-107000,-344000,97368.84461,37.77,9.090000153,-350.8546753,5.021172524,140,8.431552887,0.72592479,-9.855114937,0
42:30.2,0,0.235,0.074,0.009,-0.0392266,0.42168595,8.36507245,329000,-122000,-348000,97366.13159,37.77,8.869999886,-350.8546753,5.300126553,142,7.182523727,11.56254292,-11.40718842,0
42:30.2,0,0.208666667,0.070333333,-0.006666667,-0.032688833,0.385728233,8.4729456,332000,-124333.3333,-344000,97365.82438,37.77,8.869999886,-350.8546753,5.300126553,142,7.182523727,11.56254292,-11.40718842,0
42:30.2,0,0.182333333,0.066666667,-0.022333333,-0.026151067,0.349770517,8.58081875,335000,-126666.6667,-340000,97365.51717,37.77,8.769999981,-338.4178162,5.422694684,142.5,7.182523727,11.56254292,-11.40718842,0
42:30.3,0,0.156,0.063,-0.038,-0.0196133,0.3138128,8.6886919,338000,-129000,-336000,97365.20996,37.77,8.670000076,-325.980957,5.545262814,143,7.182523727,11.56254292,-11.40718842,0
42:30.3,0,0.1555,0.0555,-0.0255,0.004903325,0.348136075,9.0417313,332000,-135000,-335000,97363.73596,37.765,8.585000038,-325.980957,5.663606883,144,7.182523727,11.56254292,-11.40718842,0
42:30.4,0,0.155,0.048,-0.013,0.02941995,0.38245935,9.3947707,326000,-141000,-334000,97362.26196,37.76,8.5,-325.980957,5.781950951,145,7.182523727,11.56254292,-11.40718842,0
42:30.4,0,0.155666667,0.053666667,-0.013333333,-0.006537767,0.444568133,9.290166433,326333.3333,-142000,-334333.3333,97362.26196,37.76,8.5,-325.980957,5.781950951,145,7.182523727,11.56254292,-11.40718842,0
42:30.4,0,0.156333333,0.059333333,-0.013666667,-0.042495483,0.506676917,9.185562167,326666.6667,-143000,-334666.6667,97362.26196,37.76,8.414999962,-313.5611572,5.879160881,146,7.182523727,11.56254292,-11.40718842,0
42:30.5,0,0.157,0.065,-0.014,-0.0784532,0.5687857,9.0809579,327000,-144000,-335000,97362.26196,37.76,8.329999924,-301.1413574,5.976370811,147,7.182523727,11.56254292,-11.40718842,0
42:30.5,0,0.078,0.0665,-0.022,-0.0588399,0.818855275,8.928954825,327000,-147000,-337500,97362.03919,37.76,8.329999924,-301.1413574,5.976370811,147,7.182523727,11.56254292,-11.40718842,0
42:30.6,0,-0.001,0.068,-0.03,-0.0392266,1.06892485,8.77695175,327000,-150000,-340000,97361.81641,37.76,8.179999352,-301.1413574,6.162339687,148,5.397223473,16.52108574,-11.80610085,0
42:30.6,0,0.015333333,0.085333333,-0.069666667,-0.071915433,1.06892485,8.525247733,331666.6667,-150333.3333,-339666.6667,97360.26205,37.76,8.179999352,-301.1413574,6.162339687,148,5.397223473,16.52108574,-11.80610085,0
42:30.6,0,0.031666667,0.102666667,-0.109333333,-0.104604267,1.06892485,8.273543717,336333.3333,-150666.6667,-339333.3333,97358.70768,37.76,8.039999962,-283.1582947,6.31449604,150,5.397223473,16.52108574,-11.80610085,0
42:30.7,0,0.048,0.12,-0.149,-0.1372931,1.06892485,8.0218397,341000,-151000,-339000,97357.15332,37.76,7.974999905,-283.1582947,6.39057231,151,5.397223473,16.52108574,-11.80610085,0
42:30.7,0,0.0195,0.1175,-0.179,-0.1765197,0.980665,8.22777935,338500,-150500,-341000,97356.73218,37.76,7.909999847,-283.1582947,6.466648579,152,5.397223473,16.52108574,-11.80610085,0
42:30.8,0,-0.009,0.115,-0.209,-0.2157463,0.89240515,8.433719,336000,-150000,-343000,97356.31104,37.76,7.909999847,-283.1582947,6.466648579,152,5.397223473,16.52108574,-11.80610085,0
42:30.8,0,-0.019,0.12,-0.231666667,-0.20593965,0.777994233,7.985881983,336333.3333,-150333.3333,-342666.6667,97356.85222,37.76,7.799999714,-259.186554,6.584991932,153,5.397223473,16.52108574,-11.80610085,0
42:30.8,0,-0.029,0.125,-0.254333333,-0.196133,0.663583317,7.538044967,336666.6667,-150666.6667,-342333.3333,97357.39339,37.76,7.799999714,-259.186554,6.584991932,153,5.397223473,16.52108574,-11.80610085,0
42:30.9,0,-0.039,0.13,-0.277,-0.18632635,0.5491724,7.09020795,337000,-151000,-342000,97357.93457,37.76,7.759999752,-259.186554,6.646848679,154,5.397223473,16.52108574,-11.80610085,0
42:30.9,0,-0.018,0.1215,-0.278,-0.14709975,0.289296175,6.8058151,348000,-145000,-335500,97357.83997,37.76,7.71999979,-259.186554,6.708705425,155,5.397223473,16.52108574,-11.80610085,0
42:31.0,0,0.003,0.113,-0.279,-0.10787315,0.02941995,6.52142225,359000,-139000,-329000,97357.74536,37.76,7.71999979,-259.186554,6.708705425,155,5.397223473,16.52108574,-11.80610085,0
42:31.0,0,0.0315,0.09475,-0.239,-0.08825985,0.080904863,6.95291485,357750,-138250,-329000,97357.29828,37.7575,7.71999979,-259.186554,6.708705425,155,0.907484889,17.74773216,-7.832547665,0
42:31.0,0,0.06,0.0765,-0.199,-0.06864655,0.132389775,7.38440745,356500,-137500,-329000,97356.8512,37.755,7.699999809,-252.0666123,6.75500989,156,0.907484889,17.74773216,-7.832547665,0
42:31.1,0,0.0885,0.05825,-0.159,-0.04903325,0.183874688,7.81590005,355250,-136750,-329000,97356.40411,37.7525,7.679999828,-244.9466705,6.801314354,157,0.907484889,17.74773216,-7.832547665,0
42:31.1,0,0.117,0.04,-0.119,-0.02941995,0.2353596,8.24739265,354000,-136000,-329000,97355.95703,37.75,7.659999847,-244.9466705,6.937297821,158,0.907484889,17.74773216,-7.832547665,0
42:31.2,0,0.013,0.024,-0.075,0,0.24516625,8.9436648,366000,-139000,-330000,97352.24609,37.75,7.659999847,-244.9466705,6.937297821,158,0.907484889,17.74773216,-7.832547665,0
42:31.2,0,0.017333333,0.017333333,-0.066,0,0.317081683,9.087495667,365000,-143000,-331000,97353.14534,37.75,7.669999838,-241.792778,6.956132174,159,0.907484889,17.74773216,-7.832547665,0
42:31.2,0,0.021666667,0.010666667,-0.057,0,0.388997117,9.231326533,364000,-147000,-332000,97354.0446,37.75,7.679999828,-238.6388855,6.974966526,160,0.907484889,17.74773216,-7.832547665,0
42:31.3,0,0.026,0.004,-0.048,0,0.46091255,9.3751574,363000,-151000,-333000,97354.94385,37.75,7.694999933,-238.6388855,6.989587784,160.5,0.907484889,17.74773216,-7.832547665,0
42:31.3,0,-0.0755,0.02,-0.0495,-0.063743225,0.5099458,8.629852,364500,-153500,-337000,97356.90308,37.75,7.710000038,-238.6388855,7.004209042,161,0.907484889,17.74773216,-7.832547665,0
42:31.4,0,-0.177,0.036,-0.051,-0.12748645,0.55897905,7.8845466,366000,-156000,-341000,97358.8623,37.75,7.710000038,-238.6388855,7.004209042,161,0.907484889,17.74773216,-7.832547665,0
42:31.4,0,-0.168666667,0.033666667,-0.056333333,-0.101335383,0.575323467,8.1002929,368333.3333,-154666.6667,-338000,97358.5734,37.75,7.710000038,-238.6388855,7.004209042,161,-0.655590773,18.83901215,-6.217948437,0
42:31.4,0,-0.160333333,0.031333333,-0.061666667,-0.075184317,0.591667883,8.3160392,370666.6667,-153333.3333,-335000,97358.28451,37.75,7.759999752,-229.1465759,7.294074535,163,-0.655590773,18.83901215,-6.217948437,0
42:31.5,0,-0.152,0.029,-0.067,-0.04903325,0.6080123,8.5317855,373000,-152000,-332000,97357.99561,37.75,7.759999752,-229.1465759,7.294074535,163,-0.655590773,18.83901215,-6.217948437,0
42:31.5,0,-0.1605,0.0265,-0.079,-0.06864655,0.53936575,8.6886919,375500,-146000,-331500,97358.1482,37.75,7.759999752,-229.1465759,7.294074535,163,-0.655590773,18.83901215,-6.217948437,0
42:31.6,0,-0.169,0.024,-0.091,-0.08825985,0.4707192,8.8455983,378000,-140000,-331000,97358.30078,37.75,7.829999924,-228.1465454,7.248760223,165,-0.655590773,18.83901215,-6.217948437,0
42:31.6,0,-0.168333333,0.016666667,-0.086,-0.0980665,0.496870267,8.87501825,377000,-138333.3333,-331333.3333,97358.6792,37.75,7.909999847,-230.3424835,7.18620491,166,-0.655590773,18.83901215,-6.217948437,0
42:31.6,0,-0.167666667,0.009333333,-0.081,-0.10787315,0.523021333,8.9044382,376000,-136666.6667,-331666.6667,97359.05762,37.75,7.909999847,-230.3424835,7.18620491,166,-0.655590773,18.83901215,-6.217948437,0
42:31.7,0,-0.167,0.002,-0.076,-0.1176798,0.5491724,8.93385815,375000,-135000,-332000,97359.43604,37.75,7.960000038,-230.3424835,7.344645739,167,-0.655590773,18.83901215,-6.217948437,0
42:31.7,0,-0.189,0.002,-0.0745,-0.1176798,0.59820565,8.73772515,380000,-127500,-327000,97359.81446,37.745,8.010000229,-230.3424835,7.503086567,168,-0.655590773,18.83901215,-6.217948437,0
42:31.8,0,-0.211,0.002,-0.073,-0.1176798,0.6472389,8.54159215,385000,-120000,-322000,97360.19287,37.74,8.010000229,-230.3424835,7.503086567,168,-0.655590773,18.83901215,-6.217948437,0
42:31.8,0,-0.2475,0.001,-0.0785,-0.10787315,0.7256921,8.77695175,390500,-119000,-320500,97362.55188,37.74,8.037500143,-227.504158,7.468250275,168.5,-0.903570056,17.8967402,-5.843309999,0
42:31.8,0,-0.284,-1.03E-17,-0.084,-0.0980665,0.8041453,9.01231135,396000,-118000,-319000,97364.91089,37.74,8.065000058,-224.6658325,7.433413983,169,-1.15154934,16.95446825,-5.468671561,0
42:31.9,0,-0.3,-1.21E-17,-0.098666667,-0.075184317,0.768187583,9.18883105,397000,-112333.3333,-320666.6667,97364.9943,37.74,8.122499943,-221.827507,7.735684037,169.75,-1.399528623,16.0121963,-5.094033122,0
42:31.9,0,-0.316,-1.39E-17,-0.113333333,-0.052302133,0.732229867,9.36535075,398000,-106666.6667,-322333.3333,97365.07772,37.74,8.179999829,-218.9891815,8.037954092,170.5,-1.647507906,15.06992435,-4.719394684,0
42:32.0,0,-0.332,-1.57E-17,-0.128,-0.02941995,0.69627215,9.54187045,399000,-101000,-324000,97365.16113,37.74,8.2099998,-218.9891815,8.375060439,170.75,-1.647507906,15.06992435,-4.719394684,0
42:32.0,0,-0.332333333,0.001,-0.137666667,-0.0196133,0.6276256,9.636668067,393000,-97333.33333,-327666.6667,97364.38598,37.74,8.239999771,-218.9891815,8.712166786,171,-1.647507906,15.06992435,-4.719394684,0
42:32.0,0,-0.332666667,0.002,-0.147333333,-0.00980665,0.55897905,9.731465683,387000,-93666.66667,-331333.3333,97363.61084,37.74,8.369999886,-222.0088959,8.423638344,173,-1.647507906,15.06992435,-4.719394684,0
42:32.1,0,-0.333,0.003,-0.157,0,0.4903325,9.8262633,381000,-90000,-335000,97362.83569,37.74,8.369999886,-222.0088959,8.423638344,173,-1.647507906,15.06992435,-4.719394684,0
42:32.1,0,-0.302666667,-0.001,-0.145333333,-0.013075533,0.428223717,9.898178733,388666.6667,-85333.33333,-328000,97365.58024,37.74,8.369999886,-222.0088959,8.423638344,173,-1.647507906,15.06992435,-4.719394684,0
42:32.2,0,-0.272333333,-0.005,-0.133666667,-0.026151067,0.366114933,9.970094167,396333.3333,-80666.66667,-321000,97368.32479,37.74,8.469999791,-223.6781578,8.751464129,174,-1.819888413,13.57673287,-4.106221915,0
42:32.2,0,-0.242,-0.009,-0.122,-0.0392266,0.30400615,10.0420096,404000,-76000,-314000,97371.06934,37.74,8.569999695,-225.3474198,9.079289913,175,-1.99226892,12.08354139,-3.493049145,0
42:32.2,0,-0.271,-0.0225,-0.094,-0.02941995,0.377556025,10.07633288,399500,-69000,-319000,97370.34913,37.74,8.63999939,-228.6859436,8.883942604,176,-2.337029934,9.097158432,-2.266703606,0
42:32.3,0,-0.3,-0.036,-0.066,-0.0196133,0.4511059,10.11065615,395000,-62000,-324000,97369.62891,37.74,8.686666171,-228.6859436,8.751474063,176.6666667,-2.337029934,9.097158432,-2.266703606,0
42:32.3,0,-0.309,-0.043,-0.0585,-0.024516625,0.40207265,10.17439938,392000,-54000,-323000,97372.30835,37.74,8.733332952,-228.6859436,8.619005521,177.3333333,-2.337029934,9.097158432,-2.266703606,0
42:32.4,0,-0.318,-0.05,-0.051,-0.02941995,0.3530394,10.2381426,389000,-46000,-322000,97374.98779,37.74,8.779999733,-228.6859436,8.48653698,178,-2.337029934,9.097158432,-2.266703606,0
42:32.4,0,-0.312,-0.0605,-0.04,0.00980665,0.34323275,10.5323421,393000,-41500,-321500,97374.14856,37.74,8.779999733,-228.6859436,8.48653698,178,-2.337029934,9.097158432,-2.266703606,0
42:32.4,0,-0.306,-0.071,-0.029,0.04903325,0.3334261,10.8265416,397000,-37000,-321000,97373.30933,37.74,8.909999847,-228.3010559,10.78437519,179,-2.337029934,9.097158432,-2.266703606,0
42:32.5,0,-0.342,-0.072,-0.013,0.0588399,0.366114933,10.94749028,395333.3333,-32333.33333,-323333.3333,97374.75179,37.74,8.909999847,-228.3010559,10.78437519,179,-2.337029934,9.097158432,-2.266703606,0
42:32.5,0,-0.378,-0.073,0.003,0.06864655,0.398803767,11.06843897,393666.6667,-27666.66667,-325666.6667,97376.19426,37.74,8.980000019,-227.8010407,10.46503735,180,-2.337029934,9.097158432,-2.266703606,0
42:32.6,0,-0.414,-0.074,0.019,0.0784532,0.4314926,11.18938765,392000,-23000,-328000,97377.63672,37.74,9.050000191,-227.3010254,10.1456995,181,-2.337029934,9.097158432,-2.266703606,0
42:32.6,0,-0.447,-0.073,0.022333333,0.101335383,0.438030367,11.179581,395333.3333,-21333.33333,-323000,97376.93482,37.73666667,9.110000134,-227.319336,10.19118452,182,-1.832266808,5.429224968,-1.764468968,0
42:32.6,0,-0.48,-0.072,0.025666667,0.124217567,0.444568133,11.16977435,398666.6667,-19666.66667,-318000,97376.23291,37.73333333,9.170000076,-227.3376465,10.23666954,183,-1.327503681,1.761291504,-1.26223433,0
42:32.7,0,-0.513,-0.071,0.029,0.14709975,0.4511059,11.1599677,402000,-18000,-313000,97375.53101,37.73,9.170000076,-227.3376465,10.23666954,183,-1.327503681,1.761291504,-1.26223433,0
42:32.7,0,-0.506,-0.069666667,0.030333333,0.124217567,0.3726527,11.14362328,394333.3333,-14000,-316333.3333,97377.60824,37.73,9.170000076,-227.3376465,10.23666954,183,-1.327503681,1.761291504,-1.26223433,0
42:32.8,0,-0.499,-0.068333333,0.031666667,0.101335383,0.2941995,11.12727887,386666.6667,-10000,-319666.6667,97379.68547,37.73,9.224999905,-227.3376465,9.894048691,183.5,-1.327503681,1.761291504,-1.26223433,0
42:32.8,0,-0.492,-0.067,0.033,0.0784532,0.2157463,11.11093445,379000,-6000,-323000,97381.7627,37.73,9.279999733,-227.3376465,9.551427841,184,-1.327503681,1.761291504,-1.26223433,0
42:32.8,0,-0.466,-0.073,0.0585,0.1176798,0.22555295,11.09132115,378000,9000,-321000,97383.24891,37.73,9.380000114,-232.1107788,11.77115822,186,-1.327503681,1.761291504,-1.26223433,0
42:32.9,0,-0.44,-0.079,0.084,0.1569064,0.2353596,11.07170785,377000,24000,-319000,97384.73511,37.73,9.380000114,-232.1107788,11.77115822,186,-1.327503681,1.761291504,-1.26223433,0
42:32.9,0,-0.4835,-0.087,0.106,0.12748645,0.279489525,11.18448433,381500,31500,-307500,97382.05872,37.73,9.380000114,-232.1107788,11.77115822,186,-1.327503681,1.761291504,-1.26223433,0
42:33.0,0,-0.527,-0.095,0.128,0.0980665,0.32361945,11.2972608,386000,39000,-296000,97379.38232,37.73,9.469999313,-232.1107788,10.86451626,188,-1.327503681,1.761291504,-1.26223433,0
42:33.0,0,-0.523666667,-0.096,0.132,0.094797617,0.2745862,11.27437862,380333.3333,47000,-300333.3333,97380.85123,37.73,9.469999313,-232.1107788,10.86451626,188,0.08256685,-9.2311306,-2.899013281,0
42:33.0,0,-0.520333333,-0.097,0.136,0.091528733,0.22555295,11.25149643,374666.6667,55000,-304666.6667,97382.32015,37.73,9.51499939,-235.7954941,10.42640782,188.5,0.08256685,-9.2311306,-2.899013281,0
42:33.1,0,-0.517,-0.098,0.14,0.08825985,0.1765197,11.22861425,369000,63000,-309000,97383.78906,37.73,9.559999466,-239.4802094,9.98829937,189,0.08256685,-9.2311306,-2.899013281,0
42:33.1,0,-0.488,-0.101,0.1555,0.1176798,0.230456275,11.18938765,371000,74500,-303000,97383.74939,37.73,9.59499979,-239.4802094,10.60469008,190,0.08256685,-9.2311306,-2.899013281,0
42:33.2,0,-0.459,-0.104,0.171,0.14709975,0.28439285,11.15016105,373000,86000,-297000,97383.70972,37.73,9.630000114,-239.4802094,11.22108078,191,0.08256685,-9.2311306,-2.899013281,0
42:33.2,0,-0.4875,-0.109,0.1795,0.1765197,0.240262925,11.31197078,377500,91500,-288000,97383.64563,37.725,9.630000114,-239.4802094,11.22108078,191,0.08256685,-9.2311306,-2.899013281,0
42:33.2,0,-0.516,-0.114,0.188,0.20593965,0.196133,11.4737805,382000,97000,-279000,97383.58154,37.72,9.699999809,-233.430481,10.24564934,193,0.836137116,-15.90780735,-5.317417145,0
42:33.3,0,-0.51525,-0.1155,0.1935,0.2157463,0.213294638,11.36100403,380250,101000,-280750,97383.67004,37.72,9.699999809,-233.430481,10.24564934,193,0.836137116,-15.90780735,-5.317417145,0
42:33.3,0,-0.5145,-0.117,0.199,0.22555295,0.230456275,11.24822755,378500,105000,-282500,97383.75855,37.72,9.699999809,-233.430481,10.24564934,193,0.836137116,-15.90780735,-5.317417145,0
42:33.4,0,-0.51375,-0.1185,0.2045,0.2353596,0.247617912,11.13545108,376750,109000,-284250,97383.84705,37.72,9.760000229,-233.430481,10.6624012,194,0.836137116,-15.90780735,-5.317417145,0
42:33.4,0,-0.513,-0.12,0.21,0.24516625,0.26477955,11.0226746,375000,113000,-286000,97383.93555,37.72,9.760000229,-233.430481,10.6624012,194,0.836137116,-15.90780735,-5.317417145,0
42:33.4,0,-0.493,-0.119,0.2125,0.26477955,0.2353596,11.02757793,381500,122500,-271000,97384.72901,37.72,9.819999695,-229.8786163,9.645205498,196,0.836137116,-15.90780735,-5.317417145,0
42:33.5,0,-0.473,-0.118,0.215,0.28439285,0.20593965,11.03248125,388000,132000,-256000,97385.52246,37.72,9.819999695,-229.8786163,9.645205498,196,0.836137116,-15.90780735,-5.317417145,0
42:33.5,0,-0.471,-0.123,0.219,0.317081683,0.26477955,11.15669882,386666.6667,137000,-257666.6667,97385.45939,37.72,9.819999695,-229.8786163,9.645205498,196,0.836137116,-15.90780735,-5.317417145,0
42:33.6,0,-0.469,-0.128,0.223,0.349770517,0.32361945,11.28091638,385333.3333,142000,-259333.3333,97385.39632,37.72,9.880000114,-229.8786163,11.50013638,198,1.292463183,-24.55057144,-9.34366703,0
42:33.6,0,-0.467,-0.133,0.227,0.38245935,0.38245935,11.40513395,384000,147000,-261000,97385.33325,37.72,9.880000114,-229.8786163,11.50013638,198,1.292463183,-24.55057144,-9.34366703,0
42:33.6,0,-0.4455,-0.1275,0.23,0.367749375,0.328522775,11.3168741,389500,152500,-248500,97386.07178,37.72,9.909999847,-237.9826584,10.93102313,199,1.292463183,-24.55057144,-9.34366703,0
42:33.7,0,-0.424,-0.122,0.233,0.3530394,0.2745862,11.22861425,395000,158000,-236000,97386.8103,37.72,9.93999958,-246.0867004,10.36190987,200,1.292463183,-24.55057144,-9.34366703,0
42:33.7,0,-0.37,-0.122,0.237,0.392266,0.240262925,11.05699788,402500,164000,-226500,97387.76856,37.72,9.93999958,-246.0867004,10.36190987,200,1.292463183,-24.55057144,-9.34366703,0
42:33.8,0,-0.316,-0.122,0.241,0.4314926,0.20593965,10.8853815,410000,170000,-217000,97388.72681,37.72,10,-246.0867004,9.255706787,202,1.292463183,-24.55057144,-9.34366703,0
42:33.8,0,-0.280666667,-0.127666667,0.246666667,0.424954833,0.18632635,10.94749028,404666.6667,170666.6667,-222000,97389.16016,37.72,10,-246.0867004,9.255706787,202,1.292463183,-24.55057144,-9.34366703,0
42:33.8,0,-0.245333333,-0.133333333,0.252333333,0.418417067,0.16671305,11.00959907,399333.3333,171333.3333,-227000,97389.59351,37.72,10.03499985,-243.9382629,10.19164228,202.5,1.292463183,-24.55057144,-9.34366703,0
42:33.9,0,-0.21,-0.139,0.258,0.4118793,0.14709975,11.07170785,394000,172000,-232000,97390.02686,37.72,10.06999969,-241.7898254,11.12757778,203,1.292463183,-24.55057144,-9.34366703,0
42:33.9,0,-0.194,-0.153333333,0.266333333,0.46091255,0.153637517,11.19265653,399000,170666.6667,-226333.3333,97391.63615,37.71666667,10.06999969,-241.7898254,11.12757778,203,1.292463183,-24.55057144,-9.34366703,0
42:34.0,0,-0.178,-0.167666667,0.274666667,0.5099458,0.160175283,11.31360522,404000,169333.3333,-220666.6667,97393.24545,37.71333333,10.14999962,-242.7898407,9.922431946,205,1.292463183,-24.55057144,-9.34366703,0
42:34.0,0,-0.162,-0.182,0.283,0.55897905,0.16671305,11.4345539,409000,168000,-215000,97394.85474,37.71,10.14999962,-242.7898407,9.922431946,205,1.292463183,-24.55057144,-9.34366703,0
42:34.0,0,-0.08,-0.1945,0.2875,0.63743225,0.044129925,11.83662655,414500,167500,-203500,97392.4347,37.715,10.14999962,-242.7898407,9.922431946,205,1.292463183,-24.55057144,-9.34366703,0
42:34.1,0,0.002,-0.207,0.292,0.71588545,-0.0784532,12.2386992,420000,167000,-192000,97390.01465,37.72,10.23999977,-255.8546143,10.28275204,207,0.893683612,-33.05838394,-17.28839302,0
42:34.1,0,-0.000666667,-0.213,0.309,0.7256921,-0.0588399,12.65384738,429666.6667,164000,-195000,97390.58635,37.71666667,10.28499985,-255.354599,9.691949846,208,0.893683612,-33.05838394,-17.28839302,0
42:34.2,0,-0.003333333,-0.219,0.326,0.73549875,-0.0392266,13.06899557,439333.3333,161000,-198000,97391.15804,37.71333333,10.32999992,-254.8545837,9.101147652,209,0.893683612,-33.05838394,-17.28839302,0
42:34.2,0,-0.006,-0.225,0.343,0.7453054,-0.0196133,13.48414375,449000,158000,-201000,97391.72974,37.71,10.32999992,-254.8545837,9.101147652,209,0.893683612,-33.05838394,-17.28839302,0
42:34.2,0,-0.076,-0.2355,0.366,0.799241975,-0.04903325,14.04802613,447000,158500,-193000,97392.9657,37.71,10.32999992,-254.8545837,9.101147652,209,0.893683612,-33.05838394,-17.28839302,0
42:34.3,0,-0.146,-0.246,0.389,0.85317855,-0.0784532,14.6119085,445000,159000,-185000,97394.20166,37.71,10.42000008,-276.7004089,7.948050499,211,0.893683612,-33.05838394,-17.28839302,0
42:34.3,0,-0.194,-0.2525,0.403,0.8041453,-0.06864655,14.35203228,440000,148000,-193500,97395.51697,37.71,10.42000008,-276.7004089,7.948050499,211,0.893683612,-33.05838394,-17.28839302,0
42:34.4,0,-0.242,-0.259,0.417,0.75511205,-0.0588399,14.09215605,435000,137000,-202000,97396.83228,37.71,10.48999977,-276.7004089,9.817230225,213,0.697549582,-33.74274826,-24.901474,0
42:34.4,0,-0.276666667,-0.262666667,0.424333333,0.75511205,0,13.99735843,443000,141333.3333,-201333.3333,97401.57674,37.71,10.55000019,-301.3492432,8.597026825,215,0.697549582,-33.74274826,-24.901474,0
42:34.4,0,-0.311333333,-0.266333333,0.431666667,0.75511205,0.0588399,13.90256082,451000,145666.6667,-200666.6667,97406.32121,37.71,10.55000019,-301.3492432,8.597026825,215,0.697549582,-33.74274826,-24.901474,0
42:34.5,0,-0.346,-0.27,0.439,0.75511205,0.1176798,13.8077632,459000,150000,-200000,97411.06567,37.71,10.55000019,-301.3492432,8.597026825,215,0.697549582,-33.74274826,-24.901474,0
42:34.5,0,-0.3545,-0.2825,0.437,0.6080123,0.12748645,13.3762706,467500,147500,-195000,97406.75964,37.71,10.57000017,-301.3492432,8.785124779,215.5,0.697549582,-33.74274826,-24.901474,0
42:34.6,0,-0.363,-0.295,0.435,0.46091255,0.1372931,12.944778,476000,145000,-190000,97402.45361,37.71,10.59000015,-301.3492432,8.973222733,216,0.697549582,-33.74274826,-24.901474,0
42:34.6,0,-0.34,-0.299333333,0.424666667,0.5099458,0.212477417,12.79114048,472333.3333,145666.6667,-191333.3333,97403.44035,37.71,10.61999989,-328.871521,7.78517437,218,0.697549582,-33.74274826,-24.901474,0
42:34.6,0,-0.317,-0.303666667,0.414333333,0.55897905,0.287661733,12.63750297,468666.6667,146333.3333,-192666.6667,97404.42708,37.71,10.61999989,-328.871521,7.78517437,218,0.279410325,-36.72222138,-29.3440857,0
42:34.7,0,-0.294,-0.308,0.404,0.6080123,0.36284605,12.48386545,465000,147000,-194000,97405.41382,37.71,10.61999989,-328.871521,7.78517437,218,-0.138728932,-39.70169449,-33.78669739,0
42:34.7,0,-0.226,-0.3135,0.385,0.642335575,0.2745862,12.4936721,482000,149000,-170000,97405.61219,37.71,10.61999989,-328.871521,7.78517437,218,-0.138728932,-39.70169449,-33.78669739,0
42:34.8,0,-0.158,-0.319,0.366,0.67665885,0.18632635,12.50347875,499000,151000,-146000,97405.81055,37.71,10.67000008,-328.871521,6.639554977,220,-0.138728932,-39.70169449,-33.78669739,0
42:34.8,0,-0.152333333,-0.330333333,0.353,0.719154333,0.1569064,12.73883835,506333.3333,145666.6667,-143000,97408.80738,37.71,10.67000008,-328.871521,6.639554977,220,-0.138728932,-39.70169449,-33.78669739,0
42:34.8,0,-0.146666667,-0.341666667,0.34,0.761649817,0.12748645,12.97419795,513666.6667,140333.3333,-140000,97411.8042,37.71,10.73999977,-321.7897339,8.618055344,222,-0.138728932,-39.70169449,-33.78669739,0
42:34.9,0,-0.141,-0.353,0.327,0.8041453,0.0980665,13.20955755,521000,135000,-137000,97414.80103,37.71,10.76666641,-321.7897339,8.215502739,222.6666667,-0.138728932,-39.70169449,-33.78669739,0
42:34.9,0,-0.134,-0.3585,0.3305,0.79433865,0.10787315,13.3566573,535000,130000,-121500,97410.76355,37.705,10.79333305,-321.7897339,7.812950135,223.3333333,-0.138728932,-39.70169449,-33.78669739,0
42:35.0,0,-0.127,-0.364,0.334,0.784532,0.1176798,13.50375705,549000,125000,-106000,97406.72607,37.7,10.81999969,-321.7897339,7.41039753,224,-0.138728932,-39.70169449,-33.78669739,0
42:35.0,0,-0.1025,-0.3725,0.3285,0.848275225,0.0784532,14.05292945,553000,129500,-119500,97410.8429,37.7,10.81999969,-321.7897339,7.41039753,224,-0.381812155,-43.07955933,-42.87143707,0
42:35.0,0,-0.078,-0.381,0.323,0.91201845,0.0392266,14.60210185,557000,134000,-133000,97414.95972,37.7,10.90999985,-352.4782104,6.293218136,226,-0.381812155,-43.07955933,-42.87143707,0
42:35.1,0,-0.046,-0.382,0.33575,0.938986738,-0.0588399,14.49668036,550750,128500,-130500,97414.95972,37.7,10.95499993,-352.4782104,6.897973776,227,-0.381812155,-43.07955933,-42.87143707,0
42:35.1,0,-0.014,-0.383,0.3485,0.965955025,-0.1569064,14.39125888,544500,123000,-128000,97414.95972,37.7,11,-352.4782104,7.502729416,228,-0.381812155,-43.07955933,-42.87143707,0
42:35.2,0,0.018,-0.384,0.36125,0.992923313,-0.2549729,14.28583739,538250,117500,-125500,97414.95972,37.7,11,-352.4782104,7.502729416,228,-0.381812155,-43.07955933,-42.87143707,0
42:35.2,0,0.05,-0.385,0.374,1.0198916,-0.3530394,14.1804159,532000,112000,-123000,97414.95972,37.7,11.03333314,-357.5508016,7.676974297,228.3333333,-0.381812155,-43.07955933,-42.87143707,0
42:35.2,0,0.0955,-0.391,0.3955,1.04931155,-0.318716125,14.11176935,566000,109500,-120500,97416.99524,37.7,11.06666629,-362.6233927,7.851219177,228.6666667,-0.381812155,-43.07955933,-42.87143707,0
42:35.3,0,0.141,-0.397,0.417,1.0787315,-0.28439285,14.0431228,600000,107000,-118000,97419.03076,37.7,11.09999943,-367.6959839,8.025464058,229,-0.381812155,-43.07955933,-42.87143707,0
42:35.3,0,0.138,-0.4025,0.43,1.103248125,-0.0980665,14.3961622,591000,104500,-97000,97417.37366,37.7,11.09999943,-367.6959839,8.025464058,229,-0.381812155,-43.07955933,-42.87143707,0
42:35.4,0,0.135,-0.408,0.443,1.12776475,0.08825985,14.7492016,582000,102000,-76000,97415.71655,37.7,11.19999981,-368.6960144,6.863542557,231,-0.115210459,-43.27750778,-53.77292633,0
42:35.4,0,0.07,-0.411,0.454,1.113054775,0.240262925,14.9845612,558500,89500,-104000,97417.78565,37.7,11.19999981,-368.6960144,6.863542557,231,-0.115210459,-43.27750778,-53.77292633,0
42:35.4,0,0.005,-0.414,0.465,1.0983448,0.392266,15.2199208,535000,77000,-132000,97419.85474,37.7,11.28999996,-378.8041992,5.795372009,233,-0.115210459,-43.27750778,-53.77292633,0
42:35.5,0,-0.030666667,-0.415,0.448666667,1.111420333,0.366114933,15.18396308,542333.3333,76333.33333,-138000,97420.51392,37.69666667,11.28999996,-378.8041992,5.795372009,233,-0.115210459,-43.27750778,-53.77292633,0
42:35.5,0,-0.066333333,-0.416,0.432333333,1.124495867,0.339963867,15.14800537,549666.6667,75666.66667,-144000,97421.1731,37.69333333,11.28999996,-378.8041992,5.795372009,233,-0.115210459,-43.27750778,-53.77292633,0
42:35.6,0,-0.102,-0.417,0.416,1.1375714,0.3138128,15.11204765,557000,75000,-150000,97421.83228,37.69,11.38999939,-378.8041992,7.977427006,234,-0.115210459,-43.27750778,-53.77292633,0
42:35.6,0,-0.1115,-0.4225,0.4,1.103248125,0.338329425,15.29347068,566000,80500,-142500,97423.76709,37.69,11.38999939,-378.8041992,7.977427006,234,-0.115210459,-43.27750778,-53.77292633,0
42:35.6,0,-0.121,-0.428,0.384,1.06892485,0.36284605,15.4748937,575000,86000,-135000,97425.7019,37.69,11.46999931,-396.9306946,6.863999844,236,-0.115210459,-43.27750778,-53.77292633,0
42:35.7,0,-0.114666667,-0.435666667,0.372333333,1.121226983,0.34323275,15.38990273,564000,85666.66667,-132333.3333,97425.33366,37.69,11.50999975,-396.9306946,6.337362528,237,-0.115210459,-43.27750778,-53.77292633,0
42:35.7,0,-0.108333333,-0.443333333,0.360666667,1.173529117,0.32361945,15.30491177,553000,85333.33333,-129666.6667,97424.96541,37.69,11.55000019,-396.9306946,5.810725212,238,-0.115210459,-43.27750778,-53.77292633,0
42:35.8,0,-0.102,-0.451,0.349,1.22583125,0.30400615,15.2199208,542000,85000,-127000,97424.59717,37.69,11.55000019,-396.9306946,5.810725212,238,-0.138849847,-43.81566811,-61.286129,0
42:35.8,0,-0.081666667,-0.450333333,0.344333333,1.251982317,0.300737267,15.70698442,542333.3333,79333.33333,-109000,97421.63086,37.69,11.55000019,-396.9306946,5.810725212,238,-0.162489235,-44.35382843,-68.79933167,0
42:35.8,0,-0.061333333,-0.449666667,0.339666667,1.278133383,0.297468383,16.19404803,542666.6667,73666.66667,-91000,97418.66455,37.69,11.63000011,-414.7117615,5.621086597,239,-0.162489235,-44.35382843,-68.79933167,0
42:35.9,0,-0.041,-0.449,0.335,1.30428445,0.2941995,16.68111165,543000,68000,-73000,97415.69824,37.69,11.63000011,-414.7117615,5.621086597,239,-0.162489235,-44.35382843,-68.79933167,0
42:35.9,0,-0.071,-0.4665,0.336,1.348414375,0.289296175,17.05866768,548000,66500,-73500,97421.92688,37.69,11.63000011,-414.7117615,5.621086597,239,-0.162489235,-44.35382843,-68.79933167,0
42:36.0,0,-0.101,-0.484,0.337,1.3925443,0.28439285,17.4362237,553000,65000,-74000,97428.15552,37.69,11.69999981,-414.7117615,4.711868763,240,-0.162489235,-44.35382843,-68.79933167,0
42:36.0,0,-0.083,-0.4635,0.328,1.269961175,0.230456275,15.97503285,583000,61000,-71500,97429.19312,37.69,11.69999981,-414.7117615,4.711868763,240,-0.162489235,-44.35382843,-68.79933167,0
42:36.0,0,-0.065,-0.443,0.319,1.14737805,0.1765197,14.513842,613000,57000,-69000,97430.23071,37.69,11.75999928,-429.0464478,6.947548866,242,0.983869672,-45.91539001,-77.79692841,0
42:36.1,0,-0.018666667,-0.455666667,0.302666667,1.199680183,0.169981933,15.05647663,611000,53000,-73333.33333,97429.80143,37.68666667,11.75999928,-429.0464478,6.947548866,242,0.983869672,-45.91539001,-77.79692841,0
42:36.1,0,0.027666667,-0.468333333,0.286333333,1.251982317,0.163444167,15.59911127,609000,49000,-77666.66667,97429.37215,37.68333333,11.75999928,-429.0464478,6.947548866,242,0.983869672,-45.91539001,-77.79692841,0
42:36.2,0,0.074,-0.481,0.27,1.30428445,0.1569064,16.1417459,607000,45000,-82000,97428.94287,37.68,11.81999969,-429.0464478,6.015627861,243,0.983869672,-45.91539001,-77.79692841,0
42:36.2,0,0.126,-0.477,0.282,1.3140911,0.034323275,15.82302978,579000,41500,-91000,97426.84632,37.68,11.83999968,-434.2189789,6.363125324,243.5,0.983869672,-45.91539001,-77.79692841,0
42:36.2,0,0.178,-0.473,0.294,1.32389775,-0.08825985,15.50431365,551000,38000,-100000,97424.74976,37.68,11.85999966,-439.39151,6.710622787,244,0.983869672,-45.91539001,-77.79692841,0
