time,field.angular_velocity.x,field.angular_velocity.y,field.angular_velocity.z,field.linear_acceleration.x,field.linear_acceleration.y,field.linear_acceleration.z,field.magnetic_field.x,field.magnetic_field.y,field.magnetic_field.z,field.fluid_pressure,field.temperature,field.airspeed,field.measured.pitch,field.measured.roll,field.measured.yaw,field.alt_error,field.aspd_error,field.xtrack_error,field.wp_dist
2018-09-11 18:48:37.720,-0.051,-0.013,0.02,0.0980665,0.3726527,10.4538889,-491000.0,15000.0,-574000.0,97442.16919,48.5,0.0,-2.645366907,-0.891720176,-81.83808136,-22.02000046,-1524.739502,-43.45291519,127.0
2018-09-11 18:48:37.760,-0.0626666666666666,-0.015,0.02,0.0621087833333333,0.4249548333333333,10.408124533333334,-496333.3333333333,14000.0,-573666.6666666666,97442.47843333334,48.5,0.0,-2.645366907,-1.4336862565,-81.83808136,-21.965000155,-1524.739502,-43.45291519,63.5
2018-09-11 18:48:37.800,-0.0743333333333333,-0.017,0.02,0.0261510666666666,0.4772569666666666,10.362360166666669,-501666.6666666667,13000.0,-573333.3333333334,97442.78767666666,48.5,0.0,-2.645366907,-1.975652337,-81.83808136,-21.90999985,-1524.739502,-43.45291519,0.0
2018-09-11 18:48:37.840,-0.086,-0.019,0.02,-0.00980665,0.5295591,10.3165958,-507000.0,12000.0,-573000.0,97443.09692,48.5,0.0,-2.5390633345,-1.975652337,-82.16555023000001,-10.914999925999998,-1529.078308,-43.301605225,0.5
2018-09-11 18:48:37.880,-0.3805,-0.0419999999999999,0.037,-0.034323275,0.4511058999999999,10.341112425,-507000.0,12000.0,-573000.0,97443.09692,48.495000000000005,0.0,-2.432759762,-1.975652337,-82.4930191,0.079999998,-1533.417114,-43.15029526,1.0
2018-09-11 18:48:37.920,-0.675,-0.065,0.054,-0.0588399,0.3726527,10.36562905,-507000.0,12000.0,-573000.0,97443.09692,48.49,0.0,-2.432759762,-1.975652337,-82.4930191,0.079999998,-1533.417114,-43.15029526,1.0
2018-09-11 18:48:37.960,-0.3395,-0.075,0.036,-0.044129925,0.38245935,10.69905515,-454500.0,3000.0,-564500.0,97444.84863,48.49,0.0,-2.432759762,-1.975652337,-82.4930191,0.134999998,-783.4171217600001,-42.33183098,1.5
2018-09-11 18:48:38.000,-0.004,-0.085,0.018,-0.02941995,0.392266,11.03248125,-402000.0,-6000.0,-556000.0,97446.60034,48.49,0.0,-2.432759762,-1.975652337,-82.4930191,0.189999998,-33.41712952,-41.5133667,2.0
2018-09-11 18:48:38.040,0.163,-0.0793333333333333,0.0129999999999999,0.1046042666666666,0.3268883333333333,11.09132115,-346000.0,18000.0,-568000.0,97446.75089333332,48.49,0.0,-2.432759762,-1.975652337,-82.4930191,0.280000001,-41.54434204,-39.93632126,4.0
2018-09-11 18:48:38.080,0.33,-0.0736666666666666,0.0079999999999999,0.2386284833333333,0.2615106666666666,11.15016105,-290000.0,42000.0,-580000.0,97446.90144666668,48.49,0.0,-2.432759762,-1.975652337,-82.4930191,0.280000001,-41.54434204,-39.93632126,4.0
2018-09-11 18:48:38.120,0.497,-0.068,0.003,0.3726527,0.196133,11.20900095,-234000.0,66000.0,-592000.0,97447.052,48.49,0.0,-2.432759762,-1.975652337,-82.4930191,0.280000001,-41.54434204,-39.93632126,4.0
2018-09-11 18:48:38.160,0.545,-0.069,0.0126666666666666,0.44129925,0.2582417833333333,11.20900095,-318666.6666666667,84333.33333333333,-605333.3333333334,97447.39379666669,48.486666666666665,0.0,-2.432759762,-1.1688081025,-82.4930191,0.319999993,-41.54434204,-39.136026385,5.0
2018-09-11 18:48:38.200,0.593,-0.0699999999999999,0.0223333333333333,0.5099458,0.3203505666666666,11.20900095,-403333.3333333334,102666.66666666666,-618666.6666666666,97447.73559333332,48.48333333333333,0.0,-2.432759762,-0.361963868,-82.4930191,0.359999985,-41.54434204,-38.33573151,6.0
2018-09-11 18:48:38.240,0.641,-0.071,0.032,0.57859235,0.38245935,11.20900095,-488000.0,121000.0,-632000.0,97448.07739,48.48,0.0,-1.9833658933333331,0.1759322883333333,-82.72557830666666,0.3833333156666667,-41.56824747666666,-37.78531265666667,6.333333333333333
2018-09-11 18:48:38.280,0.6445000000000001,-0.0715,0.0405,0.524655775,0.250069575,11.272744175,-591500.0,72000.0,-613500.0,97448.83728,48.475,0.0,-1.5339720246666668,0.7138284446666666,-82.95813751333334,0.4066666463333333,-41.59215291333334,-37.234893803333335,6.666666666666667
2018-09-11 18:48:38.320,0.648,-0.072,0.049,0.4707192,0.1176798,11.3364874,-695000.0,23000.0,-595000.0,97449.59717,48.47,0.0,-1.084578156,1.251724601,-83.19069672,0.429999977,-41.61605835,-36.68447495,7.0
2018-09-11 18:48:38.360,0.6445000000000001,-0.073,0.054,0.44129925,0.181423025,11.40513395,-695000.0,23000.0,-595000.0,97449.59717,48.47,0.0,-1.084578156,1.251724601,-83.19069672,0.48999998,-41.61605835,-35.03394318,9.0
2018-09-11 18:48:38.400,0.641,-0.074,0.059,0.4118793,0.24516625,11.4737805,-695000.0,23000.0,-595000.0,97449.59717,48.47,0.0,-1.084578156,1.251724601,-83.19069672,0.48999998,-41.61605835,-35.03394318,9.0
2018-09-11 18:48:38.440,0.6126666666666667,-0.073,0.0603333333333333,0.4249548333333333,0.4249548333333333,11.313605216666668,-678000.0,17666.666666666668,-591000.0,97450.93384,48.46666666666667,0.0,-1.084578156,1.251724601,-83.19069672,0.514999971,-48.3230114,-34.203660965,10.0
2018-09-11 18:48:38.480,0.5843333333333334,-0.072,0.0616666666666666,0.4380303666666666,0.6047434166666666,11.153429933333332,-661000.0,12333.333333333334,-587000.0,97452.27051,48.46333333333333,0.0,-1.084578156,1.251724601,-83.19069672,0.539999962,-55.02996445,-33.37337875,11.0
2018-09-11 18:48:38.520,0.556,-0.071,0.063,0.4511059,0.784532,10.99325465,-644000.0,7000.0,-583000.0,97453.60718,48.46,0.0,-1.084578156,1.251724601,-83.19069672,0.539999962,-55.02996445,-33.37337875,11.0
2018-09-11 18:48:38.560,0.5365,-0.0695,0.043,0.4707192,0.8482752250000001,10.821638275000002,-653500.0,-8500.0,-576500.0,97454.449465,48.46,0.0,-1.084578156,1.251724601,-83.19069672,0.579999983,-55.02996445,-31.71281815,12.0
2018-09-11 18:48:38.600,0.517,-0.068,0.023,0.4903325,0.91201845,10.6500219,-663000.0,-24000.0,-570000.0,97455.29175,48.46,0.0,-1.084578156,15.02444363,-83.19069672,0.579999983,-55.02996445,-31.71281815,12.0
2018-09-11 18:48:38.640,0.4976666666666667,-0.0673333333333333,0.0086666666666666,0.4936013833333333,0.8499096666666667,10.842886016666666,-670000.0,-30666.666666666668,-564333.3333333334,97455.49316666668,48.45666666666667,0.0,0.524385095,15.02444363,-84.12354279,0.610000014,-14.30101395,-30.05070496,14.0
2018-09-11 18:48:38.680,0.4783333333333333,-0.0666666666666666,-0.0056666666666666,0.4968702666666666,0.7878008833333333,11.035750133333334,-677000.0,-37333.333333333336,-558666.6666666666,97455.69458333332,48.45333333333333,0.0,0.524385095,15.02444363,-84.12354279,0.610000014,-14.30101395,-30.05070496,14.0
2018-09-11 18:48:38.720,0.459,-0.066,-0.02,0.50013915,0.7256921,11.22861425,-684000.0,-44000.0,-553000.0,97455.896,48.45,0.0,0.524385095,15.02444363,-84.12354279,0.610000014,-14.30101395,-30.05070496,14.0
2018-09-11 18:48:38.760,0.4516666666666666,-0.0603333333333333,-0.037,0.46091255,0.8041453,11.055363433333332,-682666.6666666666,-56000.0,-544666.6666666666,97456.53686666666,48.45,0.0,0.524385095,15.02444363,-84.12354279,0.6200000045,-14.30101395,-29.227266315,15.0
2018-09-11 18:48:38.800,0.4443333333333333,-0.0546666666666666,-0.0539999999999999,0.42168595,0.8825985,10.882112616666666,-681333.3333333334,-68000.0,-536333.3333333334,97457.17773333332,48.45,0.0,0.524385095,15.02444363,-84.12354279,0.629999995,-14.30101395,-28.40382767,16.0
2018-09-11 18:48:38.840,0.437,-0.049,-0.071,0.38245935,0.9610517,10.7088618,-680000.0,-80000.0,-528000.0,97457.8186,48.45,0.0,0.524385095,15.02444363,-84.12354279,0.649999976,-15.99340439,-26.73748589,17.0
2018-09-11 18:48:38.880,0.4185,-0.048,-0.094,0.40207265,0.907115125,10.58137535,-680000.0,-80000.0,-528000.0,97457.8186,48.445,0.0,0.524385095,15.02444363,-84.12354279,0.649999976,-15.99340439,-26.73748589,17.0
2018-09-11 18:48:38.920,0.4,-0.047,-0.117,0.42168595,0.85317855,10.4538889,-680000.0,-80000.0,-528000.0,97457.8186,48.44,0.0,0.524385095,15.02444363,-84.12354279,0.649999976,-15.99340439,-26.73748589,17.0
2018-09-11 18:48:38.960,0.40075,-0.04775,-0.133,0.4437509125,0.828661925,10.4612438875,-688500.0,-86750.0,-522750.0,97457.5103725,48.44,0.0,0.524385095,15.02444363,-84.12354279,0.659999967,-15.99340439,-25.06071091,19.0
2018-09-11 18:48:39.000,0.4015,-0.0485,-0.149,0.465815875,0.8041453000000001,10.468598875,-697000.0,-93500.0,-517500.0,97457.202145,48.44,0.0,0.524385095,25.67069626,-84.12354279,0.659999967,-15.99340439,-25.06071091,19.0
2018-09-11 18:48:39.040,0.40225,-0.04925,-0.1649999999999999,0.4878808375,0.779628675,10.4759538625,-705500.0,-100250.0,-512250.0,97456.8939175,48.44,0.0,0.59089158,25.67069626,-83.27896881333334,0.663333297,-16.910266876666668,-24.50322278666667,19.666666666666668
2018-09-11 18:48:39.080,0.403,-0.05,-0.181,0.5099458,0.75511205,10.48330885,-714000.0,-107000.0,-507000.0,97456.58569,48.44,0.0,0.657398065,25.67069626,-82.43439483666667,0.666666627,-17.827129363333334,-23.945734663333333,20.33333333333333
2018-09-11 18:48:39.120,0.401,-0.06,-0.192,0.5099458,0.99047165,10.03220295,-714000.0,-107000.0,-507000.0,97456.58569,48.43,0.0,0.72390455,25.67069626,-81.58982086,0.669999957,-18.74399185,-23.38824654,21.0
2018-09-11 18:48:39.160,0.3846666666666666,-0.066,-0.2033333333333333,0.5230213333333333,0.9872027666666668,10.084505083333331,-701666.6666666666,-109333.33333333331,-501666.6666666667,97456.18896333332,48.43,0.0,0.72390455,25.67069626,-81.58982086,0.6799999775000001,-18.74399185,-22.559108735,21.5
2018-09-11 18:48:39.200,0.3683333333333333,-0.072,-0.2146666666666666,0.5360968666666667,0.9839338833333332,10.136807216666668,-689333.3333333334,-111666.66666666669,-496333.3333333333,97455.79223666668,48.43,0.0,0.72390455,25.67069626,-81.58982086,0.689999998,-18.74399185,-21.72997093,22.0
2018-09-11 18:48:39.240,0.352,-0.078,-0.226,0.5491724,0.980665,10.18910935,-677000.0,-114000.0,-491000.0,97455.39551,48.43,0.0,0.72390455,25.67069626,-81.58982086,0.7049999835,-21.0105896,-20.906147955,23.0
2018-09-11 18:48:39.280,0.3405,-0.0875,-0.2415,0.593302325,0.965955025,10.198916,-724500.0,-114500.0,-487500.0,97455.859375,48.425,0.0,0.72390455,25.67069626,-81.58982086,0.719999969,-23.27718735,-20.08232498,24.0
2018-09-11 18:48:39.320,0.329,-0.097,-0.257,0.63743225,0.95124505,10.20872265,-772000.0,-115000.0,-484000.0,97456.32324,48.42,0.0,0.72390455,25.67069626,-81.58982086,0.75,-23.27718735,-18.4131031,26.0
2018-09-11 18:48:39.360,0.34025,-0.10875,-0.26,0.6398839125,0.9046634625,10.2013676625,-767500.0,-119250.0,-479500.0,97458.232115,48.42,0.0,0.72390455,25.67069626,-81.58982086,0.75,-23.27718735,-18.4131031,26.0
2018-09-11 18:48:39.400,0.3515,-0.1205,-0.263,0.6423355749999999,0.858081875,10.194012675,-763000.0,-123500.0,-475000.0,97460.14099,48.42,0.0,0.72390455,25.67069626,-81.58982086,0.75,-23.27718735,-18.4131031,26.0
2018-09-11 18:48:39.440,0.36275,-0.1322499999999999,-0.266,0.6447872375,0.8115002874999999,10.1866576875,-758500.0,-127750.0,-470500.0,97462.049865,48.42,0.0,0.499869246,30.206451415,-79.9992160775,0.769999981,-19.83046532,-17.57394409,26.5
2018-09-11 18:48:39.480,0.374,-0.144,-0.269,0.6472389,0.7649187,10.1793027,-754000.0,-132000.0,-466000.0,97463.95874,48.42,0.0,0.275833942,34.74220657,-78.408611295,0.789999962,-16.38374329,-16.73478508,27.0
2018-09-11 18:48:39.520,0.362,-0.1689999999999999,-0.2675,0.6668521999999999,0.7649187,10.272465875,-772000.0,-128000.0,-463000.0,97460.90698,48.415,0.0,0.1264770726666666,34.74220657,-77.34820810666666,0.8066666326666667,-16.38374329,-16.184436796666667,27.666666666666668
2018-09-11 18:48:39.560,0.35,-0.194,-0.266,0.6864655,0.7649187,10.36562905,-790000.0,-124000.0,-460000.0,97457.85522,48.41,0.0,-0.0228797966666666,34.74220657,-76.28780491833334,0.8233333033333333,-16.38374329,-15.634088513333332,28.33333333333333
2018-09-11 18:48:39.600,0.3245,-0.2045,-0.268,0.652142225,0.769822025,10.556858725,-777500.0,-132500.0,-451500.0,97457.07092,48.41,0.0,-0.172236666,34.74220657,-75.22740173,0.839999974,-16.38374329,-15.08374023,29.0
2018-09-11 18:48:39.640,0.299,-0.215,-0.27,0.61781895,0.77472535,10.7480884,-765000.0,-141000.0,-443000.0,97456.28662,48.41,0.0,-0.172236666,34.74220657,-75.22740173,0.8749999705,-20.897579195,-14.260897635,30.0
2018-09-11 18:48:39.680,0.291,-0.2215,-0.2665,0.691368825,0.8335652499999999,10.9442214,-765000.0,-141000.0,-443000.0,97456.28662,48.405,0.0,-0.172236666,34.74220657,-75.22740173,0.909999967,-25.4114151,-13.43805504,31.0
2018-09-11 18:48:39.720,0.283,-0.228,-0.263,0.7649187,0.89240515,11.1403544,-765000.0,-141000.0,-443000.0,97456.28662,48.4,0.0,-0.172236666,34.74220657,-75.22740173,0.9499999585,-25.4114151,-12.605368615,31.5
2018-09-11 18:48:39.760,0.252,-0.2406666666666666,-0.265,0.8335652499999999,0.8760607333333333,11.44436055,-846333.3333333334,-134000.0,-445333.3333333333,97458.13598666666,48.4,0.0,-0.172236666,34.74220657,-75.22740173,0.98999995,-25.4114151,-11.77268219,32.0
2018-09-11 18:48:39.800,0.221,-0.2533333333333333,-0.267,0.9022118,0.8597163166666666,11.7483667,-927666.6666666666,-127000.0,-447666.6666666667,97459.98535333334,48.4,0.0,-0.172236666,34.74220657,-75.22740173,0.98999995,-25.4114151,-11.77268219,32.0
2018-09-11 18:48:39.840,0.19,-0.266,-0.269,0.97085835,0.8433719,12.05237285,-1009000.0,-120000.0,-450000.0,97461.83472,48.4,0.0,-0.172236666,38.017995835,-75.22740173,1.034999937,-29.996061325,-10.94864273,33.0
2018-09-11 18:48:39.880,0.1645,-0.283,-0.271,0.99047165,0.946341725,12.282829125,-1088500.0,-108500.0,-452000.0,97466.79993,48.395,0.0,-0.172236666,41.2937851,-75.22740173,1.079999924,-34.58070755,-10.12460327,34.0
2018-09-11 18:48:39.920,0.139,-0.3,-0.273,1.01008495,1.04931155,12.5132854,-1168000.0,-97000.0,-454000.0,97471.76514,48.39,0.0,0.060641941,41.2937851,-67.48419952,1.079999924,-34.58070755,-10.12460327,34.0
2018-09-11 18:48:39.960,0.1196666666666666,-0.3056666666666666,-0.2746666666666666,1.0395049,1.0950759166666668,12.6309652,-1114333.3333333333,-91000.0,-455333.3333333333,97469.77335666669,48.39,0.0,0.060641941,41.2937851,-67.48419952,1.169999957,-34.58070755,-8.485111237,35.0
2018-09-11 18:48:40.000,0.1003333333333333,-0.3113333333333333,-0.2763333333333334,1.06892485,1.140840283333333,12.748645,-1060666.6666666667,-85000.0,-456666.6666666667,97467.78157333333,48.39,0.0,0.060641941,41.2937851,-67.48419952,1.169999957,-34.58070755,-8.485111237,35.0
2018-09-11 18:48:40.040,0.081,-0.317,-0.278,1.0983448,1.18660465,12.8663248,-1007000.0,-79000.0,-458000.0,97465.78979,48.39,0.0,0.060641941,41.2937851,-67.48419952,1.25999999,-58.21466446,-6.866809845,37.0
2018-09-11 18:48:40.080,0.0584999999999999,-0.323,-0.2865,1.20621795,1.1179581,13.253687475,-1007000.0,-79000.0,-458000.0,97465.78979,48.39,0.0,0.060641941,41.2937851,-67.48419952,1.25999999,-58.21466446,-6.866809845,37.0
2018-09-11 18:48:40.120,0.036,-0.329,-0.295,1.3140911,1.04931155,13.64105015,-1007000.0,-79000.0,-458000.0,97465.78979,48.39,0.0,0.060641941,41.2937851,-67.48419952,1.25999999,-58.21466446,-6.866809845,37.0
2018-09-11 18:48:40.160,0.0349999999999999,-0.329,-0.2966666666666666,1.38273765,1.0525804333333333,13.614899083333333,-900666.6666666666,-76333.33333333333,-456666.6666666667,97467.67374333332,48.38666666666667,0.0,0.060641941,42.367847445,-67.48419952,1.305000007,-58.21466446,-6.052629471,38.0
2018-09-11 18:48:40.200,0.034,-0.329,-0.2983333333333333,1.4513842,1.0558493166666667,13.588748016666669,-794333.3333333334,-73666.66666666667,-455333.3333333333,97469.55769666666,48.38333333333333,0.0,0.060641941,43.44190979,-67.48419952,1.350000024,-58.21466446,-5.238449097,39.0
2018-09-11 18:48:40.240,0.033,-0.329,-0.3,1.52003075,1.0591182,13.56259695,-688000.0,-71000.0,-454000.0,97471.44165,48.38,0.0,0.818817079,43.44190979,-59.66652298,1.350000024,-58.21466446,-5.238449097,39.0
2018-09-11 18:48:40.280,0.027,-0.326,-0.3005,1.456287525,1.16699135,13.489047075,-517500.0,-67500.0,-457000.0,97475.41809,48.375,0.0,0.818817079,43.44190979,-59.66652298,1.429999948,-76.98841095,-3.627784729,40.0
2018-09-11 18:48:40.320,0.021,-0.323,-0.301,1.3925443,1.2748645,13.4154972,-347000.0,-64000.0,-460000.0,97479.39453,48.37,0.0,0.818817079,43.44190979,-59.66652298,1.469999969,-76.98841095,-2.840959549,41.0
2018-09-11 18:48:40.360,0.0185,-0.3225,-0.311,1.446480875,1.1571847000000002,13.253687475,-577500.0,-61000.0,-463000.0,97474.96948,48.37,0.0,0.818817079,43.44190979,-59.66652298,1.50999999,-76.98841095,-2.054134369,42.0
2018-09-11 18:48:40.400,0.016,-0.322,-0.321,1.50041745,1.0395049,13.09187775,-808000.0,-58000.0,-466000.0,97470.54443,48.37,0.0,0.818817079,43.912576675,-59.66652298,1.544999957,-87.76144790500001,-1.260313034,42.5
2018-09-11 18:48:40.440,0.017,-0.3243333333333333,-0.3243333333333333,1.5069552166666669,1.0362360166666666,13.15071765,-945000.0,-48000.0,-471333.3333333333,97472.92683666668,48.37,0.0,0.818817079,44.38324356,-59.66652298,1.579999924,-98.53448486,-0.466491699,43.0
2018-09-11 18:48:40.480,0.018,-0.3266666666666666,-0.3276666666666666,1.5134929833333337,1.0329671333333337,13.20955755,-1082000.0,-38000.0,-476666.6666666667,97475.30924333332,48.37,0.0,1.101431966,44.38324356,-52.41029358,1.579999924,-98.53448486,-0.466491699,43.0
2018-09-11 18:48:40.520,0.019,-0.329,-0.331,1.52003075,1.02969825,13.26839745,-1219000.0,-28000.0,-482000.0,97477.69165,48.37,0.0,1.101431966,44.38324356,-52.41029358,1.61499995,-98.53448486,0.3250579834999999,44.0
2018-09-11 18:48:40.560,0.015,-0.3365,-0.331,1.48080415,1.083634825,13.26839745,-794500.0,-35000.0,-479500.0,97475.43335,48.365,0.0,1.101431966,44.38324356,-52.41029358,1.649999976,-98.53448486,1.116607666,45.0
2018-09-11 18:48:40.600,0.011,-0.344,-0.331,1.44157755,1.1375714,13.26839745,-370000.0,-42000.0,-477000.0,97473.17505,48.36,0.0,1.101431966,44.38324356,-52.41029358,1.649999976,-98.53448486,1.116607666,45.0
2018-09-11 18:48:40.640,0.0163333333333333,-0.352,-0.3246666666666666,1.4873419166666668,1.140840283333333,13.520101466666668,-508000.0,-30333.333333333336,-479000.0,97475.05289666668,48.36,0.0,1.101431966,44.38324356,-52.41029358,1.6799999474999998,-110.46032713,1.8978481295,46.0
2018-09-11 18:48:40.680,0.0216666666666666,-0.36,-0.3183333333333333,1.533106283333333,1.1441091666666665,13.771805483333331,-646000.0,-18666.666666666668,-481000.0,97476.93074333332,48.36,0.0,1.101431966,44.38324356,-52.41029358,1.709999919,-122.3861694,2.679088593,47.0
2018-09-11 18:48:40.720,0.027,-0.368,-0.312,1.57887065,1.14737805,14.0235095,-784000.0,-7000.0,-483000.0,97478.80859,48.36,0.0,1.101431966,44.38324356,-52.41029358,1.744999945,-122.3861694,3.454086304,47.5
2018-09-11 18:48:40.760,0.019,-0.3683333333333333,-0.3053333333333333,1.5657951166666666,1.1604535833333334,13.967938483333333,-691333.3333333334,-13000.0,-486666.6666666667,97478.80859,48.35666666666667,0.0,1.101431966,44.38324356,-52.41029358,1.779999971,-122.3861694,4.229084015,48.0
2018-09-11 18:48:40.800,0.011,-0.3686666666666666,-0.2986666666666666,1.5527195833333334,1.1735291166666666,13.912367466666666,-598666.6666666666,-19000.0,-490333.3333333333,97478.80859,48.35333333333333,0.0,1.101431966,44.38324356,-52.41029358,1.779999971,-122.3861694,4.229084015,48.0
2018-09-11 18:48:40.840,0.003,-0.369,-0.292,1.53964405,1.18660465,13.85679645,-506000.0,-25000.0,-494000.0,97478.80859,48.35,0.0,1.101431966,44.38324356,-52.41029358,1.829999924,-147.4021912,5.757026672,50.0
2018-09-11 18:48:40.880,-0.027,-0.371,-0.2895,1.63771055,1.1571847000000002,13.881313075,-717500.0,-4500.0,-503000.0,97478.14636,48.35,0.0,1.101431966,45.50771713,-52.41029358,1.829999924,-147.4021912,5.757026672,50.0
2018-09-11 18:48:40.920,-0.057,-0.373,-0.287,1.73577705,1.12776475,13.9058297,-929000.0,16000.0,-512000.0,97477.48413,48.35,0.0,1.807817936,45.50771713,-40.78887177,1.829999924,-147.4021912,5.757026672,50.0
2018-09-11 18:48:40.960,-0.049,-0.37,-0.2965,1.642613875,1.171894675,13.9450563,-758000.0,23500.0,-507500.0,97476.93176,48.345,0.0,1.807817936,45.50771713,-40.78887177,1.879999995,-147.4021912,7.271213531,51.0
2018-09-11 18:48:41.000,-0.041,-0.367,-0.306,1.5494507,1.2160246,13.9842829,-587000.0,31000.0,-503000.0,97476.37939,48.34,0.0,1.807817936,45.50771713,-40.78887177,1.879999995,-147.4021912,7.271213531,51.0
2018-09-11 18:48:41.040,-0.0513333333333333,-0.3683333333333333,-0.3056666666666666,1.5756017666666666,1.2519823166666666,14.108500466666667,-713000.0,19333.333333333336,-507000.0,97477.30712666668,48.34,0.0,1.807817936,45.50771713,-40.78887177,1.8899999856666667,-152.90056866666666,7.765446980333333,51.66666666666666
2018-09-11 18:48:41.080,-0.0616666666666666,-0.3696666666666666,-0.3053333333333333,1.6017528333333333,1.2879400333333333,14.232718033333333,-839000.0,7666.666666666668,-511000.0,97478.23486333332,48.34,0.0,1.807817936,45.50771713,-40.78887177,1.8999999763333333,-158.39894613333334,8.259680429666666,52.333333333333336
2018-09-11 18:48:41.120,-0.072,-0.371,-0.305,1.6279039,1.32389775,14.3569356,-965000.0,-4000.0,-515000.0,97479.1626,48.34,0.0,1.807817936,45.50771713,-40.78887177,1.909999967,-163.8973236,8.753913879,53.0
2018-09-11 18:48:41.160,-0.0626666666666666,-0.3706666666666666,-0.31,1.6540549666666666,1.2421756666666666,14.3961622,-958333.3333333334,-6333.333333333334,-518666.6666666667,97479.18904666668,48.336666666666666,0.0,1.807817936,45.50771713,-40.78887177,1.939999938,-163.8973236,10.20465851,54.0
2018-09-11 18:48:41.200,-0.0533333333333333,-0.3703333333333333,-0.315,1.6802060333333333,1.1604535833333334,14.4353888,-951666.6666666666,-8666.666666666668,-522333.3333333333,97479.21549333334,48.333333333333336,0.0,1.807817936,45.50771713,-40.78887177,1.943333268,-173.3301188,10.683963776666667,54.66666666666666
2018-09-11 18:48:41.240,-0.044,-0.37,-0.32,1.7063571,1.0787315,14.4746154,-945000.0,-11000.0,-526000.0,97479.24194,48.33,0.0,1.807817936,45.50771713,-40.78887177,1.946666598,-182.762914,11.163269043333331,55.333333333333336
2018-09-11 18:48:41.280,-0.044,-0.3715,-0.3235,1.6671304999999998,1.073828175,14.523648649999998,-707000.0,-11500.0,-527000.0,97479.24194,48.33,0.0,1.807817936,45.50771713,-40.78887177,1.949999928,-192.1957092,11.64257431,56.0
2018-09-11 18:48:41.320,-0.044,-0.373,-0.327,1.6279039,1.06892485,14.5726819,-469000.0,-12000.0,-528000.0,97479.24194,48.33,0.0,1.807817936,45.22559357,-40.78887177,1.949999928,-192.1957092,13.0542984,57.0
2018-09-11 18:48:41.360,-0.0279999999999999,-0.373,-0.33,1.63771055,1.034601575,14.5530686,-859500.0,5500.0,-541000.0,97480.59692,48.325,0.0,2.3694655895,45.22559357,-33.99626637,1.949999928,-192.1957092,13.0542984,57.0
2018-09-11 18:48:41.400,-0.012,-0.373,-0.333,1.6475172,1.0002783,14.5334553,-1250000.0,23000.0,-554000.0,97481.9519,48.32,0.0,2.931113243,45.22559357,-27.20366097,1.949999928,-192.1957092,13.0542984,57.0
2018-09-11 18:48:41.440,-0.0095,-0.37725,-0.3255,1.623000575,1.0125366125,14.489325375,-1270250.0,29000.0,-552500.0,97481.776425,48.32,0.0,2.931113243,45.22559357,-27.20366097,1.939999938,-215.1138306,14.40993118,58.0
2018-09-11 18:48:41.480,-0.007,-0.3815,-0.318,1.59848395,1.024794925,14.44519545,-1290500.0,35000.0,-551000.0,97481.60095,48.32,0.0,2.931113243,45.22559357,-27.20366097,1.939999938,-215.1138306,14.40993118,58.0
2018-09-11 18:48:41.520,-0.0045,-0.38575,-0.3105,1.573967325,1.0370532375,14.401065525,-1310750.0,41000.0,-549500.0,97481.425475,48.32,0.0,2.931113243,45.22559357,-27.20366097,1.939999938,-215.1138306,14.40993118,58.0
2018-09-11 18:48:41.560,-0.002,-0.39,-0.303,1.5494507,1.04931155,14.3569356,-1331000.0,47000.0,-548000.0,97481.25,48.32,0.0,2.931113243,45.22559357,-27.20366097,1.919999957,-215.1138306,15.75707245,60.0
2018-09-11 18:48:41.600,-0.0085,-0.3935,-0.299,1.613193925,0.956148375,14.6119085,-1331000.0,47000.0,-548000.0,97481.25,48.315,0.0,2.931113243,45.22559357,-27.20366097,1.919999957,-215.1138306,15.75707245,60.0
2018-09-11 18:48:41.640,-0.015,-0.397,-0.295,1.67693715,0.8629852,14.8668814,-1331000.0,47000.0,-548000.0,97481.25,48.31,0.0,2.931113243,45.22559357,-27.20366097,1.9049999715,-226.30214695,16.40522194,60.5
2018-09-11 18:48:41.680,-0.0185,-0.382,-0.2895,1.65732385,1.024794925,14.66094175,-1207000.0,35000.0,-552000.0,97479.56238,48.305,0.0,2.931113243,45.22559357,-27.20366097,1.889999986,-237.4904633,17.05337143,61.0
2018-09-11 18:48:41.720,-0.022,-0.367,-0.284,1.63771055,1.18660465,14.4550021,-1083000.0,23000.0,-556000.0,97477.87476,48.3,0.0,2.931113243,46.16392136,-27.20366097,1.889999986,-237.4904633,17.05337143,61.0
2018-09-11 18:48:41.760,-0.0196666666666666,-0.363,-0.2836666666666666,1.5886773,1.20621795,14.373280016666666,-748333.3333333333,40666.66666666667,-557000.0,97478.68856,48.303333333333335,0.0,4.055591583,46.16392136,-16.76650429,1.849999905,-237.4904633,18.34002304,62.0
2018-09-11 18:48:41.800,-0.0173333333333333,-0.359,-0.2833333333333333,1.53964405,1.22583125,14.291557933333332,-413666.6666666666,58333.333333333336,-558000.0,97479.50236,48.306666666666665,0.0,4.055591583,46.16392136,-16.76650429,1.849999905,-237.4904633,18.34002304,62.0
2018-09-11 18:48:41.840,-0.015,-0.355,-0.283,1.4906108,1.24544455,14.20983585,-79000.0,76000.0,-559000.0,97480.31616,48.31,0.0,4.055591583,46.16392136,-16.76650429,1.8199999335,-242.86145785,18.95156288,63.0
2018-09-11 18:48:41.880,-0.018,-0.355,-0.291,1.466094175,1.26505785,14.146092625,-408000.0,74500.0,-556000.0,97477.645875,48.305,0.0,4.055591583,46.16392136,-16.76650429,1.789999962,-248.2324524,19.56310272,64.0
2018-09-11 18:48:41.920,-0.021,-0.355,-0.299,1.44157755,1.28467115,14.0823494,-737000.0,73000.0,-553000.0,97474.97559,48.3,0.0,4.055591583,46.16392136,-16.76650429,1.789999962,-248.2324524,19.56310272,64.0
2018-09-11 18:48:41.960,-0.0283333333333333,-0.348,-0.304,1.5134929833333337,1.1996801833333337,14.020240616666667,-743000.0,63333.333333333336,-556333.3333333334,97474.81079333334,48.29666666666667,0.0,4.055591583,46.16392136,-16.76650429,1.719999909,-248.2324524,20.74474335,65.0
2018-09-11 18:48:42.000,-0.0356666666666666,-0.341,-0.309,1.5854084166666669,1.1146892166666666,13.958131833333333,-749000.0,53666.66666666667,-559666.6666666666,97474.64599666666,48.29333333333333,0.0,4.055591583,46.16392136,-16.76650429,1.719999909,-248.2324524,20.74474335,65.0
2018-09-11 18:48:42.040,-0.043,-0.334,-0.314,1.65732385,1.02969825,13.89602305,-755000.0,44000.0,-563000.0,97474.4812,48.29,0.0,4.055591583,46.483430865,-16.76650429,1.6799999475,-257.39611815,21.31902695,65.5
2018-09-11 18:48:42.080,-0.0409999999999999,-0.3245,-0.318,1.5396440500000002,1.093441475,13.64105015,-345500.0,39500.0,-564500.0,97474.4812,48.29,0.0,4.055591583,46.80294037,-16.76650429,1.639999986,-266.5597839,21.89331055,66.0
2018-09-11 18:48:42.120,-0.039,-0.315,-0.322,1.42196425,1.1571847,13.38607725,64000.0,35000.0,-566000.0,97474.4812,48.29,0.0,4.590709686,46.80294037,-6.40115118,1.639999986,-266.5597839,21.89331055,66.0
2018-09-11 18:48:42.160,-0.0405,-0.3175,-0.325,1.4121576,1.142474725,13.332140675,-496000.0,44000.0,-579000.0,97473.66028,48.285,0.0,4.590709686,46.80294037,-6.40115118,1.559999943,-266.5597839,23.02558899,67.0
2018-09-11 18:48:42.200,-0.042,-0.32,-0.328,1.40235095,1.12776475,13.2782041,-1056000.0,53000.0,-592000.0,97472.83936,48.28,0.0,4.590709686,46.80294037,-6.40115118,1.559999943,-266.5597839,23.02558899,67.0
2018-09-11 18:48:42.240,-0.0386666666666666,-0.3196666666666666,-0.3306666666666666,1.36312435,1.1506469333333331,13.26839745,-1087333.3333333333,60666.66666666666,-592333.3333333334,97471.24430666666,48.28,0.0,4.590709686,46.80294037,-6.40115118,1.459999919,-294.1270752,24.09056091,68.0
2018-09-11 18:48:42.280,-0.0353333333333333,-0.3193333333333333,-0.3333333333333333,1.32389775,1.1735291166666668,13.2585908,-1118666.6666666667,68333.33333333333,-592666.6666666666,97469.64925333334,48.28,0.0,4.590709686,46.80294037,-6.40115118,1.459999919,-294.1270752,24.09056091,68.0
2018-09-11 18:48:42.320,-0.032,-0.319,-0.336,1.28467115,1.1964113,13.24878415,-1150000.0,76000.0,-593000.0,97468.0542,48.28,0.0,4.590709686,46.80294037,-6.40115118,1.414999962,-294.1270752,24.616722105,68.5
2018-09-11 18:48:42.360,-0.035,-0.3195,-0.334,1.2552512,1.211121275,13.1605243,-1217500.0,85000.0,-591500.0,97466.43677,48.275000000000006,0.0,4.590709686,46.80294037,-6.40115118,1.370000005,-294.1270752,25.1428833,69.0
2018-09-11 18:48:42.400,-0.038,-0.32,-0.332,1.22583125,1.22583125,13.07226445,-1285000.0,94000.0,-590000.0,97464.81934,48.27,0.0,4.590709686,47.19426346,-6.40115118,1.370000005,-294.1270752,25.1428833,69.0
2018-09-11 18:48:42.440,-0.0326666666666666,-0.3216666666666666,-0.3356666666666666,1.2356379,1.10815145,13.1801376,-1298666.6666666667,83333.33333333333,-592666.6666666666,97465.54769,48.27,0.0,4.413998127,47.19426346,-1.4311619995000004,1.324999988,-303.90748595,25.647209165,69.5
2018-09-11 18:48:42.480,-0.0273333333333333,-0.3233333333333333,-0.3393333333333334,1.24544455,0.99047165,13.28801075,-1312333.3333333333,72666.66666666667,-595333.3333333334,97466.27604,48.27,0.0,4.237286568,47.19426346,3.538827181,1.279999971,-313.6878967,26.15153503,70.0
2018-09-11 18:48:42.520,-0.022,-0.325,-0.343,1.2552512,0.87279185,13.3958839,-1326000.0,62000.0,-598000.0,97467.00439,48.27,0.0,4.237286568,47.19426346,3.538827181,1.279999971,-313.6878967,26.15153503,70.0
2018-09-11 18:48:42.560,-0.0266666666666666,-0.3276666666666666,-0.3416666666666667,1.2487134333333334,0.9250939833333334,13.38607725,-1280333.3333333333,71333.33333333333,-603000.0,97465.69213666666,48.27,0.0,4.237286568,47.19426346,3.538827181,1.2299999595000002,-313.6878967,26.64544296,70.5
2018-09-11 18:48:42.600,-0.0313333333333333,-0.3303333333333333,-0.3403333333333334,1.2421756666666666,0.9773961166666668,13.3762706,-1234666.6666666667,80666.66666666667,-608000.0,97464.37988333334,48.27,0.0,4.237286568,47.19426346,3.538827181,1.179999948,-313.6878967,27.13935089,71.0
2018-09-11 18:48:42.640,-0.036,-0.333,-0.339,1.2356379,1.02969825,13.36646395,-1189000.0,90000.0,-613000.0,97463.06763,48.27,0.0,4.237286568,47.19426346,3.538827181,1.129999936,-320.45698545000005,27.59408188,71.5
2018-09-11 18:48:42.680,-0.026,-0.335,-0.335,1.18660465,0.9414384,13.341947325,-1190000.0,96500.0,-609500.0,97460.60181,48.265,0.0,4.237286568,47.19426346,3.538827181,1.079999924,-327.2260742,28.04881287,72.0
2018-09-11 18:48:42.720,-0.016,-0.337,-0.331,1.1375714,0.85317855,13.3174307,-1191000.0,103000.0,-606000.0,97458.13599,48.26,0.0,4.237286568,47.19426346,3.538827181,1.079999924,-327.2260742,28.04881287,72.0
2018-09-11 18:48:42.760,-0.0226666666666666,-0.337,-0.3306666666666666,1.12776475,0.8793296166666666,13.265128566666666,-1204333.3333333333,95333.33333333331,-601666.6666666666,97458.13599,48.26,0.0,4.237286568,47.347293855,3.538827181,1.0299999415,-327.2260742,28.48962021,72.5
2018-09-11 18:48:42.800,-0.0293333333333333,-0.337,-0.3303333333333333,1.1179581,0.9054806833333332,13.212826433333332,-1217666.6666666667,87666.66666666667,-597333.3333333334,97458.13599,48.26,0.0,4.237286568,47.500324250000006,3.538827181,0.979999959,-327.2260742,28.93042755,73.0
2018-09-11 18:48:42.840,-0.036,-0.337,-0.33,1.10815145,0.93163175,13.1605243,-1231000.0,80000.0,-593000.0,97458.13599,48.26,0.0,4.065551758,47.65335464500001,8.553237080499999,0.929999977,-336.1193695,29.348148345,73.5
2018-09-11 18:48:42.880,-0.0325,-0.3365,-0.326,1.083634825,0.985568325,13.140911,-1049000.0,69000.0,-598000.0,97459.106445,48.255,0.0,3.893816948,47.80638504,13.56764698,0.879999995,-345.0126648,29.76586914,74.0
2018-09-11 18:48:42.920,-0.029,-0.336,-0.322,1.0591182,1.0395049,13.1212977,-867000.0,58000.0,-603000.0,97460.0769,48.25,0.0,3.893816948,47.80638504,13.56764698,0.829999983,-345.0126648,30.176353455,74.5
2018-09-11 18:48:42.960,-0.0353333333333333,-0.3413333333333333,-0.3203333333333333,1.046042666666667,0.99047165,13.2782041,-881000.0,64333.333333333336,-602666.6666666666,97460.10335,48.25,0.0,3.893816948,47.80638504,13.56764698,0.779999971,-345.0126648,30.58683777,75.0
2018-09-11 18:48:43.000,-0.0416666666666666,-0.3466666666666667,-0.3186666666666666,1.0329671333333332,0.9414384,13.4351105,-895000.0,70666.66666666667,-602333.3333333334,97460.1298,48.25,0.0,3.893816948,47.80638504,13.56764698,0.779999971,-345.0126648,30.58683777,75.0
2018-09-11 18:48:43.040,-0.048,-0.352,-0.317,1.0198916,0.89240515,13.5920169,-909000.0,77000.0,-602000.0,97460.15625,48.25,0.0,3.893816948,47.80638504,13.56764698,0.729999989,-351.69096375,30.981933595,75.0
2018-09-11 18:48:43.080,-0.0424999999999999,-0.3485,-0.3145,1.0787315,0.93163175,13.420400525000002,-909000.0,77000.0,-602000.0,97460.15625,48.245000000000005,0.0,3.893816948,47.80638504,13.56764698,0.680000007,-358.3692627,31.37702942,75.0
2018-09-11 18:48:43.120,-0.037,-0.345,-0.312,1.1375714,0.97085835,13.24878415,-909000.0,77000.0,-602000.0,97460.15625,48.24,0.0,3.893816948,47.84335517833333,13.56764698,0.6466666656666666,-358.3692627,31.62511698333333,75.33333333333333
2018-09-11 18:48:43.160,-0.051,-0.347,-0.312,1.034601575,1.0198916,13.337044,-1042500.0,83000.0,-613000.0,97458.877565,48.235,0.0,3.893816948,47.88032531666667,13.56764698,0.6133333243333333,-358.3692627,31.873204546666667,75.66666666666667
2018-09-11 18:48:43.200,-0.065,-0.349,-0.312,0.93163175,1.06892485,13.42530385,-1176000.0,89000.0,-624000.0,97457.59888,48.23,0.0,3.893816948,47.917295455,13.56764698,0.579999983,-358.3692627,32.12129211,76.0
2018-09-11 18:48:43.240,-0.0683333333333333,-0.3516666666666666,-0.3156666666666666,0.9970094166666666,0.9970094166666666,13.575672483333332,-1171333.3333333333,89333.33333333333,-618000.0,97458.34147333332,48.23,0.0,3.950900316,48.02820587,25.22893524,0.48999998,-376.8218994,32.81726837,77.0
2018-09-11 18:48:43.280,-0.0716666666666666,-0.3543333333333333,-0.3193333333333333,1.062387083333333,0.9250939833333331,13.726041116666668,-1166666.6666666667,89666.66666666667,-612000.0,97459.08406666668,48.23,0.0,3.950900316,48.02820587,25.22893524,0.48999998,-376.8218994,32.81726837,77.0
2018-09-11 18:48:43.320,-0.075,-0.357,-0.323,1.12776475,0.85317855,13.87640975,-1162000.0,90000.0,-606000.0,97459.82666,48.23,0.0,3.950900316,48.02820587,25.22893524,0.48999998,-376.8218994,32.81726837,77.0
2018-09-11 18:48:43.360,-0.07,-0.3485,-0.3285,1.04931155,0.8629852,13.734213325,-1173000.0,82000.0,-615000.0,97457.736205,48.23,0.0,3.950900316,48.02820587,25.22893524,0.399999976,-376.8218994,33.47264099,77.0
2018-09-11 18:48:43.400,-0.065,-0.34,-0.334,0.97085835,0.87279185,13.5920169,-1184000.0,74000.0,-624000.0,97455.64575,48.23,0.0,3.950900316,48.02820587,25.22893524,0.399999976,-376.8218994,33.47264099,77.0
2018-09-11 18:48:43.440,-0.0643333333333333,-0.331,-0.3333333333333333,0.9414384,0.8956740333333334,13.480874866666667,-1193666.6666666667,84666.66666666667,-621000.0,97453.04972333332,48.22666666666667,0.0,3.950900316,48.02820587,25.22893524,0.3549999889999999,-382.0756836,33.77614975,77.5
2018-09-11 18:48:43.480,-0.0636666666666666,-0.322,-0.3326666666666666,0.91201845,0.9185562166666666,13.369732833333334,-1203333.3333333333,95333.33333333331,-618000.0,97450.45369666666,48.22333333333333,0.0,3.950900316,48.02820587,25.22893524,0.310000002,-387.3294678,34.07965851,78.0
2018-09-11 18:48:43.520,-0.063,-0.313,-0.332,0.8825985,0.9414384,13.2585908,-1213000.0,106000.0,-615000.0,97447.85767,48.22,0.0,3.950900316,47.81915283,25.22893524,0.310000002,-387.3294678,34.07965851,78.0
2018-09-11 18:48:43.560,-0.0596666666666666,-0.3126666666666666,-0.3276666666666666,0.8629852,0.9839338833333332,13.26839745,-1177666.6666666667,102000.0,-615333.3333333334,97449.86776,48.22,0.0,3.734705687,47.81915283,33.49290466,0.229999989,-387.3294678,34.64299011,79.0
2018-09-11 18:48:43.600,-0.0563333333333333,-0.3123333333333333,-0.3233333333333333,0.8433719,1.0264293666666666,13.2782041,-1142333.3333333333,98000.0,-615666.6666666666,97451.87785,48.22,0.0,3.734705687,47.81915283,33.49290466,0.184999995,-397.24920655,34.897411344999995,79.0
2018-09-11 18:48:43.640,-0.053,-0.312,-0.319,0.8237586,1.06892485,13.28801075,-1107000.0,94000.0,-616000.0,97453.88794,48.22,0.0,3.734705687,47.81915283,33.49290466,0.140000001,-407.1689453,35.15183258,79.0
2018-09-11 18:48:43.680,-0.061,-0.31,-0.3205,0.818855275,0.965955025,13.337044,-1107000.0,94000.0,-616000.0,97453.88794,48.215,0.0,3.734705687,47.81915283,33.49290466,0.140000001,-407.1689453,35.15183258,79.0
2018-09-11 18:48:43.720,-0.069,-0.308,-0.322,0.81395195,0.8629852,13.38607725,-1107000.0,94000.0,-616000.0,97453.88794,48.21,0.0,3.734705687,47.81915283,33.49290466,0.1,-407.1689453,35.39006424,79.5
2018-09-11 18:48:43.760,-0.079,-0.3065,-0.3185,0.818855275,0.916921775,13.116394375,-1108500.0,97000.0,-625000.0,97450.75989,48.21,0.0,3.734705687,47.81915283,33.49290466,0.059999999,-407.1689453,35.6282959,80.0
2018-09-11 18:48:43.800,-0.089,-0.305,-0.315,0.8237586,0.97085835,12.8467115,-1110000.0,100000.0,-634000.0,97447.63184,48.21,0.0,3.734705687,47.81915283,33.49290466,0.0249999995,-416.3701935,35.844989775,80.0
2018-09-11 18:48:43.840,-0.087,-0.3066666666666666,-0.317,0.81395195,0.8989429166666667,12.928433583333334,-1096000.0,91333.33333333331,-630666.6666666666,97446.64917333334,48.20666666666667,0.0,3.734705687,47.81915283,33.49290466,-0.01,-425.5714417,36.06168365,80.0
2018-09-11 18:48:43.880,-0.085,-0.3083333333333333,-0.319,0.8041453000000001,0.8270274833333333,13.010155666666666,-1082000.0,82666.66666666667,-627333.3333333334,97445.66650666666,48.20333333333333,0.0,3.734705687,47.81915283,33.49290466,-0.01,-425.5714417,36.06168365,80.0
2018-09-11 18:48:43.920,-0.083,-0.31,-0.321,0.79433865,0.75511205,13.09187775,-1068000.0,74000.0,-624000.0,97444.68384,48.2,0.0,3.734705687,47.563446045,33.49290466,-0.044999999,-425.5714417,36.263877865,80.0
2018-09-11 18:48:43.960,-0.094,-0.304,-0.319,0.7354987500000001,0.936535075,12.8467115,-1071000.0,77000.0,-626000.0,97447.106935,48.2,0.0,3.734705687,47.30773926,33.49290466,-0.079999998,-425.5714417,36.46607208,80.0
2018-09-11 18:48:44.000,-0.105,-0.298,-0.317,0.67665885,1.1179581,12.60154525,-1074000.0,80000.0,-628000.0,97449.53003,48.2,0.0,3.14607811,47.30773926,44.45739365,-0.079999998,-425.5714417,36.46607208,80.0
2018-09-11 18:48:44.040,-0.0996666666666666,-0.2993333333333333,-0.3196666666666666,0.63743225,1.0231604833333334,12.748645,-1067333.3333333333,82333.33333333333,-627333.3333333334,97447.09676,48.196666666666665,0.0,3.14607811,47.30773926,44.45739365,-0.1149999945,-433.929245,36.63798523,80.5
2018-09-11 18:48:44.080,-0.0943333333333333,-0.3006666666666666,-0.3223333333333333,0.59820565,0.9283628666666668,12.89574475,-1060666.6666666667,84666.66666666667,-626666.6666666666,97444.66349,48.193333333333335,0.0,3.14607811,47.30773926,44.45739365,-0.149999991,-442.2870483,36.80989838,81.0
2018-09-11 18:48:44.120,-0.089,-0.302,-0.325,0.55897905,0.83356525,13.0428445,-1054000.0,87000.0,-626000.0,97442.23022,48.19,0.0,3.14607811,47.30773926,44.45739365,-0.149999991,-442.2870483,36.80989838,81.0
2018-09-11 18:48:44.160,-0.081,-0.3053333333333333,-0.3273333333333333,0.588399,0.8204897166666667,13.157255416666668,-1047666.6666666666,84333.33333333333,-625333.3333333334,97444.32779666666,48.19,0.0,3.14607811,47.30773926,44.45739365,-0.179999992,-442.2870483,36.967979435,81.0
2018-09-11 18:48:44.200,-0.073,-0.3086666666666666,-0.3296666666666666,0.61781895,0.8074141833333334,13.271666333333332,-1041333.3333333334,81666.66666666667,-624666.6666666666,97446.42537333332,48.19,0.0,3.14607811,47.30773926,44.45739365,-0.209999993,-442.2870483,37.12606049,81.0
2018-09-11 18:48:44.240,-0.065,-0.312,-0.332,0.6472389,0.79433865,13.38607725,-1035000.0,79000.0,-624000.0,97448.52295,48.19,0.0,3.14607811,47.30773926,44.45739365,-0.25999999,-454.2493896,37.39541626,81.0
2018-09-11 18:48:44.280,-0.046,-0.306,-0.3305,0.622722275,0.8041453000000001,13.13110435,-1035500.0,85000.0,-629500.0,97444.50989,48.185,0.0,3.14607811,47.30773926,44.45739365,-0.25999999,-454.2493896,37.39541626,81.0
2018-09-11 18:48:44.320,-0.027,-0.3,-0.329,0.59820565,0.81395195,12.87613145,-1036000.0,91000.0,-635000.0,97440.49683,48.18,0.0,3.14607811,47.25447591333333,44.45739365,-0.279999991,-454.2493896,37.476053873333335,81.33333333333333
2018-09-11 18:48:44.360,-0.014,-0.3006666666666666,-0.329,0.5360968666666667,0.8204897166666667,12.774796066666667,-1014333.3333333334,86000.0,-632000.0,97437.11344666668,48.18,0.0,3.14607811,47.20121256666667,44.45739365,-0.299999992,-454.2493896,37.556691486666665,81.66666666666667
2018-09-11 18:48:44.400,-0.001,-0.3013333333333333,-0.329,0.4739880833333333,0.8270274833333333,12.673460683333332,-992666.6666666666,81000.0,-629000.0,97433.73006333334,48.18,0.0,3.14607811,47.14794922,44.45739365,-0.319999993,-454.2493896,37.6373291,82.0
2018-09-11 18:48:44.440,0.012,-0.302,-0.329,0.4118793,0.83356525,12.5721253,-971000.0,76000.0,-626000.0,97430.34668,48.18,0.0,2.7701208595,47.0680542,50.658910755,-0.339999989,-462.8005981,37.732830045,82.0
2018-09-11 18:48:44.480,0.015,-0.3015,-0.325,0.387362675,0.8825985000000001,12.488768775,-971000.0,76000.0,-626000.0,97430.34668,48.175,0.0,2.394163609,46.98815918,56.86042786,-0.359999985,-471.3518066,37.82833099,82.0
2018-09-11 18:48:44.520,0.018,-0.301,-0.321,0.36284605,0.93163175,12.40541225,-971000.0,76000.0,-626000.0,97430.34668,48.17,0.0,2.394163609,46.98815918,56.86042786,-0.3799999805,-471.3518066,37.90629959,82.0
2018-09-11 18:48:44.560,0.0079999999999999,-0.3023333333333333,-0.317,0.3497705166666666,0.9152873333333332,12.284463566666666,-983666.6666666666,79000.0,-627000.0,97429.42098,48.17,0.0,2.394163609,46.98815918,56.86042786,-0.38999997825,-471.3518066,37.94528389,82.0
2018-09-11 18:48:44.600,-0.002,-0.3036666666666666,-0.313,0.3366949833333333,0.8989429166666666,12.163514883333333,-996333.3333333334,82000.0,-628000.0,97428.49528,48.17,0.0,2.394163609,46.98815918,56.86042786,-0.399999976,-471.3518066,37.98426819,82.0
2018-09-11 18:48:44.640,-0.012,-0.305,-0.309,0.32361945,0.8825985,12.0425662,-1009000.0,85000.0,-629000.0,97427.56958,48.17,0.0,2.394163609,46.98815918,56.86042786,-0.439999998,-479.3508606,38.10301209,82.0
2018-09-11 18:48:44.680,-0.0325,-0.311,-0.314,0.3383294249999999,0.89240515,12.263215825,-1009000.0,85000.0,-629000.0,97427.56958,48.17,0.0,2.394163609,46.98815918,56.86042786,-0.439999998,-479.3508606,38.10301209,82.0
2018-09-11 18:48:44.720,-0.053,-0.317,-0.319,0.3530394,0.9022118,12.48386545,-1009000.0,85000.0,-629000.0,97427.56958,48.17,0.0,2.394163609,47.31164169,56.86042786,-0.469999999,-479.3508606,38.18741608,82.0
2018-09-11 18:48:44.760,-0.0703333333333333,-0.3153333333333333,-0.3176666666666666,0.3791904666666666,0.8891362666666667,12.6113519,-1014333.3333333334,84666.66666666667,-628666.6666666666,97428.13110333332,48.16666666666666,0.0,2.197894216,47.31164169,60.94486618,-0.469999999,-479.3508606,38.18741608,82.0
2018-09-11 18:48:44.800,-0.0876666666666666,-0.3136666666666666,-0.3163333333333333,0.4053415333333333,0.8760607333333333,12.73883835,-1019666.6666666666,84333.33333333333,-628333.3333333334,97428.69262666666,48.16333333333333,0.0,2.001624823,47.31164169,65.0293045,-0.469999999,-479.3508606,38.18741608,82.0
2018-09-11 18:48:44.840,-0.105,-0.312,-0.315,0.4314926,0.8629852,12.8663248,-1025000.0,84000.0,-628000.0,97429.25415,48.16,0.0,2.001624823,47.31164169,65.0293045,-0.48999998,-493.0700378,38.22650146,82.0
2018-09-11 18:48:44.880,-0.108,-0.305,-0.321,0.42168595,0.9022118,12.8859381,-1032500.0,88000.0,-631000.0,97431.692505,48.155,0.0,2.001624823,47.31164169,65.0293045,-0.48999998,-493.0700378,38.22650146,82.0
2018-09-11 18:48:44.920,-0.111,-0.298,-0.327,0.4118793,0.9414384,12.9055514,-1040000.0,92000.0,-634000.0,97434.13086,48.15,0.0,2.001624823,47.31164169,65.0293045,-0.499999985,-493.0700378,38.232795715,82.0
2018-09-11 18:48:44.960,-0.098,-0.293,-0.3375,0.397169325,0.926728425,12.6898051,-1040500.0,94000.0,-635000.0,97436.32202,48.15,0.0,2.001624823,47.31164169,65.0293045,-0.50999999,-493.0700378,38.23908997,82.0
2018-09-11 18:48:45.000,-0.085,-0.288,-0.348,0.38245935,0.91201845,12.4740588,-1041000.0,96000.0,-636000.0,97438.51318,48.15,0.0,2.001624823,47.31164169,65.0293045,-0.50999999,-493.0700378,38.23908997,82.0
2018-09-11 18:48:45.040,-0.0773333333333333,-0.2926666666666666,-0.354,0.4249548333333333,0.8204897166666667,12.644040733333334,-1040000.0,99000.0,-637333.3333333334,97440.81827666666,48.15,0.0,2.001624823,47.31164169,65.0293045,-0.519999981,-507.2208252,38.21733856,82.0
2018-09-11 18:48:45.080,-0.0696666666666666,-0.2973333333333333,-0.36,0.4674503166666666,0.7289609833333334,12.814022666666666,-1039000.0,102000.0,-638666.6666666666,97443.12337333334,48.15,0.0,2.001624823,46.37033844,65.0293045,-0.519999981,-507.2208252,38.21733856,82.0
2018-09-11 18:48:45.120,-0.062,-0.302,-0.366,0.5099458,0.63743225,12.9840046,-1038000.0,105000.0,-640000.0,97445.42847,48.15,0.0,1.6649667025,46.37033844,69.40103912000001,-0.5249999759999999,-507.2208252,38.18598175,82.0
2018-09-11 18:48:45.160,-0.008,-0.313,-0.3455,0.514849125,0.7256921000000001,13.3958839,-1041000.0,105000.0,-642500.0,97445.25757,48.145,0.0,1.328308582,46.37033844,73.77277374,-0.529999971,-507.2208252,38.15462494,82.0
2018-09-11 18:48:45.200,0.046,-0.324,-0.325,0.51975245,0.81395195,13.8077632,-1044000.0,105000.0,-645000.0,97445.08667,48.14,0.0,1.328308582,46.37033844,73.77277374,-0.5199999805,-508.5294647,38.10733414,82.0
2018-09-11 18:48:45.240,0.011,-0.3253333333333333,-0.3213333333333333,0.5132146833333333,0.8270274833333333,13.853527566666669,-1051000.0,105666.66666666669,-643000.0,97444.45597333332,48.14,0.0,1.328308582,46.37033844,73.77277374,-0.50999999,-509.8381042,38.06004334,82.0
2018-09-11 18:48:45.280,-0.0239999999999999,-0.3266666666666666,-0.3176666666666666,0.5066769166666667,0.8401030166666666,13.899291933333332,-1058000.0,106333.33333333331,-641000.0,97443.82527666668,48.14,0.0,1.328308582,46.37033844,73.77277374,-0.50999999,-509.8381042,38.06004334,82.0
2018-09-11 18:48:45.320,-0.059,-0.328,-0.314,0.50013915,0.85317855,13.9450563,-1065000.0,107000.0,-639000.0,97443.19458,48.14,0.0,1.328308582,46.37033844,73.77277374,-0.499999985,-509.8381042,37.99182892,82.0
2018-09-11 18:48:45.360,-0.0545,-0.3205,-0.3185,0.5197524499999999,0.8335652499999999,13.7489233,-1066000.0,107000.0,-639000.0,97442.22412,48.135000000000005,0.0,1.328308582,46.37033844,73.77277374,-0.48999998,-509.8381042,37.9236145,82.0
2018-09-11 18:48:45.400,-0.05,-0.313,-0.323,0.53936575,0.81395195,13.5527903,-1067000.0,107000.0,-639000.0,97441.25366,48.13,0.0,1.328308582,46.37033844,73.77277374,-0.4749999795,-518.13612365,37.829021455,82.0
2018-09-11 18:48:45.440,-0.0486666666666666,-0.3136666666666666,-0.3216666666666666,0.5197524499999999,0.7878008833333333,13.418766083333333,-1072000.0,107333.33333333331,-638666.6666666666,97440.70231,48.13,0.0,1.328308582,46.37033844,73.77277374,-0.459999979,-526.4341431,37.73442841,82.0
2018-09-11 18:48:45.480,-0.0473333333333333,-0.3143333333333333,-0.3203333333333333,0.50013915,0.7616498166666666,13.284741866666668,-1077000.0,107666.66666666669,-638333.3333333334,97440.15096,48.13,0.0,1.328308582,46.37033844,73.77277374,-0.459999979,-526.4341431,37.73442841,82.0
2018-09-11 18:48:45.520,-0.046,-0.315,-0.319,0.48052585,0.73549875,13.15071765,-1082000.0,108000.0,-638000.0,97439.59961,48.13,0.0,1.328308582,46.57229805,73.77277374,-0.4499999885,-526.4341431,37.626510620000005,81.5
2018-09-11 18:48:45.560,-0.0403333333333333,-0.3153333333333333,-0.3163333333333333,0.4707192,0.7583809333333333,13.134373233333331,-1082000.0,108000.0,-638000.0,97438.34432,48.126666666666665,0.0,1.328308582,46.77425766,73.77277374,-0.439999998,-526.4341431,37.51859283,81.0
2018-09-11 18:48:45.600,-0.0346666666666666,-0.3156666666666666,-0.3136666666666666,0.46091255,0.7812631166666666,13.118028816666667,-1082000.0,108000.0,-638000.0,97437.08903,48.123333333333335,0.0,1.1581325726666667,46.77425766,78.26217905666667,-0.4299999973333333,-533.1061808333334,37.42702484,81.0
2018-09-11 18:48:45.640,-0.029,-0.316,-0.311,0.4511059,0.8041453,13.1016844,-1082000.0,108000.0,-638000.0,97435.83374,48.12,0.0,0.9879565633333334,46.77425766,82.75158437333334,-0.4199999966666666,-539.7782185666666,37.33545685,81.0
2018-09-11 18:48:45.680,-0.024,-0.3135,-0.313,0.4560092249999999,0.8237585999999999,13.332140675,-1087500.0,109000.0,-640000.0,97435.83374,48.12,0.0,0.817780554,46.77425766,87.24098969,-0.409999996,-546.4502563,37.24388886,81.0
2018-09-11 18:48:45.720,-0.019,-0.311,-0.315,0.46091255,0.8433719,13.56259695,-1093000.0,110000.0,-642000.0,97435.83374,48.12,0.0,0.817780554,46.77425766,87.24098969,-0.409999996,-546.4502563,37.24388886,81.0
2018-09-11 18:48:45.760,-0.0115,-0.3155,-0.3125,0.475622525,0.8629852,13.4743371,-1102500.0,109500.0,-640000.0,97434.37805,48.115,0.0,0.817780554,46.77425766,87.24098969,-0.379999995,-546.4502563,36.92228699,81.0
2018-09-11 18:48:45.800,-0.004,-0.32,-0.31,0.4903325,0.8825985,13.38607725,-1112000.0,109000.0,-638000.0,97432.92236,48.11,0.0,0.817780554,46.77425766,87.24098969,-0.379999995,-546.4502563,36.92228699,81.0
2018-09-11 18:48:45.840,-0.0163333333333333,-0.3186666666666666,-0.31,0.4772569666666666,0.9447072833333332,13.36646395,-1119000.0,107000.0,-638000.0,97433.15226,48.11,0.0,0.817780554,46.77425766,87.24098969,-0.349999994,-548.7905273,36.56121063,81.0
2018-09-11 18:48:45.880,-0.0286666666666666,-0.3173333333333333,-0.31,0.4641814333333333,1.0068160666666666,13.34685065,-1126000.0,105000.0,-638000.0,97433.38216,48.11,0.0,0.817780554,46.77425766,87.24098969,-0.349999994,-548.7905273,36.56121063,81.0
2018-09-11 18:48:45.920,-0.041,-0.316,-0.31,0.4511059,1.06892485,13.32723735,-1133000.0,103000.0,-638000.0,97433.61206,48.11,0.0,0.817780554,46.92698669,87.24098969,-0.319999993,-548.7905273,36.17442322,80.0
2018-09-11 18:48:45.960,-0.055,-0.3085,-0.3155,0.44129925,0.985568325,13.18994425,-1131000.0,104500.0,-639000.0,97432.90405,48.105,0.0,0.7021920085,46.92698669,91.56861115,-0.319999993,-548.7905273,36.17442322,80.0
2018-09-11 18:48:46.000,-0.069,-0.301,-0.321,0.4314926,0.9022118,13.05265115,-1129000.0,106000.0,-640000.0,97432.19604,48.1,0.0,0.586603463,46.92698669,95.89623261,-0.319999993,-548.7905273,36.17442322,80.0
2018-09-11 18:48:46.040,-0.0583333333333333,-0.3016666666666666,-0.3233333333333333,0.4543747833333333,0.8891362666666667,13.085339983333334,-775333.3333333333,110000.0,-634666.6666666666,97433.31705333332,48.1,0.0,0.586603463,46.92698669,95.89623261,-0.299999982,-571.8858643,35.71357727,80.0
2018-09-11 18:48:46.080,-0.0476666666666666,-0.3023333333333333,-0.3256666666666666,0.4772569666666666,0.8760607333333333,13.118028816666667,-421666.6666666666,114000.0,-629333.3333333334,97434.43806666668,48.1,0.0,0.586603463,46.92698669,95.89623261,-0.299999982,-571.8858643,35.71357727,80.0
2018-09-11 18:48:46.120,-0.037,-0.303,-0.328,0.50013915,0.8629852,13.15071765,-68000.0,118000.0,-624000.0,97435.55908,48.1,0.0,0.586603463,46.92698669,95.89623261,-0.299999982,-571.8858643,35.71357727,80.0
2018-09-11 18:48:46.160,-0.0279999999999999,-0.31,-0.3295,0.55897905,0.789435325,13.283107425,-430500.0,118000.0,-630500.0,97443.154905,48.095,0.0,0.586603463,46.92698669,95.89623261,-0.2899999915,-571.8858643,35.476078035,79.5
2018-09-11 18:48:46.200,-0.019,-0.317,-0.331,0.61781895,0.71588545,13.4154972,-793000.0,118000.0,-637000.0,97450.75073,48.09,0.0,0.586603463,46.92698669,95.89623261,-0.280000001,-571.8858643,35.2385788,79.0
2018-09-11 18:48:46.240,-0.0253333333333333,-0.3153333333333333,-0.326,0.5753234666666667,0.7878008833333333,13.379539483333334,-923333.3333333334,120000.0,-639000.0,97448.09366666668,48.086666666666666,0.0,0.586603463,46.92698669,95.89623261,-0.25999999,-590.425293,34.7148819,79.0
2018-09-11 18:48:46.280,-0.0316666666666666,-0.3136666666666666,-0.321,0.5328279833333334,0.8597163166666667,13.343581766666668,-1053666.6666666667,122000.0,-641000.0,97445.43660333334,48.083333333333336,0.0,0.586603463,46.92698669,95.89623261,-0.25999999,-590.425293,34.7148819,79.0
2018-09-11 18:48:46.320,-0.038,-0.312,-0.316,0.4903325,0.93163175,13.30762405,-1184000.0,124000.0,-643000.0,97442.77954,48.08,0.0,0.586603463,46.92698669,95.89623261,-0.25999999,-590.425293,34.7148819,79.0
2018-09-11 18:48:46.360,-0.0386666666666666,-0.313,-0.3196666666666666,0.4772569666666666,0.93163175,13.497219283333331,-1058333.3333333333,119333.33333333331,-639000.0,97442.25260333334,48.08,0.0,0.586603463,46.92698669,95.89623261,-0.229999989,-590.425293,34.15356445,78.0
2018-09-11 18:48:46.400,-0.0393333333333333,-0.314,-0.3233333333333333,0.4641814333333333,0.93163175,13.686814516666669,-932666.6666666666,114666.66666666669,-635000.0,97441.72566666668,48.08,0.0,0.586603463,46.63359833,95.89623261,-0.229999989,-590.425293,34.15356445,78.0
2018-09-11 18:48:46.440,-0.04,-0.315,-0.327,0.4511059,0.93163175,13.87640975,-807000.0,110000.0,-631000.0,97441.19873,48.08,0.0,-0.039456617,46.63359833,108.1041565,-0.189999998,-600.0045776,33.55516052,78.0
2018-09-11 18:48:46.480,-0.0155,-0.316,-0.317,0.475622525,0.8041453000000001,13.910733025,-806000.0,113500.0,-631000.0,97436.42273,48.08,0.0,-0.039456617,46.63359833,108.1041565,-0.189999998,-600.0045776,33.55516052,78.0
2018-09-11 18:48:46.520,0.009,-0.317,-0.307,0.50013915,0.67665885,13.9450563,-805000.0,117000.0,-631000.0,97431.64673,48.08,0.0,-0.039456617,46.63359833,108.1041565,-0.1699999945,-600.0045776,33.236679075,77.5
2018-09-11 18:48:46.560,0.0139999999999999,-0.321,-0.303,0.53936575,0.7060788,13.81756985,-885000.0,116000.0,-633500.0,97439.01062,48.075,0.0,-0.039456617,46.63359833,108.1041565,-0.149999991,-600.0045776,32.91819763,77.0
2018-09-11 18:48:46.600,0.019,-0.325,-0.299,0.57859235,0.73549875,13.6900834,-965000.0,115000.0,-636000.0,97446.37451,48.07,0.0,-0.039456617,46.63359833,108.1041565,-0.149999991,-600.0045776,32.91819763,77.0
2018-09-11 18:48:46.640,0.0013333333333333,-0.324,-0.2923333333333333,0.5360968666666667,0.7910697666666666,13.569134716666667,-1045333.3333333334,114666.66666666669,-635000.0,97446.50065,48.07,0.0,-0.039456617,46.63359833,108.1041565,-0.129999995,-611.51019285,32.575050355,76.5
2018-09-11 18:48:46.680,-0.0163333333333333,-0.323,-0.2856666666666667,0.4936013833333333,0.8466407833333334,13.448186033333334,-1125666.6666666667,114333.33333333331,-634000.0,97446.62679,48.07,0.0,-0.039456617,46.63359833,108.1041565,-0.109999999,-623.0158081,32.23190308,76.0
2018-09-11 18:48:46.720,-0.034,-0.322,-0.279,0.4511059,0.9022118,13.32723735,-1206000.0,114000.0,-633000.0,97446.75293,48.07,0.0,-0.039456617,46.63359833,108.1041565,-0.109999999,-623.0158081,32.23190308,76.0
2018-09-11 18:48:46.760,-0.0573333333333333,-0.3196666666666666,-0.281,0.4641814333333333,0.8629852,13.301086283333332,-813000.0,116333.33333333331,-626666.6666666666,97445.88623,48.06666666666667,0.0,-0.039456617,46.657512665,108.1041565,-0.0949999985,-623.0158081,31.878868105,75.5
2018-09-11 18:48:46.800,-0.0806666666666666,-0.3173333333333333,-0.283,0.4772569666666666,0.8237586,13.274935216666668,-420000.0,118666.66666666669,-620333.3333333334,97445.01953,48.06333333333333,0.0,-0.039456617,46.681427,108.1041565,-0.079999998,-623.0158081,31.52583313,75.0
2018-09-11 18:48:46.840,-0.104,-0.315,-0.285,0.4903325,0.784532,13.24878415,-27000.0,121000.0,-614000.0,97444.15283,48.06,0.0,0.015981255,46.681427,117.4522171,-0.029999999,-642.336853,30.76463318,75.0
2018-09-11 18:48:46.880,-0.1154999999999999,-0.3225,-0.286,0.603108975,0.77472535,13.479240425,-27000.0,121000.0,-614000.0,97444.15283,48.06,0.0,0.015981255,46.681427,117.4522171,-0.029999999,-642.336853,30.76463318,75.0
2018-09-11 18:48:46.920,-0.127,-0.33,-0.287,0.71588545,0.7649187,13.7096967,-27000.0,121000.0,-614000.0,97444.15283,48.06,0.0,0.015981255,46.681427,117.4522171,-0.029999999,-642.336853,30.76463318,75.0
2018-09-11 18:48:46.960,-0.1645,-0.3265,-0.2804999999999999,0.6276256,0.89240515,13.7685366,-639500.0,132000.0,-622000.0,97447.705075,48.055,0.0,0.015981255,46.681427,117.4522171,0.02,-642.336853,29.98043823,74.0
2018-09-11 18:48:47.000,-0.202,-0.323,-0.274,0.53936575,1.0198916,13.8273765,-1252000.0,143000.0,-630000.0,97451.25732,48.05,0.0,0.015981255,46.681427,117.4522171,0.0399999994999999,-645.4414367500001,29.57201004,73.5
2018-09-11 18:48:47.040,-0.2216666666666666,-0.3163333333333333,-0.279,0.5066769166666667,0.9250939833333334,13.706427816666666,-1356333.3333333333,138666.66666666666,-633000.0,97449.86572,48.05,0.0,0.015981255,46.681427,117.4522171,0.059999999,-648.5460205,29.16358185,73.0
2018-09-11 18:48:47.080,-0.2413333333333333,-0.3096666666666666,-0.284,0.4739880833333333,0.8302963666666666,13.585479133333331,-1460666.6666666667,134333.33333333334,-636000.0,97448.47412,48.05,0.0,0.015981255,46.681427,117.4522171,0.059999999,-648.5460205,29.16358185,73.0
2018-09-11 18:48:47.120,-0.261,-0.303,-0.289,0.44129925,0.73549875,13.46453045,-1565000.0,130000.0,-639000.0,97447.08252,48.05,0.0,0.015981255,46.681427,117.4522171,0.0849999989999999,-648.5460205,28.7372818,72.5
2018-09-11 18:48:47.160,-0.281,-0.304,-0.2906666666666666,0.42168595,0.8760607333333333,13.510294816666669,-1544000.0,124666.66666666669,-635000.0,97448.86881666668,48.04666666666667,0.0,0.015981255,46.681427,117.4522171,0.109999999,-648.5460205,28.31098175,72.0
2018-09-11 18:48:47.200,-0.301,-0.305,-0.2923333333333333,0.40207265,1.0166227166666666,13.556059183333334,-1523000.0,119333.33333333331,-631000.0,97450.65511333333,48.04333333333333,0.0,0.015981255,46.681427,117.4522171,0.109999999,-648.5460205,28.31098175,72.0
2018-09-11 18:48:47.240,-0.321,-0.306,-0.294,0.38245935,1.1571847,13.60182355,-1502000.0,114000.0,-627000.0,97452.44141,48.04,0.0,0.015981255,41.57487869,117.4522171,0.159999996,-669.8707275,27.43688965,71.0
2018-09-11 18:48:47.280,-0.292,-0.301,-0.3063333333333333,0.3726527,1.1212269833333333,13.977745133333334,-1391666.6666666667,110333.33333333331,-620666.6666666666,97449.37337333334,48.04,0.0,0.2544858595,41.57487869,122.95415115,0.159999996,-669.8707275,27.43688965,71.0
2018-09-11 18:48:47.320,-0.263,-0.296,-0.3186666666666666,0.36284605,1.0852692666666668,14.353666716666666,-1281333.3333333333,106666.66666666669,-614333.3333333334,97446.30533666666,48.04,0.0,0.492990464,41.57487869,128.4560852,0.159999996,-669.8707275,27.43688965,71.0
2018-09-11 18:48:47.360,-0.234,-0.291,-0.331,0.3530394,1.04931155,14.7295883,-1171000.0,103000.0,-608000.0,97443.2373,48.04,0.0,0.492990464,41.57487869,128.4560852,0.199999988,-669.8707275,26.53814697,70.0
2018-09-11 18:48:47.400,-0.195,-0.28,-0.32,0.2941995,0.81395195,13.533177,-1171000.0,103000.0,-608000.0,97443.2373,48.03,0.0,0.492990464,41.57487869,128.4560852,0.199999988,-669.8707275,26.53814697,70.0
2018-09-11 18:48:47.440,-0.211,-0.283,-0.3236666666666666,0.2680484333333333,0.75511205,13.624705733333334,-1146000.0,103666.66666666669,-605333.3333333334,97441.91690666668,48.03,0.0,0.492990464,41.57487869,128.4560852,0.219999999,-684.3536377,25.63475037,70.0
2018-09-11 18:48:47.480,-0.227,-0.286,-0.3273333333333333,0.2418973666666666,0.69627215,13.716234466666666,-1121000.0,104333.33333333331,-602666.6666666666,97440.59651333332,48.03,0.0,0.492990464,41.57487869,128.4560852,0.2224999965,-684.3536377,25.406946185,69.75
2018-09-11 18:48:47.520,-0.243,-0.289,-0.331,0.2157463,0.63743225,13.8077632,-1096000.0,105000.0,-600000.0,97439.27612,48.03,0.0,0.492990464,41.57487869,128.4560852,0.2249999939999999,-684.3536377,25.179142,69.5
2018-09-11 18:48:47.560,-0.2416666666666666,-0.2833333333333333,-0.3246666666666666,0.1928641166666666,0.5818612333333334,13.9058297,-1105333.3333333333,100000.0,-598666.6666666666,97438.4847,48.02666666666667,0.0,0.492990464,41.57487869,128.4560852,0.2274999915,-684.3536377,24.951337815,69.25
2018-09-11 18:48:47.600,-0.2403333333333333,-0.2776666666666667,-0.3183333333333333,0.1699819333333333,0.5262902166666666,14.0038962,-1114666.6666666667,95000.0,-597333.3333333334,97437.69328,48.02333333333333,0.0,0.492990464,41.57487869,128.4560852,0.229999989,-684.3536377,24.72353363,69.0
