time,field.angular_velocity.x,field.angular_velocity.y,field.angular_velocity.z,field.linear_acceleration.x,field.linear_acceleration.y,field.linear_acceleration.z,field.magnetic_field.x,field.magnetic_field.y,field.magnetic_field.z,field.fluid_pressure,field.temperature,field.alt_error,field.aspd_error,field.xtrack_error,field.wp_dist,field.measured.pitch,field.measured.roll,field.measured.yaw,fault_state,field.airspeed
55:38.3,0.401666667,-0.080666667,-0.105666667,-0.359577167,0.434761483,10.95402805,-18666.66667,-236000,-476333.3333,97158.34351,37.98,0.124999996,-346.0920868,-42.29777146,2,-6.358560562,17.74107742,-95.6631546,0,0
55:38.3,0.318333333,-0.084333333,-0.099333333,-0.385728233,0.467450317,11.20900095,-16333.33333,-242000,-473666.6667,97159.55811,37.98,0.179999992,-345.677948,-41.42830658,3,-6.358560562,17.74107742,-95.6631546,0,0
55:38.4,0.235,-0.088,-0.093,-0.4118793,0.50013915,11.46397385,-14000,-248000,-471000,97160.77271,37.98,0.179999992,-345.677948,-41.42830658,3,-6.358560562,17.74107742,-95.6631546,0,0
55:38.4,0.276333333,-0.092666667,-0.088666667,-0.438030367,0.523021333,11.64049355,-13666.66667,-250333.3333,-468333.3333,97160.45939,37.98,0.229999997,-345.677948,-211.6160698,3.5,-6.358560562,17.74107742,-95.6631546,0,0
55:38.4,0.317666667,-0.097333333,-0.084333333,-0.464181433,0.545903517,11.81701325,-13333.33333,-252666.6667,-465666.6667,97160.14608,37.98,0.280000001,-345.677948,-381.803833,4,-6.358560562,17.74107742,-95.6631546,0,0
55:38.5,0.359,-0.102,-0.08,-0.4903325,0.5687857,11.99353295,-13000,-255000,-463000,97159.83276,37.98,0.370000005,-251.0904236,-380.0540466,6,-6.358560562,17.74107742,-95.6631546,0,0
55:38.5,0.444,-0.106,-0.0925,-0.465815875,0.642335575,11.83172323,-13500,-262000,-451500,97160.44922,37.975,0.370000005,-251.0904236,-380.0540466,6,-6.358560562,17.74107742,-95.6631546,0,0
55:38.6,0.529,-0.11,-0.105,-0.44129925,0.71588545,11.6699135,-14000,-269000,-440000,97161.06567,37.97,0.370000005,-251.0904236,-380.0540466,6,-6.358560562,17.74107742,-95.6631546,0,0
55:38.6,0.524,-0.104666667,-0.121,-0.438030367,0.660314433,11.37244512,-13666.66667,-273666.6667,-434666.6667,97160.04028,37.97,0.409999997,-251.0904236,-379.1749115,7,-5.72073555,21.70539665,-93.77409744,0,0
55:38.6,0.519,-0.099333333,-0.137,-0.434761483,0.604743417,11.07497673,-13333.33333,-278333.3333,-429333.3333,97159.01489,37.97,0.449999988,-251.0904236,-378.2957764,8,-5.082910538,25.66971588,-91.88504028,0,0
55:38.7,0.514,-0.094,-0.153,-0.4314926,0.5491724,10.77750835,-13000,-283000,-424000,97157.9895,37.97,0.484999985,-249.2494507,-377.420868,9,-5.082910538,25.66971588,-91.88504028,0,0
55:38.7,0.4485,-0.085,-0.1515,-0.446202575,0.710982125,10.48821218,-9000,-292000,-424000,97159.93652,37.97,0.519999981,-247.4084778,-376.5459595,10,-5.082910538,25.66971588,-91.88504028,0,0
55:38.8,0.383,-0.076,-0.15,-0.46091255,0.87279185,10.198916,-5000,-301000,-424000,97161.88354,37.97,0.519999981,-247.4084778,-376.5459595,10,-5.082910538,25.66971588,-91.88504028,0,0
55:38.8,0.345333333,-0.068,-0.167,-0.483794733,0.849909667,10.21526042,-1333.333333,-304666.6667,-413000,97161.54174,37.96666667,0.589999974,-247.4084778,-374.7877197,12,-5.082910538,25.66971588,-91.88504028,0,0
55:38.8,0.307666667,-0.06,-0.184,-0.506676917,0.827027483,10.23160483,2333.333333,-308333.3333,-402000,97161.19995,37.96333333,0.589999974,-247.4084778,-374.7877197,12,-5.082910538,25.66971588,-91.88504028,0,0
55:38.9,0.27,-0.052,-0.201,-0.5295591,0.8041453,10.24794925,6000,-312000,-391000,97160.85815,37.96,0.669999957,-249.3776245,-373.0463562,13,-5.082910538,25.66971588,-91.88504028,0,0
55:38.9,0.282,-0.0325,-0.2125,-0.534462425,0.946341725,9.909619825,9000,-316500,-386000,97159.59168,37.96,0.669999957,-249.3776245,-373.0463562,13,-5.082910538,25.66971588,-91.88504028,0,0
55:39.0,0.294,-0.013,-0.224,-0.53936575,1.08853815,9.5712904,12000,-321000,-381000,97158.3252,37.96,0.709999979,-249.3776245,-372.1672364,14,-5.37723279,29.73426628,-89.66537094,0,0
55:39.0,0.275666667,-0.007,-0.253333333,-0.594936767,1.065655967,9.084226783,16666.66667,-322666.6667,-378333.3333,97158.7972,37.96,0.75,-249.3776245,-371.2881165,15,-5.671555042,33.79881668,-87.4457016,0,0
55:39.0,0.257333333,-0.001,-0.282666667,-0.650507783,1.042773783,8.597163167,21333.33333,-324333.3333,-375666.6667,97159.26921,37.96,0.75,-249.3776245,-371.2881165,15,-5.671555042,33.79881668,-87.4457016,0,0
55:39.1,0.239,0.005,-0.312,-0.7060788,1.0198916,8.11009955,26000,-326000,-373000,97159.74121,37.96,0.839999974,-345.6697388,-369.5635986,17,-5.671555042,33.79881668,-87.4457016,0,0
55:39.1,0.2225,0.0025,-0.3335,-0.730595425,0.97085835,7.889449925,31000,-331000,-376000,97160.39429,37.96,0.839999974,-345.6697388,-369.5635986,17,-5.671555042,33.79881668,-87.4457016,0,0
55:39.2,0.206,-4.35E-17,-0.355,-0.75511205,0.9218251,7.6688003,36000,-336000,-379000,97161.04736,37.96,0.879999976,-345.6697388,-368.9831441,17.66666667,-5.671555042,33.79881668,-87.4457016,0,0
55:39.2,0.171333333,-0.002,-0.362,-0.797607533,0.856447433,7.662262533,40666.66667,-337333.3333,-378666.6667,97160.26611,37.95666667,0.919999977,-345.6697388,-368.4026896,18.33333333,-5.671555042,33.79881668,-87.4457016,0,0
55:39.2,0.136666667,-0.004,-0.369,-0.840103017,0.791069767,7.655724767,45333.33333,-338666.6667,-378333.3333,97159.48486,37.95333333,0.959999979,-345.6697388,-367.8222351,19,-5.671555042,33.79881668,-87.4457016,0,0
55:39.3,0.102,-0.006,-0.376,-0.8825985,0.7256921,7.649187,50000,-340000,-378000,97158.70361,37.95,1.120000005,-340.6890869,-366.1147156,20,-5.671555042,33.79881668,-87.4457016,0,0
55:39.3,0.083,-0.0065,-0.376,-0.87279185,0.691368825,7.565830475,58000,-340000,-373500,97160.46143,37.95,1.120000005,-340.6890869,-366.1147156,20,-9.678312302,36.85766983,-81.26378632,0,0
55:39.4,0.064,-0.007,-0.376,-0.8629852,0.65704555,7.48247395,66000,-340000,-369000,97162.21924,37.95,1.209999979,-340.6890869,-365.2567292,21,-9.678312302,36.85766983,-81.26378632,0,0
55:39.4,-0.0025,-0.016,-0.36,-0.897308475,0.534462425,7.987516425,75000,-339000,-367000,97162.73499,37.95,1.299999952,-340.6890869,-364.3987427,22,-9.678312302,36.85766983,-81.26378632,0,0
55:39.4,-0.069,-0.025,-0.344,-0.93163175,0.4118793,8.4925589,84000,-338000,-365000,97163.25073,37.95,1.299999952,-340.6890869,-364.3987427,22,-9.678312302,36.85766983,-81.26378632,0,0
55:39.5,-0.053,-0.02525,-0.33125,-0.938986738,0.392266,8.56120545,87250,-337000,-365750,97162.94403,37.9475,1.519999981,-333.3229065,-362.7079163,24,-9.678312302,36.85766983,-81.26378632,0,0
55:39.5,-0.037,-0.0255,-0.3185,-0.946341725,0.3726527,8.629852,90500,-336000,-366500,97162.63733,37.945,1.519999981,-333.3229065,-362.7079163,24,-9.678312302,36.85766983,-81.26378632,0,0
55:39.6,-0.021,-0.02575,-0.30575,-0.953696713,0.3530394,8.69849855,93750,-335000,-367250,97162.33063,37.9425,1.769999981,-333.3229065,-361.0172424,26,-9.678312302,36.85766983,-81.26378632,0,0
55:39.6,-0.005,-0.026,-0.293,-0.9610517,0.3334261,8.7671451,97000,-334000,-368000,97162.02393,37.94,1.769999981,-333.3229065,-361.0172424,26,-9.678312302,36.85766983,-81.26378632,0,0
55:39.6,-0.002,-0.024,-0.2775,-0.965955025,0.3138128,8.673981925,104000,-331500,-369000,97164.19068,37.94,1.769999981,-333.3229065,-361.0172424,26,-9.678312302,36.85766983,-81.26378632,0,0
55:39.7,0.001,-0.022,-0.262,-0.97085835,0.2941995,8.58081875,111000,-329000,-370000,97166.35742,37.94,1.769999981,-333.3229065,-361.0172424,26,-9.678312302,36.85766983,-81.26378632,0,0
55:39.7,-0.0435,-0.0135,-0.2365,-1.02969825,0.2745862,8.271909275,114000,-327000,-372000,97166.94031,37.94,2.039999962,-295.9415283,-359.3604126,28,-9.678312302,36.85766983,-81.26378632,0,0
55:39.8,-0.088,-0.005,-0.211,-1.08853815,0.2549729,7.9629998,117000,-325000,-374000,97167.52319,37.94,2.189999938,-295.9415283,-358.5235596,28.5,-13.77045059,34.93192291,-74.16228485,0,0
55:39.8,-0.074,-0.008666667,-0.196666667,-1.10815145,0.297468383,8.01203305,121000,-323666.6667,-373333.3333,97168.0664,37.94,2.264999926,-295.9415283,-358.105133,28.75,-13.77045059,34.93192291,-74.16228485,0,0
55:39.8,-0.06,-0.012333333,-0.182333333,-1.12776475,0.339963867,8.0610663,125000,-322333.3333,-372666.6667,97168.60962,37.94,2.339999914,-295.9415283,-357.6867065,29,-13.77045059,34.93192291,-74.16228485,0,0
55:39.9,-0.046,-0.016,-0.168,-1.14737805,0.38245935,8.11009955,129000,-321000,-372000,97169.15283,37.94,2.504999876,-291.7183838,-356.8582916,30,-13.77045059,34.93192291,-74.16228485,0,0
55:39.9,-0.041,-0.0205,-0.1645,-1.12776475,0.495235825,8.2964259,130500,-318500,-372500,97171.44165,37.94,2.669999838,-287.4952393,-356.0298767,31,-13.77045059,34.93192291,-74.16228485,0,0
55:40.0,-0.036,-0.025,-0.161,-1.10815145,0.6080123,8.48275225,132000,-316000,-373000,97173.73047,37.94,2.669999838,-287.4952393,-356.0298767,31,-13.77045059,34.93192291,-74.16228485,0,0
55:40.0,-0.046333333,-0.021333333,-0.161333333,-1.160453583,0.604743417,8.6886919,135000,-314333.3333,-373333.3333,97174.67041,37.93666667,2.84499991,-287.4952393,-355.2141419,32,-13.77045059,34.93192291,-74.16228485,0,0
55:40.0,-0.056666667,-0.017666667,-0.161666667,-1.212755717,0.601474533,8.89463155,138000,-312666.6667,-373666.6667,97175.61035,37.93333333,3.019999981,-287.4952393,-354.398407,33,-13.77045059,34.93192291,-74.16228485,0,0
55:40.1,-0.067,-0.014,-0.162,-1.26505785,0.59820565,9.1005712,141000,-311000,-374000,97176.55029,37.93,3.389999866,-287.8717346,-352.7922363,35,-13.77045059,34.93192291,-74.16228485,0,0
55:40.1,-0.078,-0.017,-0.17,-1.260154525,0.7060788,9.232960975,144500,-308000,-374000,97177.78626,37.93,3.389999866,-287.8717346,-352.7922363,35,-13.77045059,34.93192291,-74.16228485,0,0
55:40.2,-0.089,-0.02,-0.178,-1.2552512,0.81395195,9.36535075,148000,-305000,-374000,97179.02222,37.93,3.779999971,-287.8717346,-351.1945801,37,-13.77045059,34.93192291,-74.16228485,0,0
55:40.2,-0.094666667,-0.018666667,-0.192666667,-1.258520083,0.77472535,9.587634817,149333.3333,-303333.3333,-376666.6667,97180.67831,37.93,3.779999971,-287.8717346,-351.1945801,37,-15.87820435,32.22783279,-69.55789185,0,0
55:40.2,-0.100333333,-0.017333333,-0.207333333,-1.261788967,0.73549875,9.809918883,150666.6667,-301666.6667,-379333.3333,97182.33439,37.93,3.9799999,-287.5428162,-350.4126282,37.5,-15.87820435,32.22783279,-69.55789185,0,0
55:40.3,-0.106,-0.016,-0.222,-1.26505785,0.69627215,10.03220295,152000,-300000,-382000,97183.99048,37.93,4.179999828,-287.2138977,-349.6306763,38,-15.87820435,32.22783279,-69.55789185,0,0
55:40.3,-0.129,-0.006,-0.218,-1.289574475,0.69627215,9.5712904,155000,-298000,-384000,97186.07178,37.925,4.179999828,-287.2138977,-349.6306763,38,-15.87820435,32.22783279,-69.55789185,0,0
55:40.4,-0.152,0.004,-0.214,-1.3140911,0.69627215,9.11037785,158000,-296000,-386000,97188.15308,37.92,4.179999828,-287.2138977,-349.6306763,38,-15.87820435,32.22783279,-69.55789185,0,0
55:40.4,-0.190333333,0.006333333,-0.211,-1.34351105,0.653776667,9.11037785,159666.6667,-292666.6667,-389666.6667,97189.63827,37.92,4.487499833,-288.9185867,-348.4535752,39.5,-15.87820435,32.22783279,-69.55789185,0,0
55:40.4,-0.228666667,0.008666667,-0.208,-1.372931,0.611281183,9.11037785,161333.3333,-289333.3333,-393333.3333,97191.12345,37.92,4.794999838,-290.6232758,-347.276474,41,-15.87820435,32.22783279,-69.55789185,0,0
55:40.5,-0.267,0.011,-0.205,-1.40235095,0.5687857,9.11037785,163000,-286000,-397000,97192.60864,37.92,4.902499795,-292.3279648,-346.8812943,41.5,-15.87820435,32.22783279,-69.55789185,0,0
55:40.5,-0.229,0.0125,-0.2085,-1.436674225,0.554075725,8.83579165,165500,-281000,-402000,97194.55567,37.92,5.009999752,-294.0326538,-346.4861145,42,-15.87820435,32.22783279,-69.55789185,0,0
55:40.6,-0.191,0.014,-0.212,-1.4709975,0.53936575,8.56120545,168000,-276000,-407000,97196.50269,37.92,5.009999752,-294.0326538,-346.4861145,42,-15.87820435,32.22783279,-69.55789185,0,0
55:40.6,-0.182,0.015666667,-0.208,-1.454653083,0.57859235,8.466407833,171000,-272666.6667,-407000,97197.46908,37.92,5.234999895,-294.0326538,-345.6914368,43,-15.87820435,32.22783279,-69.55789185,0,0
55:40.6,-0.173,0.017333333,-0.204,-1.438308667,0.61781895,8.371610217,174000,-269333.3333,-407000,97198.43547,37.92,5.460000038,-294.0326538,-344.896759,44,-15.87820435,32.22783279,-69.55789185,0,0
55:40.7,-0.164,0.019,-0.2,-1.42196425,0.65704555,8.2768126,177000,-266000,-407000,97199.40186,37.92,5.920000076,-315.4725952,-343.3244934,46,-15.87820435,32.22783279,-69.55789185,0,0
55:40.7,-0.191,0.018333333,-0.196666667,-1.474266383,0.640701133,8.623314233,178666.6667,-262666.6667,-410666.6667,97201.89413,37.92,5.920000076,-315.4725952,-343.3244934,46,-19.28015518,25.07120705,-63.0133934,0,0
55:40.8,-0.218,0.017666667,-0.193333333,-1.526568517,0.624356717,8.969815867,180333.3333,-259333.3333,-414333.3333,97204.38639,37.92,6.399999619,-315.4725952,-341.7521362,47,-19.28015518,25.07120705,-63.0133934,0,0
55:40.8,-0.245,0.017,-0.19,-1.57887065,0.6080123,9.3163175,182000,-256000,-418000,97206.87866,37.92,6.399999619,-315.4725952,-341.7521362,47,-19.28015518,25.07120705,-63.0133934,0,0
55:40.8,-0.262,0.0175,-0.1885,-1.57887065,0.524655775,9.419287325,185000,-250000,-421000,97208.78601,37.915,6.899999619,-317.9937439,-340.1967468,49,-19.28015518,25.07120705,-63.0133934,0,0
55:40.9,-0.279,0.018,-0.187,-1.57887065,0.44129925,9.52225715,188000,-244000,-424000,97210.69336,37.91,6.899999619,-317.9937439,-340.1967468,49,-19.28015518,25.07120705,-63.0133934,0,0
55:40.9,-0.245,0.0185,-0.188,-1.5886773,0.5687857,9.414384,189500,-237500,-427500,97214.98719,37.91,6.899999619,-317.9937439,-340.1967468,49,-19.28015518,25.07120705,-63.0133934,0,0
55:41.0,-0.211,0.019,-0.189,-1.59848395,0.69627215,9.30651085,191000,-231000,-431000,97219.28101,37.91,6.899999619,-317.9937439,-340.1967468,49,-19.28015518,25.07120705,-63.0133934,0,0
55:41.0,-0.2195,0.018,-0.187,-1.610742263,0.615367288,9.360447425,192250,-227750,-433250,97220.02259,37.91,7.399999619,-317.9937439,-338.632843,51,-19.28015518,25.07120705,-63.0133934,0,0
55:41.0,-0.228,0.017,-0.185,-1.623000575,0.534462425,9.414384,193500,-224500,-435500,97220.76416,37.91,7.649999619,-321.5870819,-337.86026,52,-20.03016091,22.12443352,-61.1680336,0,0
55:41.1,-0.2365,0.016,-0.183,-1.635258888,0.453557563,9.468320575,194750,-221250,-437750,97221.50574,37.91,7.899999619,-325.1804199,-337.087677,53,-20.78016663,19.17765999,-59.3226738,0,0
55:41.1,-0.245,0.015,-0.181,-1.6475172,0.3726527,9.52225715,196000,-218000,-440000,97222.24731,37.91,7.899999619,-325.1804199,-337.087677,53,-20.78016663,19.17765999,-59.3226738,0,0
55:41.2,-0.264,0.008,-0.167,-1.6279039,0.34323275,9.9047165,199000,-206000,-448000,97234.09424,37.91,8.420000076,-325.1804199,-335.5237732,55,-20.78016663,19.17765999,-59.3226738,0,0
55:41.2,-0.240333333,0.009333333,-0.165333333,-1.640979433,0.330157217,9.62032365,199333.3333,-201333.3333,-451000,97234.04745,37.90666667,8.420000076,-325.1804199,-335.5237732,55,-20.78016663,19.17765999,-59.3226738,0,0
55:41.2,-0.216666667,0.010666667,-0.163666667,-1.654054967,0.317081683,9.3359308,199666.6667,-196666.6667,-454000,97234.00065,37.90333333,8.93999958,-346.3575439,-334.0869446,57,-20.78016663,19.17765999,-59.3226738,0,0
55:41.3,-0.193,0.012,-0.162,-1.6671305,0.30400615,9.05153795,200000,-192000,-457000,97233.95386,37.9,8.93999958,-346.3575439,-334.0869446,57,-20.78016663,19.17765999,-59.3226738,0,0
55:41.3,-0.1755,0.0135,-0.15,-1.672033825,0.328522775,8.948568125,202500,-187000,-457000,97239.53553,37.9,8.93999958,-346.3575439,-334.0869446,57,-20.78016663,19.17765999,-59.3226738,0,0
55:41.4,-0.158,0.015,-0.138,-1.67693715,0.3530394,8.8455983,205000,-182000,-457000,97245.11719,37.9,9.469999313,-347.3575439,-332.5267639,59,-20.78016663,19.17765999,-59.3226738,0,0
55:41.4,-0.141666667,0.009,-0.124333333,-1.67693715,0.369383817,9.260746483,207333.3333,-178333.3333,-453333.3333,97245.68889,37.9,9.469999313,-347.3575439,-332.5267639,59,-21.85302353,13.6619215,-55.77936935,0,0
55:41.4,-0.125333333,0.003,-0.110666667,-1.67693715,0.385728233,9.675894667,209666.6667,-174666.6667,-449666.6667,97246.26058,37.9,9.734999657,-355.3956909,-331.7593994,60,-21.85302353,13.6619215,-55.77936935,0,0
55:41.5,-0.109,-0.003,-0.097,-1.67693715,0.40207265,10.09104285,212000,-171000,-446000,97246.83228,37.9,10,-363.4338379,-330.9920349,61,-21.85302353,13.6619215,-55.77936935,0,0
55:41.5,-0.0945,0.0055,-0.07,-1.730873725,0.3726527,9.80665,211000,-167000,-451500,97250.61951,37.895,10,-363.4338379,-330.9920349,61,-21.85302353,13.6619215,-55.77936935,0,0
55:41.6,-0.08,0.014,-0.043,-1.7848103,0.34323275,9.52225715,210000,-163000,-457000,97254.40674,37.89,10.55000019,-363.4338379,-329.4148254,63,-21.85302353,13.6619215,-55.77936935,0,0
55:41.6,-0.083666667,0.011666667,-0.033333333,-1.8240369,0.300737267,9.4339973,210333.3333,-162000,-459000,97256.20524,37.89333333,10.55000019,-363.4338379,-329.4148254,63,-21.85302353,13.6619215,-55.77936935,0,0
55:41.6,-0.087333333,0.009333333,-0.023666667,-1.8632635,0.258241783,9.34573745,210666.6667,-161000,-461000,97258.00375,37.89666667,10.55000019,-363.4338379,-329.4148254,63,-21.85302353,13.6619215,-55.77936935,0,0
55:41.7,-0.091,0.007,-0.014,-1.9024901,0.2157463,9.2574776,211000,-160000,-463000,97259.80225,37.9,10.82499981,-357.3200226,-328.6431122,64,-21.85302353,13.6619215,-55.77936935,0,0
55:41.7,-0.102333333,0.003666667,-0.008333333,-1.918834517,0.169981933,9.250939833,210000,-158666.6667,-463666.6667,97263.42163,37.89666667,11.09999943,-351.2062073,-327.8713989,65,-21.85302353,13.6619215,-55.77936935,0,0
55:41.8,-0.113666667,0.000333333,-0.002666667,-1.935178933,0.124217567,9.244402067,209000,-157333.3333,-464333.3333,97267.04102,37.89333333,11.37499953,-351.2062073,-327.0911865,66,-21.97907639,12.19957447,-55.0350914,0,0
55:41.8,-0.125,-0.003,0.003,-1.95152335,0.0784532,9.2378643,208000,-156000,-465000,97270.6604,37.89,11.64999962,-351.2062073,-326.3109741,67,-22.10512924,10.73722744,-54.29081345,0,0
55:41.8,-0.138,-0.003,0.002,-1.95152335,0.102969825,9.429093975,208500,-153000,-466500,97273.27881,37.89,11.64999962,-351.2062073,-326.3109741,67,-22.10512924,10.73722744,-54.29081345,0,0
55:41.9,-0.151,-0.003,0.001,-1.95152335,0.12748645,9.62032365,209000,-150000,-468000,97275.89722,37.89,12.21000004,-373.8592224,-325.2862854,69,-22.10512924,10.73722744,-54.29081345,0,0
55:41.9,-0.1635,-0.0015,-0.001,-1.93191005,0.240262925,9.62032365,209500,-147500,-467500,97278.79029,37.89,12.21000004,-373.8592224,-325.2862854,69,-22.10512924,10.73722744,-54.29081345,0,0
55:42.0,-0.176,-3.67E-19,-0.003,-1.91229675,0.3530394,9.62032365,210000,-145000,-467000,97281.68335,37.89,12.21000004,-373.8592224,-325.2862854,69,-22.10512924,10.73722744,-54.29081345,0,0
55:42.0,-0.152,-0.000333333,-0.015333333,-1.895952333,0.418417067,9.633399183,210000,-143333.3333,-468000,97283.73006,37.89,12.7699995,-372.8591919,-323.6930847,71,-22.10512924,10.73722744,-54.29081345,0,0
55:42.0,-0.128,-0.000666667,-0.027666667,-1.879607917,0.483794733,9.646474717,210000,-141666.6667,-469000,97285.77678,37.89,13.05499983,-376.9758301,-322.9938812,72,-22.10512924,10.73722744,-54.29081345,0,0
55:42.1,-0.104,-0.001,-0.04,-1.8632635,0.5491724,9.65955025,210000,-140000,-470000,97287.82349,37.89,13.34000015,-381.0924683,-322.2946777,73,-22.10512924,10.73722744,-54.29081345,0,0
55:42.1,-0.078,-0.0025,-0.0485,-1.8632635,0.603108975,9.801746675,208000,-136500,-473500,97291.16211,37.885,13.34000015,-381.0924683,-322.2946777,73,-22.10512924,10.73722744,-54.29081345,0,0
55:42.2,-0.052,-0.004,-0.057,-1.8632635,0.65704555,9.9439431,206000,-133000,-477000,97294.50073,37.88,13.90999985,-381.0924683,-320.6767578,75,-22.10512924,10.73722744,-54.29081345,0,0
55:42.2,-0.04325,0.00075,-0.05775,-1.909845088,0.514849125,9.6889702,206250,-132000,-476750,97296.74072,37.88,13.90999985,-381.0924683,-320.6767578,75,-22.06033802,8.966056347,-53.93156624,0,0
55:42.2,-0.0345,0.0055,-0.0585,-1.956426675,0.3726527,9.4339973,206500,-131000,-476500,97298.98071,37.88,13.90999985,-381.0924683,-320.6767578,75,-22.0155468,7.194885254,-53.57231903,0,0
55:42.3,-0.02575,0.01025,-0.05925,-2.003008263,0.230456275,9.1790244,206750,-130000,-476250,97301.2207,37.88,14.09999975,-387.2780559,-320.2546285,75.66666667,-22.0155468,7.194885254,-53.57231903,0,0
55:42.3,-0.017,0.015,-0.06,-2.04958985,0.08825985,8.9240515,207000,-129000,-476000,97303.46069,37.88,14.28999964,-393.4636434,-319.8324992,76.33333333,-22.0155468,7.194885254,-53.57231903,0,0
55:42.4,0.0495,0.005,-0.0535,-2.02997655,-0.00980665,9.890006525,205500,-127000,-482000,97308.23364,37.88,14.47999954,-399.649231,-319.4103699,77,-22.0155468,7.194885254,-53.57231903,0,0
55:42.4,0.116,-0.005,-0.047,-2.01036325,-0.10787315,10.85596155,204000,-125000,-488000,97313.00659,37.88,14.76999951,-399.649231,-318.5644532,78,-22.0155468,7.194885254,-53.57231903,0,0
55:42.4,0.144,-0.0115,-0.0365,-1.99074995,-0.0392266,10.9049948,207500,-125000,-482000,97314.55994,37.88,15.05999947,-399.649231,-317.7185364,79,-22.0155468,7.194885254,-53.57231903,0,0
55:42.5,0.172,-0.018,-0.026,-1.97113665,0.02941995,10.95402805,211000,-125000,-476000,97316.11328,37.88,15.34499979,-411.5183716,-316.8773499,80,-22.0155468,7.194885254,-53.57231903,0,0
55:42.5,0.146,-0.012,-0.018333333,-1.958061117,0.277855083,11.05209455,210666.6667,-127000,-474666.6667,97317.95858,37.88,15.77249933,-417.4529419,-315.4057465,81.5,-21.93868542,7.633113385,-53.02042008,0,0
55:42.6,0.12,-0.006,-0.010666667,-1.944985583,0.526290217,11.15016105,210333.3333,-129000,-473333.3333,97319.80387,37.88,16.19999886,-423.3875122,-313.9341431,83,-21.86182404,8.071341515,-52.46852112,0,0
55:42.6,0.094,-3.67E-19,-0.003,-1.93191005,0.77472535,11.24822755,210000,-131000,-472000,97321.64917,37.88,16.19999886,-423.3875122,-313.9341431,83,-21.86182404,8.071341515,-52.46852112,0,0
55:42.6,0.102,-0.001333333,-0.017666667,-1.977674417,0.65704555,11.14362328,209666.6667,-132000,-472000,97324.15771,37.87666667,16.19999886,-423.3875122,-313.9341431,83,-21.86182404,8.071341515,-52.46852112,0,0
55:42.7,0.11,-0.002666667,-0.032333333,-2.023438783,0.53936575,11.03901902,209333.3333,-133000,-472000,97326.66626,37.87333333,16.75,-437.4172363,-312.1821594,85,-21.86182404,8.071341515,-52.46852112,0,0
55:42.7,0.118,-0.004,-0.047,-2.06920315,0.42168595,10.93441475,209000,-134000,-472000,97329.1748,37.87,16.75,-437.4172363,-312.1821594,85,-21.86182404,8.071341515,-52.46852112,0,0
55:42.8,0.074,-0.03,-0.066,-2.06920315,0.4118793,12.0033396,210000,-136000,-468000,97333.40454,37.87,16.75,-437.4172363,-312.1821594,85,-21.86182404,8.071341515,-52.46852112,0,0
55:42.8,0.093333333,-0.024333333,-0.072333333,-2.043052083,0.4903325,11.79739995,211333.3333,-135333.3333,-463000,97337.19889,37.87,17.02499962,-437.4172363,-311.0121918,86,-21.86182404,8.071341515,-52.46852112,0,0
55:42.8,0.112666667,-0.018666667,-0.078666667,-2.016901017,0.5687857,11.5914603,212666.6667,-134666.6667,-458000,97340.99325,37.87,17.29999924,-437.4172363,-309.8422241,87,-21.86182404,8.071341515,-52.46852112,0,0
55:42.9,0.132,-0.013,-0.085,-1.99074995,0.6472389,11.38552065,214000,-134000,-453000,97344.7876,37.87,17.56499958,-451.5921631,-308.9441071,88,-21.86182404,8.071341515,-52.46852112,0,0
55:42.9,0.0625,-0.0105,-0.0885,-2.103526425,0.465815875,10.6304086,212000,-134500,-462500,97345.37354,37.87,17.82999992,-465.7670898,-308.04599,89,-21.86182404,8.071341515,-52.46852112,0,0
55:43.0,-0.007,-0.008,-0.092,-2.2163029,0.28439285,9.87529655,210000,-135000,-472000,97345.95947,37.87,18.09000015,-465.7670898,-305.3183594,90,-21.86182404,8.071341515,-52.46852112,0,0
55:43.0,0.096,-0.0035,-0.094,-2.142753025,0.196133,8.889728225,215000,-134000,-460500,97351.11084,37.87,18.35000038,-465.7670898,-302.5907288,91,-21.86182404,8.071341515,-52.46852112,0,0
55:43.0,0.199,0.001,-0.096,-2.06920315,0.10787315,7.9041599,220000,-133000,-449000,97356.26221,37.87,18.35000038,-465.7670898,-302.5907288,91,-21.68699646,9.235159874,-50.42605209,0,0
55:43.1,0.298333333,0.000333333,-0.09,-2.0790098,0.016344417,7.9041599,219333.3333,-135000,-452000,97358.68124,37.86666667,18.86999893,-493.0246277,-300.6828918,93,-21.68699646,9.235159874,-50.42605209,0,0
55:43.1,0.397666667,-0.000333333,-0.084,-2.08881645,-0.075184317,7.9041599,218666.6667,-137000,-455000,97361.10026,37.86333333,18.86999893,-493.0246277,-300.6828918,93,-21.68699646,9.235159874,-50.42605209,0,0
55:43.2,0.497,-0.001,-0.078,-2.0986231,-0.16671305,7.9041599,218000,-139000,-458000,97363.51929,37.86,18.86999893,-493.0246277,-300.6828918,93,-21.68699646,9.235159874,-50.42605209,0,0
55:43.2,0.463,-0.000333333,-0.055333333,-2.092085333,-0.02941995,8.126443967,219000,-144000,-457333.3333,97363.75122,37.86,19.40999985,-493.0246277,-298.7721558,95,-21.68699646,9.235159874,-50.42605209,0,0
55:43.2,0.429,0.000333333,-0.032666667,-2.085547567,0.10787315,8.348728033,220000,-149000,-456666.6667,97363.98316,37.86,19.40999985,-493.0246277,-298.7721558,95,-21.68699646,9.235159874,-50.42605209,0,0
55:43.3,0.395,0.001,-0.01,-2.0790098,0.24516625,8.5710121,221000,-154000,-456000,97364.21509,37.86,19.40999985,-493.0246277,-298.7721558,95,-21.68699646,9.235159874,-50.42605209,0,0
55:43.3,0.3085,-0.01,-0.0035,-2.1378497,0.30400615,9.340834125,222500,-160500,-454500,97367.95044,37.855,19.96999931,-499.2965698,-292.5317383,98,-21.68699646,9.235159874,-50.42605209,0,0
55:43.4,0.222,-0.021,0.003,-2.1966896,0.36284605,10.11065615,224000,-167000,-453000,97371.68579,37.85,20.25999928,-499.2965698,-291.5334473,99,-21.68699646,9.235159874,-50.42605209,0,0
55:43.4,0.161333333,-0.029,-0.003333333,-2.10842975,0.526290217,10.6304086,223666.6667,-170333.3333,-451333.3333,97374.82707,37.85,20.54999924,-499.2965698,-290.5351563,100,-21.68699646,9.235159874,-50.42605209,0,0
55:43.4,0.100666667,-0.037,-0.009666667,-2.0201699,0.689734383,11.15016105,223333.3333,-173666.6667,-449666.6667,97377.96834,37.85,20.54999924,-499.2965698,-290.5351563,100,-21.54538727,16.36950874,-49.27128601,0,0
55:43.5,0.04,-0.045,-0.016,-1.93191005,0.85317855,11.6699135,223000,-177000,-448000,97381.10962,37.85,21.12999916,-500.0637207,80.2599411,102,-21.54538727,16.36950874,-49.27128601,0,0
55:43.5,0.03,-0.0335,-0.0555,-1.9809433,0.681562175,12.1798593,223500,-176000,-446000,97386.35559,37.855,21.12999916,-500.0637207,80.2599411,102,-21.54538727,16.36950874,-49.27128601,0,0
55:43.6,0.02,-0.022,-0.095,-2.02997655,0.5099458,12.6898051,224000,-175000,-444000,97391.60156,37.86,21.69999886,-500.0637207,80.78066254,104,-21.54538727,16.36950874,-49.27128601,0,0
55:43.6,0.122666667,-0.027333333,-0.110666667,-2.01036325,0.5099458,12.86305592,223666.6667,-175000,-445000,97391.54256,37.85666667,21.69999886,-500.0637207,80.78066254,104,-21.54538727,16.36950874,-49.27128601,0,0
55:43.6,0.225333333,-0.032666667,-0.126333333,-1.99074995,0.5099458,13.03630673,223333.3333,-175000,-446000,97391.48356,37.85333333,21.69999886,-500.0637207,80.78066254,104,-21.54538727,16.36950874,-49.27128601,0,0
55:43.7,0.328,-0.038,-0.142,-1.97113665,0.5099458,13.20955755,223000,-175000,-447000,97391.42456,37.85,22.20999908,-512.5516968,81.30877686,106,-21.54538727,16.36950874,-49.27128601,0,0
55:43.7,0.403,-0.027666667,-0.148666667,-2.016901017,0.457643667,12.06544838,222666.6667,-177333.3333,-447666.6667,97393.49772,37.85,22.4649992,-512.5516968,81.59171295,107,-21.39432812,17.52393532,-48.18601799,0,0
55:43.8,0.478,-0.017333333,-0.155333333,-2.062665383,0.405341533,10.92133922,222333.3333,-179666.6667,-448333.3333,97395.57088,37.85,22.71999931,-512.5516968,81.87464905,108,-21.24326897,18.67836189,-47.10074997,0,0
55:43.8,0.553,-0.007,-0.162,-2.10842975,0.3530394,9.77723005,222000,-182000,-449000,97397.64404,37.85,22.79999924,-517.9451396,81.97261683,108.3333333,-21.24326897,18.67836189,-47.10074997,0,0
55:43.8,0.6345,-0.009,-0.1535,-2.14765635,0.18632635,9.664453575,226000,-189000,-439000,97402.60925,37.85,22.87999916,-523.3385824,82.07058462,108.6666667,-21.24326897,18.67836189,-47.10074997,0,0
55:43.9,0.716,-0.011,-0.145,-2.18688295,0.0196133,9.5516771,230000,-196000,-429000,97407.57446,37.85,22.95999909,-528.7320252,82.1685524,109,-21.24326897,18.67836189,-47.10074997,0,0
55:43.9,0.694,0.0015,-0.131,-2.152559675,0.36284605,7.683510275,232500,-205000,-421000,97410.55908,37.85,23.07999897,-536.8221893,82.31550408,109.5,-21.24326897,18.67836189,-47.10074997,0,0
55:44.0,0.672,0.014,-0.117,-2.1182364,0.7060788,5.81534345,235000,-214000,-413000,97413.5437,37.85,23.19999886,-544.9123535,82.46245575,110,-21.24326897,18.67836189,-47.10074997,0,0
55:44.0,0.587,0.001,-0.136666667,-2.105160867,0.83356525,6.145500667,239000,-219666.6667,-404333.3333,97415.83252,37.84666667,23.71999931,-544.9123535,83.11920929,112,-21.24326897,18.67836189,-47.10074997,0,0
55:44.0,0.502,-0.012,-0.156333333,-2.092085333,0.9610517,6.475657883,243000,-225333.3333,-395666.6667,97418.12134,37.84333333,23.71999931,-544.9123535,83.11920929,112,-21.24326897,18.67836189,-47.10074997,0,0
55:44.1,0.417,-0.025,-0.176,-2.0790098,1.08853815,6.8058151,247000,-231000,-387000,97420.41016,37.84,23.99999905,-537.8883362,83.45630646,113.5,-21.24326897,18.67836189,-47.10074997,0,0
55:44.1,0.324333333,-0.042666667,-0.203666667,-2.114967517,1.052580433,7.220963283,248666.6667,-233666.6667,-380333.3333,97423.20557,37.84,24.27999878,-530.8643188,83.79340363,115,-21.24326897,18.67836189,-47.10074997,0,0
55:44.2,0.231666667,-0.060333333,-0.231333333,-2.150925233,1.016622717,7.636111467,250333.3333,-236333.3333,-373666.6667,97426.00098,37.84,24.57499886,-530.8643188,84.13697815,116,-21.8153677,24.52457619,-45.06301499,0,0
55:44.2,0.139,-0.078,-0.259,-2.18688295,0.980665,8.05125965,252000,-239000,-367000,97428.79639,37.84,24.86999893,-530.8643188,84.48055267,117,-22.38746643,30.37079048,-43.02528,0,0
55:44.2,0.0345,-0.1465,-0.277,-2.172172975,0.79433865,10.52253545,252500,-235000,-370500,97432.42493,37.84,25.48999977,-522.1647339,85.20546722,119,-22.38746643,30.37079048,-43.02528,0,0
55:44.3,-0.07,-0.215,-0.295,-2.157463,0.6080123,12.99381125,253000,-231000,-374000,97436.05347,37.84,25.48999977,-522.1647339,85.20546722,119,-22.38746643,30.37079048,-43.02528,0,0
55:44.3,0.0415,-0.225,-0.285,-2.157463,0.495235825,14.44029213,254500,-227500,-377000,97439.42872,37.84,25.48999977,-522.1647339,85.20546722,119,-22.38746643,30.37079048,-43.02528,0,0
55:44.4,0.153,-0.235,-0.275,-2.157463,0.38245935,15.886773,256000,-224000,-380000,97442.80396,37.84,26.11999893,-522.1647339,85.98606873,121,-22.38746643,30.37079048,-43.02528,0,0
55:44.4,0.201333333,-0.237333333,-0.258333333,-2.164000767,0.3138128,15.63833787,257333.3333,-221666.6667,-377333.3333,97445.85775,37.84,26.11999893,-522.1647339,85.98606873,121,-22.38746643,30.37079048,-43.02528,0,0
55:44.4,0.249666667,-0.239666667,-0.241666667,-2.170538533,0.24516625,15.38990273,258666.6667,-219333.3333,-374666.6667,97448.91154,37.84,26.71999931,-508.9258118,86.84617615,123,-22.38746643,30.37079048,-43.02528,0,0
55:44.5,0.298,-0.242,-0.225,-2.1770763,0.1765197,15.1414676,260000,-217000,-372000,97451.96533,37.84,26.71999931,-508.9258118,86.84617615,123,-22.38746643,30.37079048,-43.02528,0,0
55:44.5,0.3215,-0.2615,-0.21,-2.113333075,0.308909475,15.36702055,258500,-218000,-368500,97456.03333,37.84,26.71999931,-508.9258118,86.84617615,123,-22.38746643,30.37079048,-43.02528,0,0
55:44.6,0.345,-0.281,-0.195,-2.04958985,0.44129925,15.5925735,257000,-219000,-365000,97460.10132,37.84,26.71999931,-508.9258118,86.84617615,123,-22.38746643,30.37079048,-43.02528,0,0
55:44.6,0.288333333,-0.293,-0.193,-2.0005566,0.513214683,15.15781202,256000,-220666.6667,-367666.6667,97460.59977,37.83666667,27.28999901,-508.9258118,87.77588654,125,-20.9933033,31.09152031,-34.29501343,0,0
55:44.6,0.231666667,-0.305,-0.191,-1.95152335,0.585130117,14.72305053,255000,-222333.3333,-370333.3333,97461.09823,37.83333333,27.55499935,-523.2576447,88.28426743,126.5,-20.9933033,31.09152031,-34.29501343,0,0
55:44.7,0.175,-0.317,-0.189,-1.9024901,0.65704555,14.28828905,254000,-224000,-373000,97461.59668,37.83,27.81999969,-537.5894775,88.79264832,128,-20.9933033,31.09152031,-34.29501343,0,0
55:44.7,0.211,-0.326666667,-0.187,-1.8436502,0.59820565,14.97802343,251333.3333,-224333.3333,-379666.6667,97464.31071,37.83,28.07499981,-537.5894775,89.34574509,129,-20.9933033,31.09152031,-34.29501343,0,0
55:44.8,0.247,-0.336333333,-0.185,-1.7848103,0.53936575,15.66775782,248666.6667,-224666.6667,-386333.3333,97467.02474,37.83,28.32999992,-537.5894775,89.89884186,130,-20.9933033,31.09152031,-34.29501343,0,0
55:44.8,0.283,-0.346,-0.183,-1.7259704,0.48052585,16.3574922,246000,-225000,-393000,97469.73877,37.83,28.32999992,-537.5894775,89.89884186,130,-20.9933033,31.09152031,-34.29501343,0,0
55:44.8,0.32,-0.3445,-0.1805,-1.662227175,0.46091255,16.34768555,242000,-225500,-395500,97473.64502,37.83,28.32999992,-537.5894775,89.89884186,130,-20.9933033,31.09152031,-34.29501343,0,0
55:44.9,0.357,-0.343,-0.178,-1.59848395,0.44129925,16.3378789,238000,-226000,-398000,97477.55127,37.83,28.55999947,-521.1288605,90.48601914,131,-20.9933033,31.09152031,-34.29501343,0,0
55:44.9,0.3695,-0.359,-0.176,-1.55925735,0.48052585,16.475172,233000,-228000,-400500,97483.33741,37.83,28.78999901,-504.6682434,91.07319641,132,-20.9933033,31.09152031,-34.29501343,0,0
55:45.0,0.382,-0.375,-0.174,-1.52003075,0.51975245,16.6124651,228000,-230000,-403000,97489.12354,37.83,29.00499916,-504.6682434,91.709095,133,-19.05165673,32.60036946,-30.52653504,0,0
55:45.0,0.317,-0.3885,-0.1655,-1.48080415,0.65704555,16.42123543,225000,-232500,-399000,97490.03296,37.825,29.21999931,-504.6682434,92.34499359,134,-17.11001015,34.1092186,-26.75805664,0,0
55:45.0,0.252,-0.402,-0.157,-1.44157755,0.79433865,16.23000575,222000,-235000,-395000,97490.94238,37.82,29.40499973,-516.3982392,93.01969147,135,-17.11001015,34.1092186,-26.75805664,0,0
55:45.1,0.158,-0.4,-0.166,-1.438308667,0.866254083,16.07636823,218666.6667,-235666.6667,-397333.3333,97493.15185,37.82,29.59000015,-528.1282349,93.69438934,136,-17.11001015,34.1092186,-26.75805664,0,0
55:45.1,0.064,-0.398,-0.175,-1.435039783,0.938169517,15.92273072,215333.3333,-236333.3333,-399666.6667,97495.36133,37.82,29.59000015,-528.1282349,93.69438934,136,-17.11001015,34.1092186,-26.75805664,0,0
55:45.2,-0.03,-0.396,-0.184,-1.4317709,1.01008495,15.7690932,212000,-237000,-402000,97497.5708,37.82,29.76499939,-528.1282349,94.41308594,137,-17.11001015,34.1092186,-26.75805664,0,0
55:45.2,0.0475,-0.403,-0.223,-1.279767825,0.799241975,16.3378789,207000,-234500,-409500,97498.70911,37.82,29.93999863,-528.1282349,95.13178253,138,-17.11001015,34.1092186,-26.75805664,0,0
55:45.2,0.125,-0.41,-0.262,-1.12776475,0.588399,16.9066646,202000,-232000,-417000,97499.84741,37.82,29.93999863,-528.1282349,95.13178253,138,-17.11001015,34.1092186,-26.75805664,0,0
55:45.3,0.085333333,-0.417333333,-0.249666667,-1.082000383,0.57859235,17.07991542,198666.6667,-230333.3333,-417333.3333,97501.1088,37.81666667,30.25,-539.59729,96.65574646,140,-17.11001015,34.1092186,-26.75805664,0,0
55:45.3,0.045666667,-0.424666667,-0.237333333,-1.036236017,0.5687857,17.25316623,195333.3333,-228666.6667,-417666.6667,97502.3702,37.81333333,30.52999878,-539.59729,98.24882507,142,-17.11001015,34.1092186,-26.75805664,0,0
55:45.4,0.006,-0.432,-0.225,-0.99047165,0.55897905,17.42641705,192000,-227000,-418000,97503.63159,37.81,30.52999878,-539.59729,98.24882507,142,-14.98828697,34.41458003,-22.88950284,0,0
55:45.4,0.008333333,-0.433,-0.217333333,-0.9610517,0.61781895,17.64543223,189000,-225000,-423000,97506.26221,37.81333333,30.52999878,-539.59729,98.24882507,142,-12.8665638,34.71994146,-19.02094905,0,0
55:45.4,0.010666667,-0.434,-0.209666667,-0.93163175,0.67665885,17.86444742,186000,-223000,-428000,97508.89282,37.81666667,30.52999878,-539.59729,98.24882507,142,-10.74484062,35.02530289,-15.15239525,0,0
55:45.5,0.013,-0.435,-0.202,-0.9022118,0.73549875,18.0834626,183000,-221000,-433000,97511.52344,37.82,30.73999977,-517.1918945,99.91902161,144,-10.74484062,35.02530289,-15.15239525,0,0
55:45.5,-0.016,-0.425,-0.202,-0.818855275,0.593302325,17.57842013,177000,-218000,-435000,97511.16639,37.82,30.82999993,-517.1918945,100.7906838,145,-10.74484062,35.02530289,-15.15239525,0,0
55:45.6,-0.045,-0.415,-0.202,-0.73549875,0.4511059,17.07337765,171000,-215000,-437000,97510.80933,37.82,30.92000008,-517.1918945,101.6623459,146,-10.74484062,35.02530289,-15.15239525,0,0
55:45.6,-0.015333333,-0.425333333,-0.192333333,-0.73549875,0.4707192,17.12567978,166333.3333,-212000,-438333.3333,97511.86524,37.82,30.92000008,-517.1918945,101.6623459,146,-10.74484062,35.02530289,-15.15239525,0,0
55:45.6,0.014333333,-0.435666667,-0.182666667,-0.73549875,0.4903325,17.17798192,161666.6667,-209000,-439666.6667,97512.92114,37.82,30.94749976,-516.4130707,102.1150971,146.5,-10.74484062,35.02530289,-15.15239525,0,0
55:45.7,0.044,-0.446,-0.173,-0.73549875,0.5099458,17.23028405,157000,-206000,-441000,97513.97705,37.82,30.97499943,-515.6342468,102.5678482,147,-10.74484062,35.02530289,-15.15239525,0,0
55:45.7,0.056,-0.426,-0.1615,-0.5687857,0.456009225,17.62255005,150500,-203500,-443500,97514.61182,37.815,31.02999878,-514.0765991,103.4733505,148,-10.74484062,35.02530289,-15.15239525,0,0
55:45.8,0.068,-0.406,-0.15,-0.40207265,0.40207265,18.01481605,144000,-201000,-446000,97515.24658,37.81,31.02999878,-514.0765991,103.4733505,148,-5.758862972,34.43991852,-7.522959232,0,0
55:45.8,0.066666667,-0.404333333,-0.141,-0.4118793,0.2941995,17.06030212,139666.6667,-201000,-448666.6667,97516.5039,37.81,31.11999893,-514.0765991,105.343544,150,-5.758862972,34.43991852,-7.522959232,0,0
55:45.8,0.065333333,-0.402666667,-0.132,-0.42168595,0.18632635,16.10578818,135333.3333,-201000,-451333.3333,97517.76123,37.81,31.12999916,-485.0700378,107.2481613,152,-5.758862972,34.43991852,-7.522959232,0,0
55:45.9,0.064,-0.401,-0.123,-0.4314926,0.0784532,15.15127425,131000,-201000,-454000,97519.01855,37.81,31.12999916,-485.0700378,107.2481613,152,-5.758862972,34.43991852,-7.522959232,0,0
55:45.9,0.122333333,-0.389333333,-0.100666667,-0.405341533,0.28439285,15.34086948,128000,-200000,-453666.6667,97518.809,37.81,31.12999916,-485.0700378,107.9059092,152.6666667,-5.758862972,34.43991852,-7.522959232,0,0
55:46.0,0.180666667,-0.377666667,-0.078333333,-0.379190467,0.4903325,15.53046472,125000,-199000,-453333.3333,97518.59944,37.81,31.12999916,-485.0700378,108.5636571,153.3333333,-5.758862972,34.43991852,-7.522959232,0,0
55:46.0,0.239,-0.366,-0.056,-0.3530394,0.69627215,15.72005995,122000,-198000,-453000,97518.38989,37.81,31.12999916,-485.0700378,109.221405,154,-5.758862972,34.43991852,-7.522959232,0,0
55:46.0,0.1845,-0.3465,-0.0595,-0.34323275,0.77472535,15.43076378,114000,-200500,-455500,97520.25147,37.805,31.10999966,-474.0131378,110.2396317,154.5,-5.758862972,34.43991852,-7.522959232,0,0
55:46.1,0.13,-0.327,-0.063,-0.3334261,0.85317855,15.1414676,106000,-203000,-458000,97522.11304,37.8,31.09000015,-462.9562378,111.2578583,155,-5.758862972,34.43991852,-7.522959232,0,0
55:46.1,0.1145,-0.327,-0.0725,-0.22555295,1.0198916,16.0044528,100000,-206000,-466000,97521.14563,37.8,31.09000015,-462.9562378,111.2578583,155,-5.758862972,34.43991852,-7.522959232,0,0
55:46.2,0.099,-0.327,-0.082,-0.1176798,1.18660465,16.867438,94000,-209000,-474000,97520.17822,37.8,31.02999878,-462.9562378,113.3157425,157,0.258302718,37.17351913,-0.393690407,0,0
55:46.2,0.085666667,-0.324666667,-0.106,-0.140561983,1.1964113,16.7301449,89666.66667,-210000,-475333.3333,97519.61873,37.8,31.02999878,-462.9562378,113.3157425,157,0.258302718,37.17351913,-0.393690407,0,0
55:46.2,0.072333333,-0.322333333,-0.13,-0.163444167,1.20621795,16.5928518,85333.33333,-211000,-476666.6667,97519.05925,37.8,30.97999859,-451.4357605,114.3551712,158,0.258302718,37.17351913,-0.393690407,0,0
55:46.3,0.059,-0.32,-0.154,-0.18632635,1.2160246,16.4555587,81000,-212000,-478000,97518.49976,37.8,30.9299984,-439.9152832,115.3945999,159,0.258302718,37.17351913,-0.393690407,0,0
55:46.3,0.031666667,-0.293333333,-0.184,-0.091528733,1.124495867,15.42586045,78666.66667,-211333.3333,-479666.6667,97518.98601,37.8,30.9299984,-439.9152832,115.3945999,159,0.258302718,37.17351913,-0.393690407,0,0
55:46.4,0.004333333,-0.266666667,-0.214,0.003268883,1.032967133,14.3961622,76333.33333,-210666.6667,-481333.3333,97519.47225,37.8,30.87499905,-439.9152832,116.4472237,159.5,0.258302718,37.17351913,-0.393690407,0,0
55:46.4,-0.023,-0.24,-0.244,0.0980665,0.9414384,13.36646395,74000,-210000,-483000,97519.9585,37.8,30.81999969,-439.9152832,117.4998474,160,0.258302718,37.17351913,-0.393690407,0,0
55:46.4,0.004,-0.2395,-0.258,0.0392266,0.9022118,13.30272073,67500,-207000,-485500,97517.88331,37.8,30.81999969,-439.9152832,117.4998474,160,2.390031338,37.73616409,4.472177982,0,0
55:46.5,0.031,-0.239,-0.272,-0.0196133,0.8629852,13.2389775,61000,-204000,-488000,97515.80811,37.8,30.75499916,-429.3322602,118.5676804,161,2.390031338,37.73616409,4.472177982,0,0
55:46.5,0.041,-0.235333333,-0.269666667,0.006537767,0.846640783,13.21282643,61333.33333,-203333.3333,-488666.6667,97515.73283,37.79666667,30.6524992,-424.0407486,120.1687012,162,2.390031338,37.73616409,4.472177982,0,0
55:46.6,0.051,-0.231666667,-0.267333333,0.032688833,0.830296367,13.18667537,61666.66667,-202666.6667,-489333.3333,97515.65756,37.79333333,30.54999924,-418.7492371,121.769722,163,2.390031338,37.73616409,4.472177982,0,0
55:46.6,0.061,-0.228,-0.265,0.0588399,0.81395195,13.1605243,62000,-202000,-490000,97515.58228,37.79,30.54999924,-418.7492371,121.769722,163,2.390031338,37.73616409,4.472177982,0,0
55:46.6,0.0845,-0.2215,-0.264,0.02941995,0.848275225,12.35147568,62500,-201000,-490500,97512.41761,37.79,30.47999955,-402.7949372,122.8617173,164,2.390031338,37.73616409,4.472177982,0,0
55:46.7,0.108,-0.215,-0.263,0,0.8825985,11.54242705,63000,-200000,-491000,97509.25293,37.79,30.40999985,-386.8406372,123.9537125,165,2.390031338,37.73616409,4.472177982,0,0
55:46.7,0.072,-0.2195,-0.277,0.004903325,0.7649187,11.52771708,59000,-200000,-488500,97507.70874,37.79,30.40999985,-386.8406372,123.9537125,165,2.390031338,37.73616409,4.472177982,0,0
55:46.8,0.036,-0.224,-0.291,0.00980665,0.6472389,11.5130071,55000,-200000,-486000,97506.16455,37.79,30.40999985,-386.8406372,123.9537125,165,2.390031338,37.73616409,4.472177982,0,0
55:46.8,0.106666667,-0.237666667,-0.288333333,0.022882183,0.6668522,11.99026407,56333.33333,-200000,-487000,97507.25301,37.79,30.28999901,-386.8406372,126.1412048,166,2.872813463,39.55672455,12.55138016,0,0
55:46.8,0.177333333,-0.251333333,-0.285666667,0.035957717,0.6864655,12.46752103,57666.66667,-200000,-488000,97508.34147,37.79,30.15999985,-365.2797852,128.3312683,167,2.872813463,39.55672455,12.55138016,0,0
55:46.9,0.248,-0.265,-0.283,0.04903325,0.7060788,12.944778,59000,-200000,-489000,97509.42993,37.79,30.15999985,-365.2797852,128.3312683,167,2.872813463,39.55672455,12.55138016,0,0
55:46.9,0.2385,-0.251,-0.28,0.0588399,0.622722275,12.7878716,53000,-201500,-490000,97505.5603,37.79,30.15999985,-365.2797852,128.3312683,167,2.872813463,39.55672455,12.55138016,0,0
55:47.0,0.229,-0.237,-0.277,0.06864655,0.53936575,12.6309652,47000,-203000,-491000,97501.69067,37.79,30.03999901,-365.2797852,130.5482178,169,2.872813463,39.55672455,12.55138016,0,0
55:47.0,0.2785,-0.255,-0.2575,0.14709975,0.534462425,12.79767825,51500,-205500,-482500,97504.93774,37.785,30.03999901,-365.2797852,130.5482178,169,2.872813463,39.55672455,12.55138016,0,0
55:47.0,0.328,-0.273,-0.238,0.22555295,0.5295591,12.9643913,56000,-208000,-474000,97508.18481,37.78,30.03999901,-365.2797852,130.5482178,169,2.872813463,39.55672455,12.55138016,0,0
55:47.1,0.2865,-0.2725,-0.231,0.259876225,0.612915625,12.9643913,54500,-209000,-472750,97506.38733,37.78,29.98999882,-357.189087,131.6110077,169.5,2.872813463,39.55672455,12.55138016,0,0
55:47.1,0.245,-0.272,-0.224,0.2941995,0.69627215,12.9643913,53000,-210000,-471500,97504.58984,37.78,29.93999863,-349.0983887,132.6737976,170,2.872813463,39.55672455,12.55138016,0,0
55:47.2,0.2035,-0.2715,-0.217,0.328522775,0.779628675,12.9643913,51500,-211000,-470250,97502.79236,37.78,29.93999863,-349.0983887,132.6737976,170,2.872813463,39.55672455,12.55138016,0,0
55:47.2,0.162,-0.271,-0.21,0.36284605,0.8629852,12.9643913,50000,-212000,-469000,97500.99487,37.78,29.84000015,-349.0983887,134.8491364,171,2.872813463,39.55672455,12.55138016,0,0
55:47.2,0.1245,-0.2725,-0.198,0.495235825,1.12776475,13.01342455,43000,-214000,-468000,97499.45679,37.78,29.84000015,-349.0983887,134.8491364,171,3.499418497,45.57102585,22.44870186,0,0
55:47.3,0.087,-0.274,-0.186,0.6276256,1.3925443,13.0624578,36000,-216000,-467000,97497.9187,37.78,29.79500008,-346.8780518,135.9848099,171.5,3.499418497,45.57102585,22.44870186,0,0
55:47.3,0.0345,-0.256,-0.217,0.5687857,1.397447625,12.160246,33500,-214500,-463000,97502.36206,37.78,29.75,-344.6577148,137.1204834,172,3.499418497,45.57102585,22.44870186,0,0
55:47.4,-0.018,-0.238,-0.248,0.5099458,1.40235095,11.2580342,31000,-213000,-459000,97506.80542,37.78,29.69999981,-344.6577148,138.2154389,172.5,3.499418497,45.57102585,22.44870186,0,0
55:47.4,-0.038666667,-0.241666667,-0.272,0.477256967,1.372931,11.6306869,32000,-212333.3333,-462666.6667,97503.8269,37.77666667,29.64999962,-344.6577148,139.3103943,173,3.499418497,45.57102585,22.44870186,0,0
55:47.4,-0.059333333,-0.245333333,-0.296,0.444568133,1.34351105,12.0033396,33000,-211666.6667,-466333.3333,97500.84839,37.77333333,29.64999962,-344.6577148,139.3103943,173,3.499418497,45.57102585,22.44870186,0,0
55:47.5,-0.08,-0.249,-0.32,0.4118793,1.3140911,12.3759923,34000,-211000,-470000,97497.86987,37.77,29.55999947,-318.9208984,141.5451202,174,3.499418497,45.57102585,22.44870186,0,0
55:47.5,-0.1345,-0.2535,-0.336,0.4118793,1.260154525,12.9251647,30500,-207500,-480000,97500.00305,37.77,29.55999947,-318.9208984,141.5451202,174,3.499418497,45.57102585,22.44870186,0,0
55:47.6,-0.189,-0.258,-0.352,0.4118793,1.20621795,13.4743371,27000,-204000,-490000,97502.13623,37.77,29.51499939,-318.9208984,142.6943054,175,3.405609369,45.50798989,25.83402634,0,0
55:47.6,-0.136333333,-0.266,-0.351,0.415148183,1.140840283,13.6116302,24000,-201333.3333,-495333.3333,97500.80159,37.77,29.46999931,-318.9208984,143.8434906,176,3.311800241,45.44495392,29.21935081,0,0
55:47.6,-0.083666667,-0.274,-0.35,0.418417067,1.075462617,13.7489233,21000,-198666.6667,-500666.6667,97499.46696,37.77,29.46999931,-318.9208984,143.8434906,176,3.311800241,45.44495392,29.21935081,0,0
55:47.7,-0.031,-0.282,-0.349,0.42168595,1.01008495,13.8862164,18000,-196000,-506000,97498.13232,37.77,29.36999893,-331.679718,146.148941,177,3.311800241,45.44495392,29.21935081,0,0
55:47.7,-0.034,-0.2875,-0.3505,0.387362675,0.916921775,13.533177,20000,-193500,-505500,97497.42432,37.77,29.36999893,-331.679718,146.148941,177,3.311800241,45.44495392,29.21935081,0,0
55:47.8,-0.037,-0.293,-0.352,0.3530394,0.8237586,13.1801376,22000,-191000,-505000,97496.71631,37.77,29.36999893,-331.679718,146.148941,177,3.311800241,45.44495392,29.21935081,0,0
55:47.8,-0.026666667,-0.285666667,-0.345,0.30400615,0.728960983,12.9840046,19333.33333,-189000,-505333.3333,97497.68067,37.77,29.32499886,-331.679718,147.3006973,177,3.311800241,45.44495392,29.21935081,0,0
55:47.8,-0.016333333,-0.278333333,-0.338,0.2549729,0.634163367,12.7878716,16666.66667,-187000,-505666.6667,97498.64502,37.77,29.27999878,-331.679718,148.4524536,177,3.311800241,45.44495392,29.21935081,0,0
55:47.9,-0.006,-0.271,-0.331,0.20593965,0.53936575,12.5917386,14000,-185000,-506000,97499.60938,37.77,29.1799984,-312.0779114,150.7396545,178,3.311800241,45.44495392,29.21935081,0,0
55:47.9,-0.047,-0.2835,-0.301,0.259876225,0.392266,12.20927925,9000,-183000,-508500,97494.88831,37.77,29.1799984,-312.0779114,150.7396545,178,3.311800241,45.44495392,29.21935081,0,0
55:48.0,-0.088,-0.296,-0.271,0.3138128,0.24516625,11.8268199,4000,-181000,-511000,97490.16724,37.77,29.07999992,-312.0779114,153.0204468,179,3.311800241,45.44495392,29.21935081,0,0
55:48.0,0.007,-0.304,-0.260666667,0.326888333,0.2941995,12.64077185,4333.333333,-179666.6667,-511666.6667,97488.75936,37.76666667,29.0625,-308.866127,153.5878067,179.25,2.656194329,44.89305497,35.02942371,0,0
55:48.0,0.102,-0.312,-0.250333333,0.339963867,0.34323275,13.4547238,4666.666667,-178333.3333,-512333.3333,97487.35148,37.76333333,29.04500008,-305.6543427,154.1551667,179.5,2.000588417,44.34115601,40.83949661,0,0
55:48.1,0.197,-0.32,-0.24,0.3530394,0.392266,14.26867575,5000,-177000,-513000,97485.9436,37.76,29.02750015,-302.4425583,154.7225266,179.75,2.000588417,44.34115601,40.83949661,0,0
55:48.1,0.2865,-0.335,-0.2235,0.5295591,0.5687857,15.6318001,-1500,-178500,-512500,97484.30786,37.76,29.01000023,-299.2307739,155.2898865,180,2.000588417,44.34115601,40.83949661,0,0
55:48.2,0.376,-0.35,-0.207,0.7060788,0.7453054,16.99492445,-8000,-180000,-512000,97482.67212,37.76,29.01000023,-299.2307739,155.2898865,180,2.000588417,44.34115601,40.83949661,0,0
55:48.2,0.259666667,-0.329666667,-0.189333333,0.611281183,1.193142417,16.0436794,-12333.33333,-184000,-512333.3333,97483.2784,37.76,28.97000027,-299.2307739,156.4119721,180.5,2.000588417,44.34115601,40.83949661,0,0
55:48.2,0.143333333,-0.309333333,-0.171666667,0.516483567,1.640979433,15.09243435,-16666.66667,-188000,-512666.6667,97483.88469,37.76,28.93000031,-299.2307739,157.5340576,181,2.000588417,44.34115601,40.83949661,0,0
55:48.3,0.027,-0.289,-0.154,0.42168595,2.08881645,14.1411893,-21000,-192000,-513000,97484.49097,37.76,28.82999992,-295.6262512,159.7196503,181,2.000588417,44.34115601,40.83949661,0,0
55:48.3,-0.038666667,-0.291666667,-0.215,0.565516817,2.0005566,14.86361252,-21000,-192666.6667,-508000,97486.53158,37.76,28.82999992,-295.6262512,159.7196503,181,2.000588417,44.34115601,40.83949661,0,0
55:48.4,-0.104333333,-0.294333333,-0.276,0.709347683,1.91229675,15.58603573,-21000,-193333.3333,-503000,97488.57218,37.76,28.70999908,-295.6262512,161.9311829,182,2.980892181,47.92557144,49.80799103,0,0
55:48.4,-0.17,-0.297,-0.337,0.85317855,1.8240369,16.30845895,-21000,-194000,-498000,97490.61279,37.76,28.70999908,-295.6262512,161.9311829,182,2.980892181,47.92557144,49.80799103,0,0
55:48.4,-0.167,-0.279,-0.374,0.784532,1.779906975,15.28366403,-28500,-188500,-502000,97488.23547,37.755,28.70999908,-295.6262512,161.9311829,182,2.980892181,47.92557144,49.80799103,0,0
55:48.5,-0.164,-0.261,-0.411,0.71588545,1.73577705,14.2588691,-36000,-183000,-506000,97485.85815,37.75,28.54999924,-302.7486877,164.074234,182,2.980892181,47.92557144,49.80799103,0,0
55:48.5,-0.1665,-0.2435,-0.4265,0.652142225,1.524934075,13.39098058,-33000,-179000,-508500,97485.38208,37.75,28.54999924,-302.7486877,164.074234,182,2.980892181,47.92557144,49.80799103,0,0
55:48.6,-0.169,-0.226,-0.442,0.588399,1.3140911,12.52309205,-30000,-175000,-511000,97484.90601,37.75,28.54999924,-302.7486877,164.074234,182,2.980892181,47.92557144,49.80799103,0,0
55:48.6,-0.13,-0.225666667,-0.440666667,0.5295591,1.08853815,12.05891062,-31333.33333,-171333.3333,-512000,97483.12582,37.75,28.38999939,-302.7486877,166.1875305,182,2.980892181,47.92557144,49.80799103,0,0
55:48.6,-0.091,-0.225333333,-0.439333333,0.4707192,0.8629852,11.59472918,-32666.66667,-167666.6667,-513000,97481.34562,37.75,28.30499935,-308.1895905,167.2268219,182.5,2.980892181,47.92557144,49.80799103,0,0
55:48.7,-0.052,-0.225,-0.438,0.4118793,0.63743225,11.13054775,-34000,-164000,-514000,97479.56543,37.75,28.21999931,-313.6304932,168.2661133,183,2.980892181,47.92557144,49.80799103,0,0
55:48.7,-0.005666667,-0.241,-0.415333333,0.388997117,0.5687857,11.4737805,-34666.66667,-161666.6667,-516333.3333,97477.18709,37.75,28.21999931,-313.6304932,168.2661133,183,2.980892181,47.92557144,49.80799103,0,0
55:48.8,0.040666667,-0.257,-0.392666667,0.366114933,0.50013915,11.81701325,-35333.33333,-159333.3333,-518666.6667,97474.80876,37.75,28.07999992,-313.6304932,170.2969971,183,2.980892181,47.92557144,49.80799103,0,0
55:48.8,0.087,-0.273,-0.37,0.34323275,0.4314926,12.160246,-36000,-157000,-521000,97472.43042,37.75,28.07999992,-313.6304932,170.2969971,183,-0.283220291,45.2314682,61.66480637,0,0
55:48.8,0.173,-0.324,-0.337,0.40207265,0.397169325,13.94015298,-35500,-157500,-521500,97470.88928,37.745,27.93999863,-332.7053223,172.3349304,183,-0.283220291,45.2314682,61.66480637,0,0
55:48.9,0.259,-0.375,-0.304,0.46091255,0.36284605,15.72005995,-35000,-158000,-522000,97469.34814,37.74,27.93999863,-332.7053223,172.3349304,183,-0.283220291,45.2314682,61.66480637,0,0
55:48.9,0.153333333,-0.363,-0.258333333,0.464181433,0.53936575,15.16434978,-39000,-160000,-521333.3333,97467.57812,37.74,27.93999863,-332.7053223,172.3349304,183,-0.283220291,45.2314682,61.66480637,0,0
55:49.0,0.047666667,-0.351,-0.212666667,0.467450317,0.71588545,14.60863962,-43000,-162000,-520666.6667,97465.80811,37.74,27.86999894,-332.7053223,173.3159027,183,-0.283220291,45.2314682,61.66480637,0,0
55:49.0,-0.058,-0.339,-0.167,0.4707192,0.89240515,14.05292945,-47000,-164000,-520000,97464.03809,37.74,27.79999924,-332.7053223,174.296875,183,-0.283220291,45.2314682,61.66480637,0,0
55:49.0,-0.022,-0.3315,-0.1745,0.406975975,0.916921775,13.53808033,-56000,-164000,-527000,97466.67786,37.74,27.72999955,-343.1078034,175.2510453,183,-0.283220291,45.2314682,61.66480637,0,0
55:49.1,0.014,-0.324,-0.182,0.34323275,0.9414384,13.0232312,-65000,-164000,-534000,97469.31763,37.74,27.65999985,-353.5102844,176.2052155,183,-0.283220291,45.2314682,61.66480637,0,0
55:49.1,0.0065,-0.322,-0.1855,0.32361945,1.0591182,12.54270535,-67500,-163500,-529000,97467.12342,37.74,27.65999985,-353.5102844,176.2052155,183,-0.283220291,45.2314682,61.66480637,0,0
55:49.2,-0.001,-0.32,-0.189,0.30400615,1.176798,12.0621795,-70000,-163000,-524000,97464.9292,37.74,27.65999985,-353.5102844,176.2052155,183,-0.283220291,45.2314682,61.66480637,0,0
55:49.2,-0.034,-0.321666667,-0.210333333,0.30400615,1.082000383,12.34657235,-72333.33333,-162000,-525666.6667,97463.87736,37.73666667,27.56249953,-357.3562622,177.582592,183,-0.283220291,45.2314682,61.66480637,0,0
55:49.2,-0.067,-0.323333333,-0.231666667,0.30400615,0.987202767,12.6309652,-74666.66667,-161000,-527333.3333,97462.82552,37.73333333,27.4649992,-361.20224,178.9599686,183,-0.283220291,45.2314682,61.66480637,0,0
55:49.3,-0.1,-0.325,-0.253,0.30400615,0.89240515,12.91535805,-77000,-160000,-529000,97461.77368,37.73,27.43249941,-365.0482178,179.4094963,183,0.421550334,45.63539505,67.82878304,0,0
55:49.3,-0.103333333,-0.322666667,-0.259,0.320350567,0.957782817,12.73556947,-80000,-158333.3333,-530666.6667,97461.44409,37.73333333,27.39999962,-368.8941956,179.859024,183,1.126320958,46.0393219,73.9927597,0,0
55:49.4,-0.106666667,-0.320333333,-0.265,0.336694983,1.023160483,12.55578088,-83000,-156666.6667,-532333.3333,97461.1145,37.73666667,27.27999878,-368.8941956,181.6000061,183,1.126320958,46.0393219,73.9927597,0,0
55:49.4,-0.11,-0.318,-0.271,0.3530394,1.08853815,12.3759923,-86000,-155000,-534000,97460.78491,37.74,27.27999878,-368.8941956,181.6000061,183,1.126320958,46.0393219,73.9927597,0,0
55:49.4,-0.234,-0.3025,-0.291,0.3334261,1.0591182,12.4152189,-91500,-153000,-532000,97462.5061,37.735,27.22499943,-379.6027222,182.4372177,183,1.126320958,46.0393219,73.9927597,0,0
55:49.5,-0.358,-0.287,-0.311,0.3138128,1.02969825,12.4544455,-97000,-151000,-530000,97464.22729,37.73,27.17000008,-390.3112488,183.2744293,183,1.126320958,46.0393219,73.9927597,0,0
55:49.5,-0.298,-0.277666667,-0.317666667,0.277855083,0.934900633,11.9444997,-101333.3333,-146666.6667,-535333.3333,97462.83772,37.73,27.17000008,-390.3112488,183.2744293,183,1.126320958,46.0393219,73.9927597,0,0
55:49.6,-0.238,-0.268333333,-0.324333333,0.241897367,0.840103017,11.4345539,-105666.6667,-142333.3333,-540666.6667,97461.44816,37.73,27.11499978,-390.3112488,184.0992508,183,1.126320958,46.0393219,73.9927597,0,0
55:49.6,-0.178,-0.259,-0.331,0.20593965,0.7453054,10.9246081,-110000,-138000,-546000,97460.05859,37.73,27.05999947,-390.3112488,184.9240723,183,1.126320958,46.0393219,73.9927597,0,0
55:49.6,-0.144,-0.263,-0.344,0.20593965,0.838468575,11.28255083,-110500,-133000,-546000,97457.39136,37.73,27.01499939,-396.6556549,185.7063981,182.5,1.126320958,46.0393219,73.9927597,0,0
55:49.7,-0.11,-0.267,-0.357,0.20593965,0.93163175,11.64049355,-111000,-128000,-546000,97454.72412,37.73,26.99249935,-399.827858,186.0975609,182.25,0.841417521,44.11373711,78.98068237,0,0
55:49.7,-0.0735,-0.256,-0.357,0.161809725,1.0002783,11.75817335,-115000,-125500,-541000,97451.19019,37.725,26.96999931,-403.000061,186.4887238,182,0.556514084,42.18815231,83.96860504,0,0
55:49.8,-0.037,-0.245,-0.357,0.1176798,1.06892485,11.87585315,-119000,-123000,-536000,97447.65625,37.72,26.96999931,-403.000061,186.4887238,182,0.556514084,42.18815231,83.96860504,0,0
55:49.8,-0.033666667,-0.249666667,-0.363,0.134024217,1.013353833,11.96738188,-120000,-121000,-535333.3333,97449.0153,37.72,26.93499947,-403.000061,187.2382584,182,0.556514084,42.18815231,83.96860504,0,0
55:49.8,-0.030333333,-0.254333333,-0.369,0.150368633,0.957782817,12.05891062,-121000,-119000,-534666.6667,97450.37435,37.72,26.89999962,-403.000061,187.987793,182,0.556514084,42.18815231,83.96860504,0,0
55:49.9,-0.027,-0.259,-0.375,0.16671305,0.9022118,12.15043935,-122000,-117000,-534000,97451.7334,37.72,26.81999969,-408.821106,189.4620819,182,0.556514084,42.18815231,83.96860504,0,0
55:49.9,0.0035,-0.2625,-0.373,0.14709975,0.7649187,11.37081068,-122000,-118500,-530500,97450.83008,37.72,26.81999969,-408.821106,189.4620819,182,0.556514084,42.18815231,83.96860504,0,0
55:50.0,0.034,-0.266,-0.371,0.12748645,0.6276256,10.591182,-122000,-120000,-527000,97449.92676,37.72,26.81999969,-408.821106,189.4620819,182,0.556514084,42.18815231,83.96860504,0,0
55:50.0,0.008,-0.273,-0.354333333,0.153637517,0.594936767,11.02921237,-123666.6667,-121666.6667,-530333.3333,97448.40698,37.72,26.78999996,-408.821106,190.1572113,181.5,0.556514084,42.18815231,83.96860504,0,0
55:50.0,-0.018,-0.28,-0.337666667,0.179788583,0.562247933,11.46724273,-125333.3333,-123333.3333,-533666.6667,97446.88721,37.72,26.76000023,-408.821106,190.8523407,181,0.556514084,42.18815231,83.96860504,0,0
55:50.1,-0.044,-0.287,-0.321,0.20593965,0.5295591,11.9052731,-127000,-125000,-537000,97445.36743,37.72,26.70999908,-403.9093018,192.1765289,181,-0.704053462,42.62631989,92.85612488,0,0
55:50.1,-0.1155,-0.307,-0.2895,0.4707192,0.4707192,14.0431228,-131500,-124000,-535500,97442.10816,37.72,26.70999908,-403.9093018,192.1765289,181,-0.704053462,42.62631989,92.85612488,0,0
55:50.2,-0.187,-0.327,-0.258,0.73549875,0.4118793,16.1809725,-136000,-123000,-534000,97438.84888,37.72,26.70999908,-403.9093018,192.1765289,181,-0.704053462,42.62631989,92.85612488,0,0
55:50.2,-0.1915,-0.31,-0.22425,0.728143763,0.544269075,16.02161444,-138750,-120250,-535500,97439.80866,37.7175,26.68499947,-403.9093018,192.8100662,180.5,-0.704053462,42.62631989,92.85612488,0,0
55:50.2,-0.196,-0.293,-0.1905,0.720788775,0.67665885,15.86225638,-141500,-117500,-537000,97440.76844,37.715,26.65999985,-403.9093018,193.4436035,180,-0.704053462,42.62631989,92.85612488,0,0
55:50.3,-0.2005,-0.276,-0.15675,0.713433788,0.809048625,15.70289831,-144250,-114750,-538500,97441.72821,37.7125,26.63499928,-410.5137787,194.0391464,180,-0.704053462,42.62631989,92.85612488,0,0
55:50.3,-0.205,-0.259,-0.123,0.7060788,0.9414384,15.54354025,-147000,-112000,-540000,97442.68799,37.71,26.6099987,-417.1182556,194.6346893,180,-0.704053462,42.62631989,92.85612488,0,0
55:50.4,-0.231,-0.292,-0.099,0.67665885,1.20621795,15.4160538,-162000,-100000,-549000,97442.7002,37.71,26.51999855,-417.1182556,195.718399,179,-0.704053462,42.62631989,92.85612488,0,0
55:50.4,-0.184,-0.249333333,-0.129333333,0.4903325,1.22583125,14.50730423,-165000,-98000,-545000,97443.2312,37.71,26.51999855,-417.1182556,195.718399,179,-0.704053462,42.62631989,92.85612488,0,0
55:50.4,-0.137,-0.206666667,-0.159666667,0.30400615,1.24544455,13.59855467,-168000,-96000,-541000,97443.76221,37.71,26.51999855,-417.1182556,195.718399,179,-0.704053462,42.62631989,92.85612488,0,0
