time,field.angular_velocity.x,field.angular_velocity.y,field.angular_velocity.z,field.linear_acceleration.x,field.linear_acceleration.y,field.linear_acceleration.z,field.magnetic_field.x,field.magnetic_field.y,field.magnetic_field.z,field.fluid_pressure,field.temperature,field.alt_error,field.aspd_error,field.xtrack_error,field.wp_dist,field.measured.pitch,field.measured.roll,field.measured.yaw,fault_state,field.airspeed
2018-07-21 01:02:28.960,0.818,-0.599,0.037,0.3530394,0.48052585,18.17172245,-88000.0,-267000.0,-408000.0,97078.94287,54.6,-1.939999938,-719.1743774,-33.39599228,11.0,13.72381783,15.65132713,-69.91964722,0.0,22.1822185516
2018-07-21 01:02:29.000,0.818,-0.599,0.037,0.3530394,0.48052585,18.17172245,-88000.0,-267000.0,-408000.0,97078.94287,54.6,-1.939999938,-719.1743774,-33.39599228,11.0,13.72381783,15.65132713,-69.91964722,0.0,22.1822185516
2018-07-21 01:02:29.040,0.7306666666666667,-0.5876666666666667,0.0376666666666666,0.26477955,0.6276256,18.10634478333333,-90666.66666666669,-279333.3333333333,-396666.6666666667,97078.94287,54.6,-2.470000029,-733.9360962,-31.34357643,13.0,13.72381783,15.65132713,-69.91964722,0.0,22.1822185516
2018-07-21 01:02:29.080,0.6433333333333333,-0.5763333333333333,0.0383333333333333,0.1765197,0.77472535,18.040967116666668,-93333.33333333331,-291666.6666666667,-385333.3333333333,97078.94287,54.6,-2.470000029,-733.9360962,-31.34357643,13.0,13.72381783,15.65132713,-69.91964722,0.0,22.1822185516
2018-07-21 01:02:29.120,0.556,-0.565,0.039,0.08825985,0.9218251,17.97558945,-96000.0,-304000.0,-374000.0,97078.94287,54.6,-3.069999933,-734.0164185,-29.34503174,15.0,13.72381783,15.65132713,-69.91964722,0.0,22.1822185516
2018-07-21 01:02:29.160,0.4435,-0.5309999999999999,-0.0064999999999999,-0.00980665,1.014988275,17.1616375,-103500.0,-315500.0,-358000.0,97076.342775,54.595,-3.069999933,-734.0164185,-29.34503174,15.0,13.72381783,15.65132713,-69.91964722,0.0,22.1822185516
2018-07-21 01:02:29.200,0.331,-0.497,-0.052,-0.10787315,1.10815145,16.34768555,-111000.0,-327000.0,-342000.0,97073.74268,54.59,-3.069999933,-734.0164185,-29.34503174,15.0,13.72381783,15.65132713,-69.91964722,0.0,22.1822185516
2018-07-21 01:02:29.240,0.2615,-0.483,-0.108,-0.181423025,1.08853815,16.450655375,-116500.0,-336000.0,-330500.0,97068.67371,54.59,-3.730000019,-718.2218628,-155.6579132,17.0,13.72381783,15.65132713,-69.91964722,0.0,22.1822185516
2018-07-21 01:02:29.280,0.192,-0.469,-0.164,-0.2549729,1.06892485,16.5536252,-122000.0,-345000.0,-319000.0,97063.60474,54.59,-3.730000019,-718.2218628,-155.6579132,17.0,26.28485107,33.81255341,-63.37914276,0.0,22.1822185516
2018-07-21 01:02:29.320,0.1896666666666666,-0.4453333333333333,-0.1883333333333333,-0.2974683833333333,1.2160246,15.801782033333332,-125333.33333333331,-347666.6666666667,-314000.0,97061.28337,54.59,-4.0750000475,-660.78286745,-156.40881345,18.0,26.28485107,33.81255341,-63.37914276,0.0,22.077234745
2018-07-21 01:02:29.360,0.1873333333333333,-0.4216666666666667,-0.2126666666666666,-0.3399638666666666,1.36312435,15.049938866666666,-128666.66666666669,-350333.3333333333,-309000.0,97058.962,54.59,-4.420000076,-603.3438721,-157.1597137,19.0,26.28485107,33.81255341,-63.37914276,0.0,21.9722509384
2018-07-21 01:02:29.400,0.185,-0.398,-0.237,-0.38245935,1.5102241,14.2980957,-132000.0,-353000.0,-304000.0,97056.64063,54.59,-4.420000076,-603.3438721,-157.1597137,19.0,26.28485107,33.81255341,-63.37914276,0.0,21.8672671318
2018-07-21 01:02:29.440,0.133,-0.362,-0.2815,-0.42168595,1.524934075,13.567500275,-133500.0,-356000.0,-297500.0,97050.314335,54.585,-5.150000095,-574.3984985,-158.5785065,20.0,26.28485107,33.81255341,-63.37914276,0.0,21.7622833252
2018-07-21 01:02:29.480,0.081,-0.326,-0.326,-0.46091255,1.53964405,12.83690485,-135000.0,-359000.0,-291000.0,97043.98804,54.58,-5.150000095,-574.3984985,-158.5785065,20.0,26.28485107,33.81255341,-63.37914276,0.0,21.6572995186
2018-07-21 01:02:29.520,0.0226666666666666,-0.3186666666666666,-0.335,-0.42168595,1.3663932333333333,13.016693433333334,-134333.33333333334,-362000.0,-288000.0,97041.23332,54.58,-5.150000095,-574.3984985,-158.5785065,20.0,26.28485107,33.81255341,-63.37914276,0.0,21.552315712
2018-07-21 01:02:29.560,-0.0356666666666666,-0.3113333333333333,-0.344,-0.38245935,1.1931424166666666,13.196482016666666,-133666.66666666666,-365000.0,-285000.0,97038.4786,54.58,-5.869999886,-535.2349243,-159.8796082,22.0,26.28485107,33.81255341,-63.37914276,0.0,21.4473319054
2018-07-21 01:02:29.600,-0.094,-0.304,-0.353,-0.34323275,1.0198916,13.3762706,-133000.0,-368000.0,-282000.0,97035.72388,54.58,-5.869999886,-535.2349243,-159.8796082,22.0,28.6066227,40.09898376,-54.06396103,0.0,21.3423480988
2018-07-21 01:02:29.640,-0.004,-0.2665,-0.387,-0.318716125,0.710982125,12.841808175,-130000.0,-369000.0,-280000.0,97032.699585,54.58,-6.599999905,-495.8063965,-161.0801849,24.0,28.6066227,40.09898376,-54.06396103,0.0,21.16690687703636
2018-07-21 01:02:29.680,0.086,-0.229,-0.421,-0.2941995,0.40207265,12.30734575,-127000.0,-370000.0,-278000.0,97029.67529,54.58,-6.9599998,-477.1508179,-161.63882445000002,24.5,28.6066227,40.09898376,-54.06396103,0.0,20.991465655272727
2018-07-21 01:02:29.720,0.074,-0.2253333333333333,-0.4216666666666666,-0.3170816833333333,0.4576436666666666,12.029490666666666,-124333.33333333331,-371000.0,-278333.3333333333,97025.99080333332,54.58,-7.319999695,-458.4952393,-162.197464,25.0,28.6066227,40.09898376,-54.06396103,0.0,20.81602443350909
2018-07-21 01:02:29.760,0.062,-0.2216666666666666,-0.4223333333333333,-0.3399638666666666,0.5132146833333333,11.751635583333334,-121666.66666666669,-372000.0,-278666.6666666667,97022.30631666668,54.58,-7.319999695,-458.4952393,-162.197464,25.0,28.6066227,40.09898376,-54.06396103,0.0,20.64058321174545
2018-07-21 01:02:29.800,0.05,-0.218,-0.423,-0.36284605,0.5687857,11.4737805,-119000.0,-373000.0,-279000.0,97018.62183,54.58,-7.674999714,-433.0491028,-162.70133975,26.0,28.6066227,40.09898376,-54.06396103,0.0,20.465141989981817
2018-07-21 01:02:29.840,0.0455,-0.192,-0.4265,-0.40207265,0.5638823749999999,10.4342756,-113000.0,-376000.0,-276500.0,97013.55896,54.58,-8.029999733,-407.6029663,-163.2052155,27.0,28.6066227,40.09898376,-54.06396103,0.0,20.289700768218182
2018-07-21 01:02:29.880,0.041,-0.166,-0.43,-0.44129925,0.55897905,9.3947707,-107000.0,-379000.0,-274000.0,97008.49609,54.58,-8.029999733,-407.6029663,-163.2052155,27.0,28.6066227,40.09898376,-54.06396103,0.0,20.114259546454544
2018-07-21 01:02:29.920,0.0623333333333333,-0.162,-0.4326666666666666,-0.4184170666666666,0.6210878333333334,8.97308475,-102666.66666666669,-380666.6666666667,-273666.6666666667,97007.36083666667,54.58,-8.029999733,-407.6029663,-163.2052155,27.0,28.6066227,40.09898376,-54.06396103,0.0,19.93881832469091
2018-07-21 01:02:29.960,0.0836666666666666,-0.158,-0.4353333333333333,-0.3955348833333333,0.6831966166666666,8.551398800000001,-98333.33333333331,-382333.3333333333,-273333.3333333333,97006.22558333332,54.58,-8.710000038,-342.2495728,-164.1462555,28.0,28.6066227,40.09898376,-54.06396103,0.0,19.763377102927272
2018-07-21 01:02:30.000,0.105,-0.154,-0.438,-0.3726527,0.7453054,8.12971285,-94000.0,-384000.0,-273000.0,97005.09033,54.58,-8.710000038,-342.2495728,-164.1462555,28.0,28.6066227,40.09898376,-54.06396103,0.0,19.58793588116364
2018-07-21 01:02:30.040,0.1345,-0.143,-0.448,-0.44129925,0.4903325,7.69822025,-86000.0,-386500.0,-271500.0,96999.84741,54.575,-9.349999428,-274.3311768,-165.0027771,30.0,25.22352219,47.33678818,-41.6799469,0.0,19.4124946594
2018-07-21 01:02:30.080,0.164,-0.132,-0.458,-0.5099458,0.2353596,7.26672765,-78000.0,-389000.0,-270000.0,96994.60449,54.57,-9.349999428,-274.3311768,-165.0027771,30.0,25.22352219,47.33678818,-41.6799469,0.0,19.08063930933333
2018-07-21 01:02:30.120,0.1149999999999999,-0.1243333333333333,-0.457,-0.5034080333333333,0.2517040166666666,6.995410333333333,-72666.66666666667,-391000.0,-268000.0,96991.74397666666,54.57,-9.63999939,-228.7783585,-165.401474,30.5,25.22352219,47.33678818,-41.6799469,0.0,18.748783959266667
2018-07-21 01:02:30.160,0.0659999999999999,-0.1166666666666666,-0.456,-0.4968702666666666,0.2680484333333333,6.724093016666667,-67333.33333333333,-393000.0,-266000.0,96988.88346333332,54.57,-9.929999352,-183.2255402,-165.8001709,31.0,25.22352219,47.33678818,-41.6799469,0.0,18.4169286092
2018-07-21 01:02:30.200,0.017,-0.109,-0.455,-0.4903325,0.28439285,6.4527757,-62000.0,-395000.0,-264000.0,96986.02295,54.57,-9.929999352,-183.2255402,-165.8001709,31.0,25.22352219,47.33678818,-41.6799469,0.0,18.08507325913333
2018-07-21 01:02:30.240,0.0135,-0.1,-0.4565,-0.4511059,0.367749375,6.4135491,-52500.0,-397500.0,-261000.0,96983.096315,54.57,-10.44999981,-102.1575012,-166.5474396,33.0,25.22352219,47.33678818,-41.6799469,0.0,17.753217909066667
2018-07-21 01:02:30.280,0.01,-0.091,-0.458,-0.4118793,0.4511059,6.3743225,-43000.0,-400000.0,-258000.0,96980.16968,54.57,-10.44999981,-102.1575012,-166.5474396,33.0,25.22352219,47.33678818,-41.6799469,0.0,17.421362559000002
2018-07-21 01:02:30.320,-0.0093333333333333,-0.0946666666666666,-0.4603333333333333,-0.3693838166666666,0.4445681333333333,6.6129509833333335,-37666.66666666666,-400666.6666666667,-259000.0,96977.66520333334,54.57,-10.90999985,-43.57976913,-167.2440186,34.0,25.22352219,47.33678818,-41.6799469,0.0,17.089507208933334
2018-07-21 01:02:30.360,-0.0286666666666666,-0.0983333333333333,-0.4626666666666666,-0.3268883333333333,0.4380303666666666,6.851579466666666,-32333.333333333336,-401333.3333333333,-260000.0,96975.16072666668,54.57,-10.90999985,-43.57976913,-167.2440186,34.0,25.22352219,47.33678818,-41.6799469,0.0,16.757651858866666
2018-07-21 01:02:30.400,-0.048,-0.102,-0.465,-0.28439285,0.4314926,7.09020795,-27000.0,-402000.0,-261000.0,96972.65625,54.57,-10.90999985,-43.57976913,-167.2440186,34.0,25.22352219,47.33678818,-41.6799469,0.0,16.4257965088
2018-07-21 01:02:30.440,-0.079,-0.0715,-0.472,-0.30400615,0.4511059,6.506712275,-18500.0,-402000.0,-262000.0,96971.32263,54.57,-11.31999969,14.61296082,-167.8901978,36.0,18.79244423,52.33629227,-32.10816193,0.0,16.223238263814288
2018-07-21 01:02:30.480,-0.11,-0.041,-0.479,-0.32361945,0.4707192,5.9232166,-10000.0,-402000.0,-263000.0,96969.98901,54.57,-11.31999969,14.61296082,-167.8901978,36.0,18.79244423,52.33629227,-32.10816193,0.0,16.02068001882857
2018-07-21 01:02:30.520,-0.1063333333333333,-0.0256666666666666,-0.485,-0.3399638666666666,0.5099458,5.65843705,-4666.666666666667,-401666.6666666667,-264666.6666666667,96967.40315666668,54.56666666666667,-11.65999985,59.18312073,-168.4850769,37.0,18.79244423,52.33629227,-32.10816193,0.0,15.818121773842858
2018-07-21 01:02:30.560,-0.1026666666666666,-0.0103333333333333,-0.491,-0.3563082833333333,0.5491724,5.3936575,666.6666666666661,-401333.3333333333,-266333.3333333333,96964.81730333334,54.56333333333333,-11.65999985,59.18312073,-168.4850769,37.0,18.79244423,52.33629227,-32.10816193,0.0,15.615563528857145
2018-07-21 01:02:30.600,-0.099,0.005,-0.497,-0.3726527,0.588399,5.12887795,6000.0,-401000.0,-268000.0,96962.23145,54.56,-11.65999985,59.18312073,-168.4850769,37.0,18.79244423,52.33629227,-32.10816193,0.0,15.413005283871428
2018-07-21 01:02:30.640,-0.1176666666666666,0.0023333333333333,-0.505,-0.3301572166666666,0.5949367666666666,5.4459596333333335,12666.666666666668,-399333.3333333333,-270000.0,96960.91309,54.56,-11.92999935,98.21099854,-169.0211029,38.0,18.79244423,52.33629227,-32.10816193,0.0,15.210447038885714
2018-07-21 01:02:30.680,-0.1363333333333333,-0.0003333333333333,-0.513,-0.2876617333333333,0.6014745333333333,5.7630413166666665,19333.333333333336,-397666.6666666667,-272000.0,96959.59473,54.56,-11.92999935,98.21099854,-169.0211029,38.0,12.89599514,52.23802185,-26.5185585,0.0,15.0078887939
2018-07-21 01:02:30.720,-0.155,-0.003,-0.521,-0.24516625,0.6080123,6.080123,26000.0,-396000.0,-274000.0,96958.27637,54.56,-12.003332773333332,110.33804829333332,-169.19132996666667,38.66666666666666,12.89599514,52.23802185,-26.5185585,0.0,14.893258452375
2018-07-21 01:02:30.760,-0.1226666666666666,-0.0016666666666666,-0.5296666666666667,-0.2582417833333333,0.5916678833333333,5.998400916666667,39666.66666666666,-392000.0,-279000.0,96957.29777333334,54.56,-12.076666196666666,122.46509804666668,-169.36155703333333,39.333333333333336,12.89599514,52.23802185,-26.5185585,0.0,14.77862811085
2018-07-21 01:02:30.800,-0.0903333333333333,-0.0003333333333333,-0.5383333333333333,-0.2713173166666666,0.5753234666666667,5.916678833333333,53333.33333333333,-388000.0,-284000.0,96956.31917666669,54.56,-12.14999962,134.5921478,-169.5317841,40.0,12.89599514,52.23802185,-26.5185585,0.0,14.663997769325
2018-07-21 01:02:30.840,-0.058,0.001,-0.547,-0.28439285,0.55897905,5.83495675,67000.0,-384000.0,-289000.0,96955.34058,54.56,-12.30000019,167.7885132,-169.9835968,41.0,12.89599514,52.23802185,-26.5185585,0.0,14.5493674278
2018-07-21 01:02:30.880,-0.013,-0.025,-0.569,-0.2353596,0.4903325,5.97224985,67000.0,-384000.0,-289000.0,96951.18408,54.56,-12.30000019,167.7885132,-169.9835968,41.0,12.89599514,52.23802185,-26.5185585,0.0,14.434737086275
2018-07-21 01:02:30.920,-0.025,-0.0325,-0.575,-0.230456275,0.5025908125,6.07031635,72000.0,-382250.0,-290500.0,96951.18408,54.56,-12.329999923333334,175.1641032,-170.12002053333333,41.333333333333336,12.89599514,52.23802185,-26.5185585,0.0,14.32010674475
2018-07-21 01:02:30.960,-0.037,-0.04,-0.581,-0.22555295,0.514849125,6.16838285,77000.0,-380500.0,-292000.0,96951.18408,54.56,-12.359999656666666,182.5396932,-170.25644426666665,41.66666666666666,12.89599514,52.23802185,-26.5185585,0.0,14.205476403225
2018-07-21 01:02:31.000,-0.049,-0.0475,-0.587,-0.220649625,0.5271074375,6.26644935,82000.0,-378750.0,-293500.0,96951.18408,54.56,-12.38999939,189.9152832,-170.392868,42.0,12.89599514,52.23802185,-26.5185585,0.0,14.0908460617
2018-07-21 01:02:31.040,-0.061,-0.055,-0.593,-0.2157463,0.53936575,6.36451585,87000.0,-377000.0,-295000.0,96951.18408,54.56,-12.42000008,207.3786774,-170.7517548,43.0,5.220868587,52.0970993,-19.55874443,0.0,14.019368913433334
2018-07-21 01:02:31.080,-0.058,-0.055,-0.601,-0.196133,0.5491724,6.24683605,106000.0,-370000.0,-298000.0,96953.94287,54.56,-12.42000008,207.3786774,-170.7517548,43.0,5.220868587,52.0970993,-19.55874443,0.0,13.947891765166668
2018-07-21 01:02:31.120,-0.0516666666666666,-0.074,-0.6033333333333333,-0.1601752833333333,0.4576436666666666,6.420086866666667,112000.0,-366000.0,-300000.0,96953.94287,54.56,-12.409999849999998,212.94913485,-170.91443635,44.0,5.220868587,52.0970993,-19.55874443,0.0,13.8764146169
2018-07-21 01:02:31.160,-0.0453333333333333,-0.093,-0.6056666666666667,-0.1242175666666666,0.3661149333333333,6.593337683333333,118000.0,-362000.0,-302000.0,96953.94287,54.56,-12.39999962,218.5195923,-171.0771179,45.0,5.220868587,52.0970993,-19.55874443,0.0,13.804937468633334
2018-07-21 01:02:31.200,-0.039,-0.112,-0.608,-0.08825985,0.2745862,6.7665885,124000.0,-358000.0,-304000.0,96953.94287,54.56,-12.359999655,230.8766327,-171.2145996,45.5,5.220868587,52.0970993,-19.55874443,0.0,13.733460320366667
2018-07-21 01:02:31.240,-0.0289999999999999,-0.1225,-0.6074999999999999,-0.044129925,0.3138128,6.6489087,133000.0,-353000.0,-307000.0,96952.801515,54.555,-12.31999969,243.2336731,-171.3520813,46.0,5.220868587,52.0970993,-19.55874443,0.0,13.6619831721
2018-07-21 01:02:31.280,-0.019,-0.133,-0.607,0.0,0.3530394,6.5312289,142000.0,-348000.0,-310000.0,96951.66016,54.55,-12.31999969,243.2336731,-171.3520813,46.0,5.220868587,52.0970993,-19.55874443,0.0,13.590506023833337
2018-07-21 01:02:31.320,-0.0266666666666666,-0.139,-0.6046666666666667,0.0,0.4380303666666666,6.410280216666667,149333.33333333334,-344333.3333333333,-312000.0,96953.17993333332,54.55,-12.24999952,248.73918915,-171.46842955,46.5,5.220868587,52.0970993,-19.55874443,0.0,13.519028875566669
2018-07-21 01:02:31.360,-0.0343333333333333,-0.145,-0.6023333333333333,0.0,0.5230213333333333,6.289331533333334,156666.66666666666,-340666.6666666667,-314000.0,96954.69970666668,54.55,-12.17999935,254.2447052,-171.5847778,47.0,5.220868587,52.0970993,-19.55874443,0.0,13.4475517273
2018-07-21 01:02:31.400,-0.042,-0.151,-0.6,0.0,0.6080123,6.16838285,164000.0,-337000.0,-316000.0,96956.21948,54.55,-12.17999935,254.2447052,-171.5847778,47.0,-3.760014534,51.45409012,-9.566782951,0.0,13.462240219118184
2018-07-21 01:02:31.440,-0.056,-0.1573333333333333,-0.6036666666666667,0.0719154333333333,0.6668522,6.246836050000001,168333.33333333334,-332666.6666666667,-317333.3333333333,96956.07299666668,54.55,-11.97999954,268.9188843,-171.7755585,48.0,-3.760014534,51.45409012,-9.566782951,0.0,13.476928710936363
2018-07-21 01:02:31.480,-0.07,-0.1636666666666666,-0.6073333333333333,0.1438308666666666,0.7256921,6.32528925,172666.66666666666,-328333.3333333333,-318666.6666666667,96955.92651333332,54.55,-11.97999954,268.9188843,-171.7755585,48.0,-3.760014534,51.45409012,-9.566782951,0.0,13.491617202754544
2018-07-21 01:02:31.520,-0.084,-0.17,-0.611,0.2157463,0.784532,6.40374245,177000.0,-324000.0,-320000.0,96955.78003,54.55,-11.97999954,268.9188843,-171.7755585,48.0,-3.760014534,51.45409012,-9.566782951,0.0,13.506305694572728
2018-07-21 01:02:31.560,-0.0915,-0.204,-0.603,0.250069575,0.91201845,7.0215614,185500.0,-316500.0,-324000.0,96957.107545,54.55,-11.72999954,269.3424072,-171.9159088,49.0,-3.760014534,51.45409012,-9.566782951,0.0,13.52099418639091
2018-07-21 01:02:31.600,-0.099,-0.238,-0.595,0.28439285,1.0395049,7.63938035,194000.0,-309000.0,-328000.0,96958.43506,54.55,-11.72999954,269.3424072,-171.9159088,49.0,-3.760014534,51.45409012,-9.566782951,0.0,13.53568267820909
2018-07-21 01:02:31.640,-0.1115,-0.2405,-0.601,0.240262925,0.6276256,7.889449925,198000.0,-300500.0,-331500.0,96959.884645,54.55,-11.40999985,272.7984314,-172.0137329,51.0,-3.760014534,51.45409012,-9.566782951,0.0,13.550371170027272
2018-07-21 01:02:31.680,-0.124,-0.243,-0.607,0.196133,0.2157463,8.1395195,202000.0,-292000.0,-335000.0,96961.33423,54.55,-11.40999985,272.7984314,-172.0137329,51.0,-3.760014534,51.45409012,-9.566782951,0.0,13.565059661845456
2018-07-21 01:02:31.720,-0.133,-0.2413333333333333,-0.6143333333333333,0.2026707666666666,0.1634441666666666,8.309501433333333,206000.0,-286666.6666666667,-339000.0,96963.91398333332,54.55,-11.05999947,238.0873718,-172.0529938,52.0,-3.760014534,51.45409012,-9.566782951,0.0,13.579748153663637
2018-07-21 01:02:31.760,-0.142,-0.2396666666666666,-0.6216666666666667,0.2092085333333333,0.1111420333333333,8.479483366666667,210000.0,-281333.3333333333,-343000.0,96966.49373666666,54.55,-11.05999947,238.0873718,-172.0529938,52.0,-3.760014534,51.45409012,-9.566782951,0.0,13.594436645481816
2018-07-21 01:02:31.800,-0.151,-0.238,-0.629,0.2157463,0.0588399,8.6494653,214000.0,-276000.0,-347000.0,96969.07349,54.55,-11.05999947,238.0873718,-172.0529938,52.0,-3.760014534,51.45409012,-9.566782951,0.0,13.6091251373
2018-07-21 01:02:31.840,-0.1425,-0.258,-0.6265000000000001,0.308909475,0.4756225249999999,8.821081674999999,220500.0,-266000.0,-352500.0,96970.46509,54.545,-10.65999985,199.2028198,-172.0334015,53.0,-11.52633286,47.25792694,4.050061703,0.0,13.726140282345456
2018-07-21 01:02:31.880,-0.134,-0.278,-0.624,0.40207265,0.89240515,8.99269805,227000.0,-256000.0,-358000.0,96971.85669,54.54,-10.65999985,199.2028198,-172.0334015,53.0,-11.52633286,47.25792694,4.050061703,0.0,13.843155427390908
2018-07-21 01:02:31.920,-0.129,-0.297,-0.6096666666666667,0.3857282333333333,0.87279185,9.535332683333332,229333.3333333333,-250000.0,-362000.0,96973.86474666667,54.54,-10.65999985,199.2028198,-172.0334015,53.0,-11.52633286,47.25792694,4.050061703,0.0,13.960170572436365
2018-07-21 01:02:31.960,-0.124,-0.316,-0.5953333333333333,0.3693838166666666,0.85317855,10.077967316666664,231666.66666666663,-244000.0,-366000.0,96975.87280333332,54.54,-10.444999695,179.908226,-171.98995209999998,53.5,-11.52633286,47.25792694,4.050061703,0.0,14.077185717481818
2018-07-21 01:02:32.000,-0.119,-0.335,-0.581,0.3530394,0.83356525,10.62060195,234000.0,-238000.0,-370000.0,96977.88086,54.54,-10.22999954,160.6136322,-171.9465027,54.0,-11.52633286,47.25792694,4.050061703,0.0,14.194200862527271
2018-07-21 01:02:32.040,-0.0925,-0.3305,-0.5715,0.269682875,0.338329425,10.65982855,234500.0,-227000.0,-376000.0,96984.387205,54.54,-9.760000229,127.2712708,-171.7923126,55.0,-11.52633286,47.25792694,4.050061703,0.0,14.311216007572726
2018-07-21 01:02:32.080,-0.066,-0.326,-0.562,0.18632635,-0.1569064,10.69905515,235000.0,-216000.0,-382000.0,96990.89355,54.54,-9.760000229,127.2712708,-171.7923126,55.0,-11.52633286,47.25792694,4.050061703,0.0,14.42823115261818
2018-07-21 01:02:32.120,-0.035,-0.337,-0.5406666666666667,0.1569064,-0.0588399,10.882112616666666,235666.66666666663,-210000.0,-385666.6666666667,96990.89355,54.54,-9.760000229,127.2712708,-171.7923126,55.0,-11.52633286,47.25792694,4.050061703,0.0,14.545246297663637
2018-07-21 01:02:32.160,-0.004,-0.348,-0.5193333333333333,0.12748645,0.0392266,11.065170083333332,236333.3333333333,-204000.0,-389333.3333333333,96990.89355,54.54,-9.269999504,112.251091,-171.5623474,56.0,-11.52633286,47.25792694,4.050061703,0.0,14.662261442709092
2018-07-21 01:02:32.200,0.027,-0.359,-0.498,0.0980665,0.1372931,11.24822755,237000.0,-198000.0,-393000.0,96990.89355,54.54,-9.139999627999998,111.530996325,-171.48374174999998,56.25,-12.52393556,45.8773393625,7.996666074749999,0.0,14.779276587754543
2018-07-21 01:02:32.240,0.099,-0.3645,-0.4765,0.16671305,0.289296175,11.007964625,236000.0,-189500.0,-398500.0,96991.610715,54.54,-9.009999752,110.81090165,-171.4051361,56.5,-13.52153826,44.496751785,11.9432704465,0.0,14.8962917328
2018-07-21 01:02:32.280,0.171,-0.37,-0.455,0.2353596,0.44129925,10.7677017,235000.0,-181000.0,-404000.0,96992.32788,54.54,-8.75,109.3707123,-171.2479248,57.0,-15.51674366,41.73557663,19.83647919,0.0,14.91283245088
2018-07-21 01:02:32.320,0.2005,-0.384,-0.43825,0.2280046125,0.3211677874999999,11.292357475,233750.0,-178750.0,-405750.0,96994.584655,54.54,-8.210000038,103.5804749,-170.8571167,59.0,-15.51674366,41.73557663,19.83647919,0.0,14.92937316896
2018-07-21 01:02:32.360,0.2299999999999999,-0.398,-0.4215,0.220649625,0.201036325,11.81701325,232500.0,-176500.0,-407500.0,96996.84143,54.54,-8.210000038,103.5804749,-170.8571167,59.0,-15.51674366,41.73557663,19.83647919,0.0,14.94591388704
2018-07-21 01:02:32.400,0.2594999999999999,-0.412,-0.40475,0.2132946375,0.0809048625,12.341669025,231250.0,-174250.0,-409250.0,96999.098205,54.54,-8.210000038,103.5804749,-170.8571167,59.0,-15.51674366,41.73557663,19.83647919,0.0,14.96245460512
2018-07-21 01:02:32.440,0.289,-0.426,-0.388,0.20593965,-0.0392266,12.8663248,230000.0,-172000.0,-411000.0,97001.35498,54.54,-7.659999847,100.6991425,-170.3727722,60.0,-15.51674366,41.73557663,19.83647919,0.0,14.9789953232
2018-07-21 01:02:32.480,0.277,-0.416,-0.363,0.161809725,0.132389775,12.743741675,226500.0,-171000.0,-413500.0,97005.773925,54.535,-7.659999847,100.6991425,-170.3727722,60.0,-15.51674366,41.73557663,19.83647919,0.0,14.99553604128
2018-07-21 01:02:32.520,0.265,-0.406,-0.338,0.1176798,0.30400615,12.62115855,223000.0,-170000.0,-416000.0,97010.19287,54.53,-7.379999875999999,96.764564535,-170.08818815,60.5,-15.51674366,41.73557663,19.83647919,0.0,15.01207675936
2018-07-21 01:02:32.560,0.1965,-0.4095,-0.3325,0.142196425,0.38245935,12.606448575,218500.0,-170000.0,-419000.0,97010.19287,54.53,-7.099999905,92.82998657,-169.8036041,61.0,-15.51674366,41.73557663,19.83647919,0.0,15.02861747744
2018-07-21 01:02:32.600,0.128,-0.413,-0.327,0.16671305,0.46091255,12.5917386,214000.0,-170000.0,-422000.0,97010.19287,54.53,-7.099999905,92.82998657,-169.8036041,61.0,-15.51674366,41.73557663,19.83647919,0.0,15.04515819552
2018-07-21 01:02:32.640,0.1145,-0.4375,-0.333,0.18632635,0.4511058999999999,12.871228125,209000.0,-170000.0,-424000.0,97014.60266,54.53,-6.539999962,86.23724365,-169.1403046,62.0,-14.63037491,43.80855179,33.19115067,0.0,15.0616989136
2018-07-21 01:02:32.680,0.101,-0.462,-0.339,0.20593965,0.44129925,13.15071765,204000.0,-170000.0,-426000.0,97019.01245,54.53,-6.539999962,86.23724365,-169.1403046,62.0,-14.63037491,43.80855179,33.19115067,0.0,15.091443334328572
2018-07-21 01:02:32.720,0.07325,-0.457,-0.34175,0.2157463,0.4903325,13.106587725,201000.0,-169250.0,-428250.0,97020.565795,54.53,-6.2599999905,84.746650695,-168.76609805,62.0,-14.63037491,43.80855179,33.19115067,0.0,15.121187755057145
2018-07-21 01:02:32.760,0.0455,-0.452,-0.3445,0.22555295,0.53936575,13.0624578,198000.0,-168500.0,-430500.0,97022.11914,54.53,-5.980000019,83.25605774,-168.3918915,62.0,-14.63037491,43.80855179,33.19115067,0.0,15.150932175785714
2018-07-21 01:02:32.800,0.01775,-0.447,-0.34725,0.2353596,0.588399,13.018327875,195000.0,-167750.0,-432750.0,97023.672485,54.53,-5.980000019,83.25605774,-168.3918915,62.0,-14.63037491,43.80855179,33.19115067,0.0,15.180676596514289
2018-07-21 01:02:32.840,-0.01,-0.442,-0.35,0.24516625,0.63743225,12.97419795,192000.0,-167000.0,-435000.0,97025.22583,54.53,-5.409999847,72.00889587,-167.5490417,63.0,-14.63037491,43.80855179,33.19115067,0.0,15.210421017242858
2018-07-21 01:02:32.880,-0.026,-0.4565,-0.357,0.250069575,0.593302325,13.449820475,185000.0,-164500.0,-438000.0,97027.960205,54.53,-5.409999847,72.00889587,-167.5490417,63.0,-14.63037491,43.80855179,33.19115067,0.0,15.240165437971427
2018-07-21 01:02:32.920,-0.042,-0.471,-0.364,0.2549729,0.5491724,13.925443,178000.0,-162000.0,-441000.0,97030.69458,54.53,-4.839999676,67.46463776,-166.6207886,64.0,-12.90248871,42.19396973,43.28265762,0.0,15.2699098587
2018-07-21 01:02:32.960,-0.0605,-0.474,-0.3715,0.22555295,0.544269075,14.371645575,171000.0,-158000.0,-446000.0,97032.84607,54.53,-4.839999676,67.46463776,-166.6207886,64.0,-12.90248871,42.19396973,43.28265762,0.0,15.332078797471429
2018-07-21 01:02:33.000,-0.079,-0.477,-0.379,0.196133,0.53936575,14.81784815,164000.0,-154000.0,-451000.0,97034.99756,54.53,-4.839999676,67.46463776,-166.6207886,64.0,-12.90248871,42.19396973,43.28265762,0.0,15.394247736242855
2018-07-21 01:02:33.040,-0.1075,-0.4439999999999999,-0.4,0.161809725,0.6080123,14.185319225,157000.0,-148500.0,-455500.0,97039.486695,54.53,-4.289999962,43.73855591,-165.6062317,65.0,-12.90248871,42.19396973,43.28265762,0.0,15.456416675014284
2018-07-21 01:02:33.080,-0.136,-0.411,-0.421,0.12748645,0.67665885,13.5527903,150000.0,-143000.0,-460000.0,97043.97583,54.53,-4.289999962,43.73855591,-165.6062317,65.0,-12.90248871,42.19396973,43.28265762,0.0,15.518585613785715
2018-07-21 01:02:33.120,-0.11975,-0.41225,-0.4277499999999999,0.083356525,0.53936575,13.5724036,146250.0,-139500.0,-462500.0,97045.6558225,54.53,-4.289999962,43.73855591,-165.6062317,65.0,-12.90248871,42.19396973,43.28265762,0.0,15.580754552557144
2018-07-21 01:02:33.160,-0.1035,-0.4135,-0.4345,0.0392266,0.40207265,13.5920169,142500.0,-136000.0,-465000.0,97047.335815,54.53,-4.019999981,36.11459732,-165.06018065,65.5,-12.90248871,42.19396973,43.28265762,0.0,15.642923491328572
2018-07-21 01:02:33.200,-0.08725,-0.4147499999999999,-0.44125,-0.0049033249999999,0.26477955,13.6116302,138750.0,-132500.0,-467500.0,97049.0158075,54.53,-3.75,28.49063873,-164.5141296,66.0,-12.90248871,42.19396973,43.28265762,0.0,15.7050924301
2018-07-21 01:02:33.240,-0.071,-0.416,-0.448,-0.04903325,0.12748645,13.6312435,135000.0,-129000.0,-470000.0,97050.6958,54.53,-3.220000029,15.86055756,-163.3526154,66.0,-11.90362167,38.73543549,52.44661331,0.0,15.736778940457144
2018-07-21 01:02:33.280,0.014,-0.418,-0.446,-0.10787315,0.16671305,13.3566573,121000.0,-115000.0,-478000.0,97060.99854,54.53,-3.220000029,15.86055756,-163.3526154,66.0,-11.90362167,38.73543549,52.44661331,0.0,15.768465450814286
2018-07-21 01:02:33.320,0.0463333333333333,-0.4283333333333333,-0.4436666666666666,-0.0915287333333333,0.1634441666666666,13.50375705,116333.33333333331,-112000.0,-480000.0,97060.99854,54.53,-2.700000048,8.886814117,-162.147049,67.0,-11.90362167,38.73543549,52.44661331,0.0,15.800151961171428
2018-07-21 01:02:33.360,0.0786666666666666,-0.4386666666666666,-0.4413333333333333,-0.0751843166666666,0.1601752833333333,13.6508568,111666.66666666669,-109000.0,-482000.0,97060.99854,54.53,-2.700000048,8.886814117,-162.147049,67.0,-11.90362167,38.73543549,52.44661331,0.0,15.831838471528572
2018-07-21 01:02:33.400,0.111,-0.449,-0.439,-0.0588399,0.1569064,13.79795655,107000.0,-106000.0,-484000.0,97060.99854,54.53,-2.700000048,8.886814117,-162.147049,67.0,-11.90362167,38.73543549,52.44661331,0.0,15.863524981885714
2018-07-21 01:02:33.440,0.1066666666666666,-0.4506666666666666,-0.4346666666666666,-0.0228821833333333,0.1830574666666666,13.892754166666666,102000.0,-104333.33333333331,-485333.3333333333,97062.91504333333,54.53,-2.190000057,6.310081482,-160.872406,67.0,-11.90362167,38.73543549,52.44661331,0.0,15.895211492242858
2018-07-21 01:02:33.480,0.1023333333333333,-0.4523333333333333,-0.4303333333333333,0.0130755333333333,0.2092085333333333,13.987551783333334,97000.0,-102666.66666666669,-486666.6666666667,97064.83154666668,54.53,-2.190000057,6.310081482,-160.872406,67.0,-11.308440205,38.333568575,57.818309785,0.0,15.9268980026
2018-07-21 01:02:33.520,0.098,-0.454,-0.426,0.04903325,0.2353596,14.0823494,92000.0,-101000.0,-488000.0,97066.74805,54.53,-2.190000057,6.310081482,-160.872406,67.0,-10.71325874,37.93170166,63.19000626,0.0,16.004529741055556
2018-07-21 01:02:33.560,0.1075,-0.456,-0.4115,0.073549875,0.2941995,14.60210185,84500.0,-101000.0,-490000.0,97072.07642,54.53,-1.9399999975,1.8121242525000003,-160.21289825000002,67.5,-10.71325874,37.93170166,63.19000626,0.0,16.08216147951111
2018-07-21 01:02:33.600,0.117,-0.458,-0.397,0.0980665,0.3530394,15.1218543,77000.0,-101000.0,-492000.0,97077.40479,54.53,-1.689999938,-2.685832977,-159.5533905,68.0,-10.71325874,37.93170166,63.19000626,0.0,16.159793217966666
2018-07-21 01:02:33.640,0.104,-0.4745,-0.385,0.08825985,0.24516625,15.54354025,68500.0,-101000.0,-494000.0,97078.32947,54.53,-1.689999938,-2.685832977,-159.5533905,68.0,-10.71325874,37.93170166,63.19000626,0.0,16.237424956422224
2018-07-21 01:02:33.680,0.091,-0.491,-0.373,0.0784532,0.1372931,15.9652262,60000.0,-101000.0,-496000.0,97079.25415,54.53,-1.209999919,-16.42446518,-158.1731415,68.0,-10.71325874,37.93170166,63.19000626,0.0,16.31505669487778
2018-07-21 01:02:33.720,0.1053333333333333,-0.488,-0.3703333333333333,0.1438308666666666,0.2059396499999999,16.095981533333333,53666.66666666666,-100666.66666666669,-497000.0,97082.21028666668,54.52666666666667,-0.75,-38.27466965,-156.7485504,69.0,-10.71325874,37.93170166,63.19000626,0.0,16.392688433333333
2018-07-21 01:02:33.760,0.1196666666666666,-0.485,-0.3676666666666666,0.2092085333333333,0.2745862,16.226736866666666,47333.333333333336,-100333.33333333331,-498000.0,97085.16642333331,54.52333333333333,-0.75,-38.27466965,-156.7485504,69.0,-10.71325874,37.93170166,63.19000626,0.0,16.470320171788888
2018-07-21 01:02:33.800,0.134,-0.482,-0.365,0.2745862,0.34323275,16.3574922,41000.0,-100000.0,-499000.0,97088.12256,54.52,-0.5399999915,-50.916576385,-156.01799010000002,69.0,-10.71325874,37.93170166,63.19000626,0.0,16.547951910244446
2018-07-21 01:02:33.840,0.1525,-0.482,-0.3625,0.230456275,0.28439285,16.4947853,32000.0,-101000.0,-499000.0,97090.67993,54.525000000000006,-0.329999983,-63.55848312,-155.2874298,69.0,-10.71325874,37.93170166,63.19000626,0.0,16.6255836487
2018-07-21 01:02:33.880,0.171,-0.482,-0.36,0.18632635,0.22555295,16.6320784,23000.0,-102000.0,-499000.0,97093.2373,54.53,-0.329999983,-63.55848312,-155.2874298,69.0,-7.682799816,38.51144409,75.90342712,0.0,16.65271167757
2018-07-21 01:02:33.920,0.1406666666666666,-0.4823333333333333,-0.3623333333333333,0.2026707666666666,0.2418973666666666,16.540549666666667,16666.666666666668,-102666.66666666669,-499333.3333333333,97095.12532333333,54.52666666666667,0.07,-69.65055847,-153.7816772,69.0,-7.682799816,38.51144409,75.90342712,0.0,16.67983970644
2018-07-21 01:02:33.960,0.1103333333333333,-0.4826666666666666,-0.3646666666666666,0.2190151833333333,0.2582417833333333,16.449020933333333,10333.333333333334,-103333.33333333331,-499666.6666666667,97097.01334666667,54.52333333333333,0.07,-69.65055847,-153.7816772,69.0,-7.682799816,38.51144409,75.90342712,0.0,16.706967735310002
2018-07-21 01:02:34.000,0.08,-0.483,-0.367,0.2353596,0.2745862,16.3574922,4000.0,-104000.0,-500000.0,97098.90137,54.52,0.07,-69.65055847,-153.7816772,69.0,-7.682799816,38.51144409,75.90342712,0.0,16.73409576418
2018-07-21 01:02:34.040,0.033,-0.4705,-0.3595,0.289296175,0.387362675,16.156455875,-3500.0,-105500.0,-499000.0,97099.66431,54.52,0.439999998,-79.58879089,-152.2476044,70.0,-7.682799816,38.51144409,75.90342712,0.0,16.76122379305
2018-07-21 01:02:34.080,-0.014,-0.458,-0.352,0.34323275,0.50013915,15.95541955,-11000.0,-107000.0,-498000.0,97100.42725,54.52,0.439999998,-79.58879089,-152.2476044,70.0,-7.682799816,38.51144409,75.90342712,0.0,16.78835182192
2018-07-21 01:02:34.120,-0.0736666666666666,-0.4476666666666666,-0.3533333333333333,0.3693838166666666,0.5295591,16.03387275,-17333.333333333332,-107666.66666666669,-497666.6666666667,97103.0599,54.52333333333333,0.769999981,-89.1350708,-150.6854248,70.0,-7.682799816,38.51144409,75.90342712,0.0,16.81547985079
2018-07-21 01:02:34.160,-0.1333333333333333,-0.4373333333333333,-0.3546666666666666,0.3955348833333333,0.55897905,16.11232595,-23666.666666666664,-108333.33333333331,-497333.3333333333,97105.69255,54.52666666666667,0.769999981,-89.1350708,-150.6854248,70.0,-7.682799816,38.51144409,75.90342712,0.0,16.84260787966
2018-07-21 01:02:34.200,-0.193,-0.427,-0.356,0.42168595,0.588399,16.19077915,-30000.0,-109000.0,-497000.0,97108.3252,54.53,0.8424999715,-89.522930145,-150.29421997499998,70.0,-6.8391857145,38.2390012725,79.23257064500001,0.0,16.86973590853
2018-07-21 01:02:34.240,-0.121,-0.4285,-0.3805,0.588399,0.588399,16.573238500000002,-39500.0,-106500.0,-498000.0,97108.63953,54.525000000000006,0.914999962,-89.91078949,-149.90301515,70.0,-5.995571613,37.966558455,82.56171417,0.0,16.8968639374
2018-07-21 01:02:34.280,-0.049,-0.43,-0.405,0.75511205,0.588399,16.95569785,-49000.0,-104000.0,-499000.0,97108.95386,54.52,1.059999943,-90.68650818,-149.1206055,70.0,-4.30834341,37.42167282,89.22000122,0.0,16.910898208633334
2018-07-21 01:02:34.320,-0.021,-0.41975,-0.41525,0.6496905625,0.50013915,16.7080799375,-53250.0,-102000.0,-498750.0,97110.699465,54.52,1.319999933,-107.1156464,-147.5361633,70.0,-4.30834341,37.42167282,89.22000122,0.0,16.924932479866666
2018-07-21 01:02:34.360,0.0069999999999999,-0.4095,-0.4255,0.544269075,0.4118793,16.460462024999998,-57500.0,-100000.0,-498500.0,97112.44507,54.52,1.319999933,-107.1156464,-147.5361633,70.0,-4.30834341,37.42167282,89.22000122,0.0,16.9389667511
2018-07-21 01:02:34.400,0.035,-0.39925,-0.43575,0.4388475875,0.32361945,16.2128441125,-61750.0,-98000.0,-498250.0,97114.190675,54.52,1.319999933,-107.1156464,-147.5361633,70.0,-4.30834341,37.42167282,89.22000122,0.0,16.953001022333332
2018-07-21 01:02:34.440,0.063,-0.389,-0.446,0.3334261,0.2353596,15.9652262,-66000.0,-96000.0,-498000.0,97115.93628,54.52,1.529999971,-109.1189423,-145.9490204,70.0,-4.30834341,37.42167282,89.22000122,0.0,16.967035293566667
2018-07-21 01:02:34.480,0.089,-0.379,-0.444,0.1765197,0.28439285,15.102241,-81000.0,-96000.0,-496000.0,97114.78882,54.52,1.529999971,-109.1189423,-145.9490204,70.0,-4.30834341,37.42167282,89.22000122,0.0,16.9810695648
2018-07-21 01:02:34.520,0.1103333333333333,-0.377,-0.44,0.1307553333333333,0.3105439166666666,14.7295883,-85333.33333333333,-97666.66666666669,-495000.0,97116.67684,54.52,1.62499994,-106.2181473,-145.1542511,70.0,-4.30834341,37.42167282,89.22000122,0.0,16.995103836033334
2018-07-21 01:02:34.560,0.1316666666666666,-0.375,-0.436,0.0849909666666666,0.3366949833333333,14.3569356,-89666.66666666667,-99333.33333333331,-494000.0,97118.56486,54.52,1.719999909,-103.3173523,-144.3594818,70.0,-4.30834341,37.42167282,89.22000122,0.0,17.009138107266665
2018-07-21 01:02:34.600,0.153,-0.373,-0.432,0.0392266,0.36284605,13.9842829,-94000.0,-101000.0,-493000.0,97120.45288,54.52,1.719999909,-103.3173523,-144.3594818,70.0,-4.30834341,37.42167282,89.22000122,0.0,17.0231723785
2018-07-21 01:02:34.640,0.145,-0.3676666666666666,-0.422,-0.0588399,0.3203505666666666,13.77834325,-97666.66666666669,-103333.33333333331,-492000.0,97121.56168666668,54.52,1.870000005,-100.8669891,-142.8013611,70.0,-3.259544611,38.37806702,101.387886,0.0,16.99245471951
2018-07-21 01:02:34.680,0.137,-0.3623333333333333,-0.412,-0.1569064,0.2778550833333333,13.5724036,-101333.33333333331,-105666.66666666669,-491000.0,97122.67049333332,54.52,1.870000005,-100.8669891,-142.8013611,70.0,-3.259544611,38.37806702,101.387886,0.0,16.96173706052
2018-07-21 01:02:34.720,0.129,-0.357,-0.402,-0.2549729,0.2353596,13.36646395,-105000.0,-108000.0,-490000.0,97123.7793,54.52,2.00999999,-86.57617188,-141.249588,69.0,-3.259544611,38.37806702,101.387886,0.0,16.93101940153
2018-07-21 01:02:34.760,0.133,-0.366,-0.3983333333333334,-0.2778550833333333,0.18632635,13.294548516666667,-108666.66666666669,-111000.0,-488000.0,97123.66129666666,54.52,2.031666636,-85.02266947833334,-140.99900563333333,69.0,-3.259544611,38.37806702,101.387886,0.0,16.90030174254
2018-07-21 01:02:34.800,0.1369999999999999,-0.375,-0.3946666666666666,-0.3007372666666666,0.1372931,13.222633083333331,-112333.33333333331,-114000.0,-486000.0,97123.54329333334,54.52,2.053333282,-83.46916707666666,-140.74842326666666,69.0,-3.259544611,38.37806702,101.387886,0.0,16.869584083550002
2018-07-21 01:02:34.840,0.141,-0.384,-0.391,-0.32361945,0.08825985,13.15071765,-116000.0,-117000.0,-484000.0,97123.42529,54.52,2.074999928,-81.915664675,-140.4978409,69.0,-3.259544611,38.37806702,101.387886,0.0,16.83886642456
2018-07-21 01:02:34.880,0.08,-0.38,-0.374,-0.34323275,0.0588399,12.52309205,-126000.0,-125000.0,-479000.0,97125.54321,54.52,2.139999866,-77.25515747,-139.7460938,69.0,-3.259544611,38.37806702,101.387886,0.0,16.80814876557
2018-07-21 01:02:34.920,0.1106666666666666,-0.3863333333333333,-0.367,-0.3399638666666666,0.1372931,12.555780883333334,-130666.66666666669,-127666.66666666669,-476666.6666666667,97126.43432333332,54.52,2.199999928,-74.9274292,-139.00205235,69.0,-3.259544611,38.37806702,101.387886,0.0,16.77743110658
2018-07-21 01:02:34.960,0.1413333333333333,-0.3926666666666666,-0.36,-0.3366949833333333,0.2157463,12.588469716666667,-135333.33333333334,-130333.33333333331,-474333.3333333333,97127.32543666668,54.52,2.25999999,-72.59970093,-138.2580109,69.0,-3.259544611,38.37806702,101.387886,0.0,16.74671344759
2018-07-21 01:02:35.000,0.172,-0.399,-0.353,-0.3334261,0.2941995,12.62115855,-140000.0,-133000.0,-472000.0,97128.21655,54.52,2.25999999,-72.59970093,-138.2580109,69.0,-3.259544611,38.37806702,101.387886,0.0,16.7159957886
2018-07-21 01:02:35.040,0.195,-0.4145,-0.35,-0.269682875,0.318716125,13.292914075,-144000.0,-137000.0,-468500.0,97127.82898,54.515,2.389999866,-82.05918884,-136.8439178,69.0,-2.07103157,41.33701324,114.4991913,0.0,16.796865654010002
2018-07-21 01:02:35.080,0.218,-0.43,-0.347,-0.20593965,0.34323275,13.9646696,-148000.0,-141000.0,-465000.0,97127.44141,54.51,2.389999866,-82.05918884,-136.8439178,69.0,-2.07103157,41.33701324,114.4991913,0.0,16.87773551942
2018-07-21 01:02:35.120,0.1345,-0.4365,-0.34975,-0.1152281375,0.3849110125,14.430485475,-153750.0,-146250.0,-460750.0,97128.76282,54.5125,2.519999981,-98.35137939,-135.4536285,68.0,-2.07103157,41.33701324,114.4991913,0.0,16.95860538483
2018-07-21 01:02:35.160,0.0509999999999999,-0.443,-0.3525,-0.0245166249999999,0.426589275,14.89630135,-159500.0,-151500.0,-456500.0,97130.08423,54.515,2.519999981,-98.35137939,-135.4536285,68.0,-2.07103157,41.33701324,114.4991913,0.0,17.03947525024
2018-07-21 01:02:35.200,-0.0325,-0.4495,-0.3552499999999999,0.0661948875,0.4682675375,15.362117225,-165250.0,-156750.0,-452250.0,97131.40564,54.5175,2.519999981,-98.35137939,-135.4536285,68.0,-2.07103157,41.33701324,114.4991913,0.0,17.12034511565
2018-07-21 01:02:35.240,-0.116,-0.456,-0.358,0.1569064,0.5099458,15.8279331,-171000.0,-162000.0,-448000.0,97132.72705,54.52,2.5799999235,-109.283828745,-134.78702545,68.0,-2.07103157,41.33701324,114.4991913,0.0,17.20121498106
2018-07-21 01:02:35.280,-0.137,-0.407,-0.386,0.1765197,0.1569064,15.81812645,-171000.0,-162000.0,-448000.0,97136.31592,54.52,2.639999866,-120.2162781,-134.1204224,68.0,-2.07103157,41.33701324,114.4991913,0.0,17.28208484647
2018-07-21 01:02:35.320,-0.152,-0.3979999999999999,-0.3913333333333333,0.1536375166666666,0.0915287333333333,15.69064,-175333.33333333334,-162000.0,-446000.0,97136.31592,54.52,2.74000001,-153.4695587,-132.8270569,67.0,-2.07103157,41.33701324,114.4991913,0.0,17.36295471188
2018-07-21 01:02:35.360,-0.167,-0.389,-0.3966666666666666,0.1307553333333333,0.0261510666666666,15.56315355,-179666.66666666666,-162000.0,-444000.0,97136.31592,54.52,2.74000001,-153.4695587,-132.8270569,67.0,-2.07103157,41.33701324,114.4991913,0.0,17.44382457729
2018-07-21 01:02:35.400,-0.182,-0.38,-0.402,0.10787315,-0.0392266,15.4356671,-184000.0,-162000.0,-442000.0,97136.31592,54.52,2.74000001,-153.4695587,-132.8270569,67.0,-0.520828426,40.96167755,125.966011,0.0,17.5246944427
2018-07-21 01:02:35.440,-0.1786666666666666,-0.3746666666666666,-0.402,0.0719154333333333,-0.0915287333333333,15.174156433333334,-186666.66666666663,-161333.33333333334,-442000.0,97137.07479,54.52,2.7799999715,-161.83442685,-132.2174988,67.0,-0.520828426,40.96167755,125.966011,0.0,17.53045673366
2018-07-21 01:02:35.480,-0.1753333333333333,-0.3693333333333333,-0.402,0.0359577166666666,-0.1438308666666666,14.912645766666666,-189333.3333333333,-160666.66666666666,-442000.0,97137.83366,54.52,2.819999933,-170.199295,-131.6079407,67.0,-0.520828426,40.96167755,125.966011,0.0,17.53621902462
2018-07-21 01:02:35.520,-0.172,-0.364,-0.402,0.0,-0.196133,14.6511351,-192000.0,-160000.0,-442000.0,97138.59253,54.52,2.879999876,-174.8684845,-130.4458923,66.0,-0.520828426,40.96167755,125.966011,0.0,17.54198131558
2018-07-21 01:02:35.560,-0.1835,-0.349,-0.381,-0.12748645,-0.132389775,13.881313075,-200000.0,-158500.0,-438500.0,97138.427735,54.515,2.879999876,-174.8684845,-130.4458923,66.0,-0.520828426,40.96167755,125.966011,0.0,17.54774360654
2018-07-21 01:02:35.600,-0.195,-0.334,-0.36,-0.2549729,-0.06864655,13.11149105,-208000.0,-157000.0,-435000.0,97138.26294,54.51,2.904999852,-172.3920822,-129.8979187,66.0,-0.520828426,40.96167755,125.966011,0.0,17.5535058975
2018-07-21 01:02:35.640,-0.2293333333333333,-0.3353333333333333,-0.35,-0.2680484333333333,0.0980665,12.8074849,-208000.0,-157000.0,-435000.0,97138.71663333332,54.513333333333335,2.929999828,-169.9156799,-129.3499451,66.0,-0.520828426,40.96167755,125.966011,0.0,17.55926818846
2018-07-21 01:02:35.680,-0.2636666666666666,-0.3366666666666666,-0.34,-0.2811239666666666,0.26477955,12.50347875,-208000.0,-157000.0,-435000.0,97139.17032666667,54.516666666666666,2.929999828,-169.9156799,-129.3499451,66.0,-0.520828426,40.96167755,125.966011,0.0,17.56503047942
2018-07-21 01:02:35.720,-0.298,-0.338,-0.33,-0.2941995,0.4314926,12.1994726,-208000.0,-157000.0,-435000.0,97139.62402,54.52,2.980000019,-159.2318573,-128.3116455,65.0,-0.520828426,40.96167755,125.966011,0.0,17.57079277038
2018-07-21 01:02:35.760,-0.3775,-0.3305,-0.3175,-0.2549729,0.46091255,11.9248864,-212500.0,-155000.0,-433500.0,97139.62402,54.52,2.980000019,-159.2318573,-128.3116455,65.0,-0.520828426,40.96167755,125.966011,0.0,17.57655506134
2018-07-21 01:02:35.800,-0.457,-0.323,-0.305,-0.2157463,0.4903325,11.6503002,-217000.0,-153000.0,-432000.0,97139.62402,54.52,2.98750001175,-155.261425025,-128.06874655,64.75,0.0460715889999999,38.11148071,132.0505943,0.0,17.5823173523
2018-07-21 01:02:35.840,-0.4895,-0.3065,-0.298,-0.240262925,0.446202575,11.625783575,-220500.0,-149500.0,-432500.0,97139.86511,54.515,2.9950000045,-151.29099275,-127.8258476,64.5,0.612971604,35.26128387,138.1351776,0.0,17.533264160159998
2018-07-21 01:02:35.880,-0.522,-0.29,-0.291,-0.26477955,0.40207265,11.60126695,-224000.0,-146000.0,-433000.0,97140.1062,54.51,3.00249999725,-147.32056047499998,-127.58294865,64.25,0.612971604,35.26128387,138.1351776,0.0,17.484210968019998
2018-07-21 01:02:35.920,-0.5163333333333333,-0.2723333333333333,-0.2913333333333333,-0.2386284833333333,0.4151481833333333,11.5130071,-227000.0,-141000.0,-433333.3333333333,97139.75219666668,54.51,3.00999999,-143.3501282,-127.3400497,64.0,0.612971604,35.26128387,138.1351776,0.0,17.43515777588
2018-07-21 01:02:35.960,-0.5106666666666667,-0.2546666666666666,-0.2916666666666666,-0.2124774166666666,0.4282237166666666,11.42474725,-230000.0,-136000.0,-433666.6666666667,97139.39819333333,54.51,3.029999971,-138.69886780000002,-126.87914655,63.5,0.612971604,35.26128387,138.1351776,0.0,17.38610458374
2018-07-21 01:02:36.000,-0.505,-0.237,-0.292,-0.18632635,0.44129925,11.3364874,-233000.0,-131000.0,-434000.0,97139.04419,54.51,3.049999952,-134.0476074,-126.4182434,63.0,0.612971604,35.26128387,138.1351776,0.0,17.3370513916
2018-07-21 01:02:36.040,-0.5073333333333333,-0.223,-0.2896666666666666,-0.26477955,0.26477955,11.516275983333331,-236000.0,-125000.0,-435000.0,97138.97705,54.51,3.079999924,-121.6656647,-125.5550079,63.0,0.612971604,35.26128387,138.1351776,0.0,17.28799819946
2018-07-21 01:02:36.080,-0.5096666666666667,-0.209,-0.2873333333333333,-0.34323275,0.08825985,11.696064566666664,-239000.0,-119000.0,-436000.0,97138.90991,54.51,3.0866665843333334,-117.83666486666668,-125.27832793333334,62.66666666666666,0.612971604,35.26128387,138.1351776,0.0,17.238945007319998
2018-07-21 01:02:36.120,-0.512,-0.195,-0.285,-0.42168595,-0.08825985,11.87585315,-242000.0,-113000.0,-437000.0,97138.84277,54.51,3.0933332446666664,-114.00766503333332,-125.00164796666668,62.333333333333336,0.612971604,35.26128387,138.1351776,0.0,17.18989181518
2018-07-21 01:02:36.160,-0.5666666666666667,-0.1816666666666666,-0.2836666666666667,-0.3301572166666666,-0.0523021333333333,11.774517766666666,-244666.66666666663,-108333.33333333331,-437000.0,97138.64949333332,54.51,3.099999905,-110.1786652,-124.724968,62.0,0.612971604,35.26128387,138.1351776,0.0,17.14083862304
2018-07-21 01:02:36.200,-0.6213333333333334,-0.1683333333333333,-0.2823333333333333,-0.2386284833333333,-0.0163444166666666,11.673182383333334,-247333.3333333333,-103666.66666666669,-437000.0,97138.45621666667,54.51,3.099999905,-103.25908663,-124.33936695,61.5,1.4373596015,29.479598995,142.54039765,0.0,17.0917854309
2018-07-21 01:02:36.240,-0.676,-0.155,-0.281,-0.14709975,0.0196133,11.571847,-250000.0,-99000.0,-437000.0,97138.26294,54.51,3.099999905,-96.33950806,-123.9537659,61.0,2.261747599,23.69791412,146.9456177,0.0,16.98099899291111
2018-07-21 01:02:36.280,-0.646,-0.13,-0.269,-0.26477955,-0.16671305,11.2188076,-256000.0,-81000.0,-439000.0,97138.26294,54.51,3.099999905,-96.33950806,-123.9537659,61.0,2.261747599,23.69791412,146.9456177,0.0,16.870212554922222
2018-07-21 01:02:36.320,-0.6156666666666667,-0.1276666666666666,-0.244,-0.2876617333333333,-0.2157463,11.261303083333331,-258333.3333333333,-73666.66666666667,-440333.3333333333,97138.89770666668,54.51,3.089999914,-73.16751099,-123.2163849,60.0,2.261747599,23.69791412,146.9456177,0.0,16.759426116933334
2018-07-21 01:02:36.360,-0.5853333333333334,-0.1253333333333333,-0.219,-0.3105439166666666,-0.26477955,11.303798566666666,-260666.66666666663,-66333.33333333333,-441666.6666666667,97139.53247333333,54.51,3.089999914,-73.16751099,-123.2163849,60.0,2.261747599,23.69791412,146.9456177,0.0,16.648639678944445
2018-07-21 01:02:36.400,-0.555,-0.123,-0.194,-0.3334261,-0.3138128,11.34629405,-263000.0,-59000.0,-443000.0,97140.16724,54.51,3.089999914,-73.16751099,-123.2163849,60.0,2.261747599,23.69791412,146.9456177,0.0,16.537853240955556
2018-07-21 01:02:36.440,-0.504,-0.0945,-0.184,-0.4118793,-0.308909475,10.8853815,-266000.0,-47500.0,-444000.0,97138.93738,54.51,3.059999943,-50.63123703,-122.5209503,60.0,2.261747599,23.69791412,146.9456177,0.0,16.427066802966667
2018-07-21 01:02:36.480,-0.453,-0.066,-0.174,-0.4903325,-0.30400615,10.42446895,-269000.0,-36000.0,-445000.0,97137.70752,54.51,3.059999943,-50.63123703,-122.5209503,60.0,2.261747599,23.69791412,146.9456177,0.0,16.31628036497778
2018-07-21 01:02:36.520,-0.44025,-0.0565,-0.15625,-0.4927841625,-0.3407810874999999,10.2356909375,-270250.0,-31000.0,-445000.0,97138.227845,54.51,3.044999957,-30.551052095,-122.1860542,59.5,2.261747599,23.69791412,146.9456177,0.0,16.20549392698889
2018-07-21 01:02:36.560,-0.4275,-0.047,-0.1384999999999999,-0.4952358249999999,-0.3775560249999999,10.046912925,-271500.0,-26000.0,-445000.0,97138.74817,54.51,3.029999971,-10.47086716,-121.8511581,59.0,2.261747599,23.69791412,146.9456177,0.0,16.094707489
2018-07-21 01:02:36.600,-0.41475,-0.0375,-0.12075,-0.4976874874999999,-0.4143309625,9.8581349125,-272750.0,-21000.0,-445000.0,97139.268495,54.51,3.029999971,-10.47086716,-121.8511581,59.0,2.883408785,12.36695099,151.864624,0.0,15.933585643758336
2018-07-21 01:02:36.640,-0.402,-0.028,-0.103,-0.50013915,-0.4511059,9.6693569,-274000.0,-16000.0,-445000.0,97139.78882,54.51,3.0,26.72548294,-121.2073135,58.0,2.883408785,12.36695099,151.864624,0.0,15.772463798516668
2018-07-21 01:02:36.680,-0.439,0.005,-0.04,-0.59820565,-0.28439285,9.218251,-275000.0,-1000.0,-446000.0,97138.1958,54.51,3.0,26.72548294,-121.2073135,58.0,2.883408785,12.36695099,151.864624,0.0,15.611341953275002
2018-07-21 01:02:36.720,-0.433,0.0083333333333333,-0.023,-0.57859235,-0.2811239666666666,9.16921775,-275333.3333333333,4000.0,-446666.6666666667,97138.64746,54.51,2.9933333396666666,39.174079893333335,-121.00125373333331,57.66666666666666,2.883408785,12.36695099,151.864624,0.0,15.450220108033331
2018-07-21 01:02:36.760,-0.427,0.0116666666666666,-0.0059999999999999,-0.55897905,-0.2778550833333333,9.1201845,-275666.6666666667,9000.0,-447333.3333333333,97139.09912,54.51,2.9866666793333336,51.62267684666666,-120.79519396666667,57.333333333333336,2.883408785,12.36695099,151.864624,0.0,15.289098262791669
2018-07-21 01:02:36.800,-0.421,0.015,0.011,-0.53936575,-0.2745862,9.07115125,-276000.0,14000.0,-448000.0,97139.55078,54.51,2.980000019,64.0712738,-120.5891342,57.0,2.883408785,12.36695099,151.864624,0.0,15.12797641755
2018-07-21 01:02:36.840,-0.4053333333333333,0.0316666666666666,0.022,-0.5426346333333333,-0.18632635,8.75733845,-276333.3333333333,21000.0,-448000.0,97139.05639666668,54.51,2.970000029,100.044632,-119.9796906,57.0,2.883408785,12.36695099,151.864624,0.0,14.966854572308334
2018-07-21 01:02:36.880,-0.3896666666666666,0.0483333333333333,0.033,-0.5459035166666667,-0.0980665,8.44352565,-276666.6666666667,28000.0,-448000.0,97138.56201333334,54.51,2.970000029,100.044632,-119.9796906,57.0,2.883408785,12.36695099,151.864624,0.0,14.805732727066667
2018-07-21 01:02:36.920,-0.374,0.065,0.044,-0.5491724,-0.00980665,8.12971285,-277000.0,35000.0,-448000.0,97138.06763,54.51,2.970000029,118.58997345,-119.67920685,56.5,2.883408785,12.36695099,151.864624,0.0,14.644610881825
2018-07-21 01:02:36.960,-0.3805,0.082,0.055,-0.4903325,0.152003075,7.9629998,-277500.0,44500.0,-448000.0,97139.46228,54.51,2.970000029,137.1353149,-119.3787231,56.0,2.883408785,12.36695099,151.864624,0.0,14.483489036583332
2018-07-21 01:02:37.000,-0.387,0.099,0.066,-0.4314926,0.3138128,7.79628675,-278000.0,54000.0,-448000.0,97140.85693,54.51,2.9800000195000003,160.00533295,-119.082901,55.5,2.883408785,12.36695099,151.864624,0.0,14.322367191341666
2018-07-21 01:02:37.040,-0.3773333333333333,0.0946666666666666,0.0623333333333333,-0.4053415333333333,0.2092085333333336,8.106830666666667,-277333.3333333333,66000.0,-448333.3333333333,97140.47444333333,54.51,2.99000001,182.875351,-118.7870789,55.0,2.883408785,12.36695099,151.864624,0.0,14.1612453461
2018-07-21 01:02:37.080,-0.3676666666666666,0.0903333333333333,0.0586666666666666,-0.3791904666666666,0.1046042666666673,8.417374583333332,-276666.6666666667,78000.0,-448666.6666666667,97140.09195666669,54.51,2.99000001,182.875351,-118.7870789,55.0,2.3966145515,6.5649420925,151.9124832,0.0,14.024056781445454
2018-07-21 01:02:37.120,-0.358,0.086,0.055,-0.3530394,1.07e-15,8.7279185,-276000.0,90000.0,-449000.0,97139.70947,54.51,2.99000001,182.875351,-118.7870789,55.0,1.909820318,0.762933195,151.9603424,0.0,13.886868216790909
2018-07-21 01:02:37.160,-0.3593333333333333,0.105,0.0513333333333333,-0.3301572166666666,-0.0196132999999992,8.4533323,-276000.0,90000.0,-449000.0,97139.84781666666,54.51,3.029999971,211.8614197,-118.1875916,55.0,1.909820318,0.762933195,151.9603424,0.0,13.749679652136363
2018-07-21 01:02:37.200,-0.3606666666666666,0.124,0.0476666666666666,-0.3072750333333333,-0.0392265999999996,8.1787461,-276000.0,90000.0,-449000.0,97139.98616333332,54.51,3.0549999475,225.55088805,-117.8879929,54.5,1.909820318,0.762933195,151.9603424,0.0,13.612491087481818
2018-07-21 01:02:37.240,-0.362,0.143,0.044,-0.28439285,-0.0588399,7.9041599,-276000.0,90000.0,-449000.0,97140.12451,54.51,3.079999924,239.2403564,-117.5883942,54.0,1.909820318,0.762933195,151.9603424,0.0,13.475302522827272
2018-07-21 01:02:37.280,-0.36,0.147,0.053,-0.26477955,0.2941995,7.752156825,-273500.0,99500.0,-449000.0,97140.12451,54.51,3.079999924,239.2403564,-117.5883942,54.0,1.909820318,0.762933195,151.9603424,0.0,13.338113958172729
2018-07-21 01:02:37.320,-0.358,0.151,0.062,-0.24516625,0.6472389,7.60015375,-271000.0,109000.0,-449000.0,97140.12451,54.51,3.1149998905,259.0744934,-117.2889481,54.0,1.909820318,0.762933195,151.9603424,0.0,13.20092539351818
2018-07-21 01:02:37.360,-0.3685,0.161,0.0755,-0.20593965,0.5540757249999999,7.217694399999999,-272000.0,117500.0,-450500.0,97141.467285,54.51,3.149999857,278.9086304,-116.989502,54.0,1.909820318,0.762933195,151.9603424,0.0,13.063736828863636
2018-07-21 01:02:37.400,-0.379,0.171,0.089,-0.16671305,0.46091255,6.83523505,-273000.0,126000.0,-452000.0,97142.81006,54.51,3.149999857,278.9086304,-116.989502,54.0,1.909820318,0.762933195,151.9603424,0.0,12.92654826420909
2018-07-21 01:02:37.440,-0.3695,0.164,0.1015,-0.053936575,0.5491724,7.202984425,-268000.0,134000.0,-451000.0,97142.34619,54.51,3.1999999285,306.34570315,-116.6820641,53.5,1.0409102735,-1.5430852619999995,151.718524925,0.0,12.789359699554543
2018-07-21 01:02:37.480,-0.36,0.157,0.114,0.0588399,0.63743225,7.5707338,-263000.0,142000.0,-450000.0,97141.88232,54.51,3.25,333.7827759,-116.3746262,53.0,0.172000229,-3.849103719,151.47670745,0.0,12.6521711349
2018-07-21 01:02:37.520,-0.3416666666666667,0.1336666666666666,0.1,0.2386284833333333,0.3530394,8.548129916666667,-260333.3333333333,148666.66666666666,-450333.3333333333,97142.11018666669,54.51,3.369999886,366.1176758,-115.7509766,53.0,-1.56581986,-8.461140633,150.9930725,0.0,12.56057872768
2018-07-21 01:02:37.560,-0.3233333333333333,0.1103333333333333,0.086,0.4184170666666666,0.06864655,9.525526033333334,-257666.66666666663,155333.33333333334,-450666.6666666667,97142.33805333333,54.51,3.369999886,366.1176758,-115.7509766,53.0,-1.56581986,-8.461140633,150.9930725,0.0,12.46898632046
2018-07-21 01:02:37.600,-0.305,0.087,0.072,0.59820565,-0.2157463,10.50292215,-255000.0,162000.0,-451000.0,97142.56592,54.51,3.369999886,366.1176758,-115.7509766,53.0,-1.56581986,-8.461140633,150.9930725,0.0,12.37739391324
2018-07-21 01:02:37.640,-0.1855,0.1185,0.0789999999999999,0.573689025,-0.2598762249999999,9.899813175,-251500.0,171000.0,-450000.0,97145.114135,54.51,3.50999999,367.4620667,-115.1022873,52.0,-1.56581986,-8.461140633,150.9930725,0.0,12.28580150602
2018-07-21 01:02:37.680,-0.066,0.15,0.086,0.5491724,-0.30400615,9.2967042,-248000.0,180000.0,-449000.0,97147.66235,54.51,3.574999928,378.04904175,-114.7655678,52.0,-1.56581986,-8.461140633,150.9930725,0.0,12.1942090988
2018-07-21 01:02:37.720,-0.0203333333333333,0.154,0.1113333333333333,0.4936013833333333,-0.2092085333333333,8.904438200000001,-248000.0,183333.3333333333,-449000.0,97148.83829666668,54.51,3.639999866,388.6360168,-114.4288483,52.0,-1.56581986,-8.461140633,150.9930725,0.0,12.10261669158
2018-07-21 01:02:37.760,0.0253333333333333,0.158,0.1366666666666666,0.4380303666666666,-0.1144109166666666,8.5121722,-248000.0,186666.66666666663,-449000.0,97150.01424333332,54.51,3.639999866,388.6360168,-114.4288483,52.0,-1.56581986,-8.461140633,150.9930725,0.0,12.01102428436
2018-07-21 01:02:37.800,0.071,0.162,0.162,0.38245935,-0.0196133,8.1199062,-248000.0,190000.0,-449000.0,97151.19019,54.51,3.714999914,407.00559995,-114.08382035,51.5,-1.56581986,-8.461140633,150.9930725,0.0,11.91943187714
2018-07-21 01:02:37.840,0.1045,0.143,0.1689999999999999,0.4560092249999999,0.034323275,8.40429905,-243500.0,191000.0,-451000.0,97151.910405,54.51,3.789999962,425.3751831,-113.7387924,51.0,-1.56581986,-8.461140633,150.9930725,0.0,11.82783946992
2018-07-21 01:02:37.880,0.138,0.124,0.176,0.5295591,0.08825985,8.6886919,-239000.0,192000.0,-453000.0,97152.63062,54.51,3.789999962,425.3751831,-113.7387924,51.0,-1.56581986,-8.461140633,150.9930725,0.0,11.7362470627
2018-07-21 01:02:37.920,0.0806666666666666,0.116,0.1953333333333333,0.5426346333333333,0.1372931,8.960009216666666,-239333.3333333333,192333.3333333333,-454000.0,97153.41797333331,54.51,3.949999809,452.3120728,-113.0231094,51.0,-5.36232996,-11.30382919,149.1628571,0.0,11.683589458475
2018-07-21 01:02:37.960,0.0233333333333333,0.108,0.2146666666666666,0.5557101666666666,0.18632635,9.231326533333334,-239666.66666666663,192666.66666666663,-455000.0,97154.20532666666,54.51,3.949999809,452.3120728,-113.0231094,51.0,-5.36232996,-11.30382919,149.1628571,0.0,11.63093185425
2018-07-21 01:02:38.000,-0.034,0.1,0.234,0.5687857,0.2353596,9.50264385,-240000.0,193000.0,-456000.0,97154.99268,54.51,3.949999809,452.3120728,-113.0231094,51.0,-5.36232996,-11.30382919,149.1628571,0.0,11.578274250025
2018-07-21 01:02:38.040,-0.136,0.112,0.239,0.4854291749999999,0.2549729,9.05153795,-235000.0,194000.0,-458000.0,97156.411745,54.51,4.130000114,450.2814331,-112.2739182,51.0,-5.36232996,-11.30382919,149.1628571,0.0,11.5256166458
2018-07-21 01:02:38.080,-0.238,0.124,0.244,0.40207265,0.2745862,8.60043205,-230000.0,195000.0,-460000.0,97157.83081,54.51,4.130000114,450.2814331,-112.2739182,51.0,-5.36232996,-11.30382919,149.1628571,0.0,11.472959041575
2018-07-21 01:02:38.120,-0.27,0.128,0.224,0.4053415333333333,0.1438308666666666,8.214703816666667,-227666.66666666663,196666.66666666663,-460666.6666666667,97158.77685666666,54.51,4.319999695,467.5012512,-111.507515,51.0,-5.36232996,-11.30382919,149.1628571,0.0,11.42030143735
2018-07-21 01:02:38.160,-0.302,0.132,0.204,0.4086104166666666,0.0130755333333333,7.828975583333333,-225333.3333333333,198333.3333333333,-461333.3333333333,97159.72290333334,54.51,4.319999695,467.5012512,-111.507515,51.0,-5.36232996,-11.30382919,149.1628571,0.0,11.367643833125
2018-07-21 01:02:38.200,-0.334,0.136,0.184,0.4118793,-0.1176798,7.44324735,-223000.0,200000.0,-462000.0,97160.66895,54.51,4.319999695,467.5012512,-111.507515,51.0,-5.36232996,-11.30382919,149.1628571,0.0,11.3149862289
2018-07-21 01:02:38.240,-0.1975,0.114,0.188,0.51975245,-0.132389775,7.291244275,-216500.0,208000.0,-461500.0,97161.410525,54.51,4.529999733,500.4140015,-110.7160721,50.0,-8.381076813,-13.84453869,145.8505554,0.0,11.271207442607691
2018-07-21 01:02:38.280,-0.061,0.092,0.192,0.6276256,-0.14709975,7.1392412,-210000.0,216000.0,-461000.0,97162.1521,54.51,4.529999733,500.4140015,-110.7160721,50.0,-8.381076813,-13.84453869,145.8505554,0.0,11.227428656315386
2018-07-21 01:02:38.320,0.0383333333333333,0.0943333333333333,0.1926666666666666,0.6799277333333333,-0.1209486833333333,7.479205066666666,-208333.3333333333,220333.3333333333,-459666.6666666667,97164.69523,54.51,4.759999752,513.2501831,-109.9080276,50.0,-8.381076813,-13.84453869,145.8505554,0.0,11.183649870023077
