time,field.airspeed,field.angular_velocity.x,field.angular_velocity.y,field.angular_velocity.z,field.linear_acceleration.x,field.linear_acceleration.y,field.linear_acceleration.z,field.magnetic_field.x,field.magnetic_field.y,field.magnetic_field.z,field.fluid_pressure,field.temperature,field.alt_error,field.aspd_error,field.xtrack_error,field.wp_dist,field.measured.pitch,field.measured.roll,field.measured.yaw,fault_state
2018-07-30 21:23:58.040,15.6279697418,0.379,0.05,0.0143333333333333,0.5916678833333333,0.1144109166666666,9.244402066666666,18666.666666666668,-192333.3333333333,-432333.3333333333,96895.02563666666,58.18666666666667,0.439999998,-72.98994446,-39.16038132,5.0,-3.098537445,2.120057106,-88.13195038,0.0
2018-07-30 21:23:58.080,15.6279697418,0.379,0.05,0.0143333333333333,0.5916678833333333,0.1144109166666666,9.244402066666666,18666.666666666668,-192333.3333333333,-432333.3333333333,96895.02563666666,58.18666666666667,0.439999998,-72.98994446,-39.16038132,5.0,-3.098537445,2.120057106,-88.13195038,0.0
2018-07-30 21:23:58.120,15.6279697418,0.382,0.05,0.0046666666666666,0.7420365166666667,0.0719154333333333,9.084226783333332,18333.33333333333,-198666.66666666663,-426666.6666666667,96895.92285333334,58.18333333333333,0.439999998,-72.98994446,-39.16038132,5.0,-3.098537445,2.120057106,-88.13195038,0.0
2018-07-30 21:23:58.160,15.6279697418,0.385,0.05,-0.005,0.89240515,0.02941995,8.9240515,18000.0,-205000.0,-421000.0,96896.82007,58.18,0.439999998,-72.98994446,-39.16038132,5.0,-3.098537445,2.120057106,-88.13195038,0.0
2018-07-30 21:23:58.200,15.6279697418,0.4505,0.0175,-0.0355,0.8433719,0.063743225,8.860308275,18500.0,-214000.0,-417000.0,96901.620485,58.18,0.439999998,-72.98994446,-39.16038132,5.0,-3.098537445,2.120057106,-88.13195038,0.0
2018-07-30 21:23:58.240,15.6279697418,0.516,-0.015,-0.066,0.79433865,0.0980665,8.79656505,19000.0,-223000.0,-413000.0,96906.4209,58.18,0.579999983,-62.79697418,-37.37921143,7.0,-3.098537445,2.120057106,-88.13195038,0.0
2018-07-30 21:23:58.280,15.6279697418,0.55,-0.0475,-0.08075,0.7085304625000001,0.10787315,9.20844435,22500.0,-227000.0,-411500.0,96906.707765,58.18,0.6599999965000001,-62.039613725,-180.550598165,8.0,-3.6670417785,6.916435718,-88.065670015,0.0
2018-07-30 21:23:58.320,15.667876985322222,0.5840000000000001,-0.08,-0.0955,0.622722275,0.1176798,9.62032365,26000.0,-231000.0,-410000.0,96906.99463,58.18,0.74000001,-61.28225327,-323.7219849,9.0,-4.235546112,11.71281433,-87.99938965,0.0
2018-07-30 21:23:58.360,15.707784228844444,0.618,-0.1125,-0.11025,0.5369140875,0.12748645,10.03220295,29500.0,-235000.0,-408500.0,96907.281495,58.18,0.74000001,-61.28225327,-323.7219849,9.0,-4.235546112,11.71281433,-87.99938965,0.0
2018-07-30 21:23:58.400,15.747691472366666,0.652,-0.145,-0.125,0.4511059,0.1372931,10.44408225,33000.0,-239000.0,-407000.0,96907.56836,58.18,0.74000001,-61.28225327,-323.7219849,9.0,-4.235546112,11.71281433,-87.99938965,0.0
2018-07-30 21:23:58.440,15.787598715888889,0.669,-0.129,-0.1355,0.2745862,0.3726526999999999,10.243045925,35500.0,-247000.0,-401000.0,96907.56836,58.18,0.919999957,32.34643936,-321.9637146,10.0,-4.235546112,11.71281433,-87.99938965,0.0
2018-07-30 21:23:58.480,15.827505959411113,0.686,-0.113,-0.146,0.0980665,0.6080123,10.0420096,38000.0,-255000.0,-395000.0,96907.56836,58.18,0.919999957,32.34643936,-321.9637146,10.0,-4.235546112,11.71281433,-87.99938965,0.0
2018-07-30 21:23:58.520,15.867413202933331,0.6645000000000001,-0.0965,-0.1505,0.4511059,0.544269075,9.9635564,38000.0,-268500.0,-384500.0,96906.8573,58.175,1.100000024,12.13521957,-320.2139282,12.0,-4.235546112,11.71281433,-87.99938965,0.0
2018-07-30 21:23:58.560,15.907320446455556,0.643,-0.08,-0.155,0.8041453,0.48052585,9.8851032,38000.0,-282000.0,-374000.0,96906.14624,58.17,1.100000024,12.13521957,-320.2139282,12.0,-4.235546112,11.71281433,-87.99938965,0.0
2018-07-30 21:23:58.600,15.947227689977778,0.61,-0.0685,-0.16,0.818855275,0.465815875,10.037106275,36500.0,-296000.0,-361500.0,96910.845945,58.17,1.289999962,1.286506653,-318.4218445,14.0,-4.235546112,11.71281433,-87.99938965,0.0
2018-07-30 21:23:58.640,15.9871349335,0.577,-0.057,-0.165,0.83356525,0.4511059,10.18910935,35000.0,-310000.0,-349000.0,96915.54565,58.17,1.289999962,1.286506653,-318.4218445,14.0,-3.483376741,23.55781174,-84.80445099,0.0
2018-07-30 21:23:58.680,16.03673172,0.538,-0.0526666666666666,-0.168,0.8956740333333334,0.3693838166666666,9.9635564,38666.66666666666,-315000.0,-343666.6666666667,96915.99324333332,58.17,1.3849999905,-6.8563461285,-317.529953,15.0,-3.483376741,23.55781174,-84.80445099,0.0
2018-07-30 21:23:58.720,16.0863285065,0.499,-0.0483333333333333,-0.1709999999999999,0.9577828166666666,0.2876617333333333,9.73800345,42333.333333333336,-320000.0,-338333.3333333333,96916.44083666668,58.17,1.480000019,-14.99919891,-316.6380615,16.0,-3.483376741,23.55781174,-84.80445099,0.0
2018-07-30 21:23:58.760,16.135925293,0.46,-0.044,-0.174,1.0198916,0.20593965,9.5124505,46000.0,-325000.0,-333000.0,96916.88843,58.17,1.480000019,-14.99919891,-316.6380615,16.0,-3.483376741,23.55781174,-84.80445099,0.0
2018-07-30 21:23:58.800,16.1855220795,0.44025,-0.05225,-0.17825,0.9414384,0.2181979625,9.478127225,50500.0,-331500.0,-325500.0,96918.441775,58.1675,1.679999948,-28.6699295,-314.862915,18.0,-3.483376741,23.55781174,-84.80445099,0.0
2018-07-30 21:23:58.840,16.235118866,0.4205,-0.0605,-0.1825,0.8629852,0.230456275,9.44380395,55000.0,-338000.0,-318000.0,96919.99512,58.165,1.679999948,-28.6699295,-314.862915,18.0,-3.483376741,23.55781174,-84.80445099,0.0
2018-07-30 21:23:58.880,16.284715652499997,0.40075,-0.06875,-0.18675,0.784532,0.2427145875,9.409480675,59500.0,-344500.0,-310500.0,96921.548465,58.1625,1.679999948,-28.6699295,-314.862915,18.0,-3.483376741,23.55781174,-84.80445099,0.0
2018-07-30 21:23:58.920,16.334312438999998,0.381,-0.077,-0.191,0.7060788,0.2549729,9.3751574,64000.0,-351000.0,-303000.0,96923.10181,58.16,1.899999976,-38.39092255,-313.0455017,20.0,-3.483376741,23.55781174,-84.80445099,0.0
2018-07-30 21:23:58.960,16.3839092255,0.327,-0.043,-0.198,0.42168595,0.75511205,8.825985,64000.0,-351000.0,-303000.0,96923.10181,58.16,1.899999976,-38.39092255,-313.0455017,20.0,-4.403023243,31.27048111,-81.71666718,0.0
2018-07-30 21:23:59.000,16.447173860366664,0.2723333333333333,-0.051,-0.2046666666666666,0.5034080333333333,0.6145500666666667,9.094033433333331,67000.0,-354000.0,-298000.0,96923.64298666666,58.16,2.014999926,-44.39020157,-312.17059325,21.0,-4.403023243,31.27048111,-81.71666718,0.0
2018-07-30 21:23:59.040,16.51043849523333,0.2176666666666666,-0.059,-0.2113333333333333,0.5851301166666667,0.4739880833333333,9.362081866666664,70000.0,-357000.0,-293000.0,96924.18416333334,58.16,2.129999876,-50.38948059,-311.2956848,22.0,-4.403023243,31.27048111,-81.71666718,0.0
2018-07-30 21:23:59.080,16.5737031301,0.163,-0.067,-0.218,0.6668522,0.3334261,9.6301303,73000.0,-360000.0,-288000.0,96924.72534,58.16,2.259999871,-52.76155472,-310.39120485,23.0,-4.403023243,31.27048111,-81.71666718,0.0
2018-07-30 21:23:59.120,16.636967764966666,0.1343333333333333,-0.075,-0.2283333333333333,0.5262902166666666,0.3759215833333333,9.75761675,78666.66666666667,-363000.0,-284333.3333333333,96926.13118333332,58.156666666666666,2.389999866,-55.13362885,-309.4867249,24.0,-4.403023243,31.27048111,-81.71666718,0.0
2018-07-30 21:23:59.160,16.700232399833332,0.1056666666666666,-0.083,-0.2386666666666666,0.3857282333333333,0.4184170666666666,9.8851032,84333.33333333333,-366000.0,-280666.6666666667,96927.53702666669,58.15333333333333,2.45749986125,-60.43391228,-309.03446965,24.5,-4.403023243,31.27048111,-81.71666718,0.0
2018-07-30 21:23:59.200,16.7634970347,0.077,-0.091,-0.249,0.24516625,0.46091255,10.01258965,90000.0,-369000.0,-277000.0,96928.94287,58.15,2.5249998565,-65.73419571,-308.5822144,25.0,-4.403023243,31.27048111,-81.71666718,0.0
2018-07-30 21:23:59.240,16.826761669566668,0.107,-0.104,-0.2615,0.0637432249999999,0.4903325,9.595807025,90000.0,-369000.0,-277000.0,96928.94287,58.15,2.59249985175,-71.03447914,-308.12995915,25.5,-4.403023243,31.27048111,-81.71666718,0.0
2018-07-30 21:23:59.280,16.890026304433334,0.137,-0.117,-0.274,-0.1176798,0.51975245,9.1790244,90000.0,-369000.0,-277000.0,96928.94287,58.15,2.659999847,-76.33476257,-307.6777039,26.0,-4.403023243,31.27048111,-81.71666718,0.0
2018-07-30 21:23:59.320,16.9532909393,0.122,-0.157,-0.28,-0.122583125,0.475622525,9.291800875,95500.0,-368000.0,-277000.0,96929.058835,58.15,2.950000048,-95.32909393,-305.8771973,28.0,-4.403023243,31.27048111,-81.71666718,0.0
2018-07-30 21:23:59.360,17.002992357500002,0.107,-0.197,-0.286,-0.12748645,0.4314926,9.40457735,101000.0,-367000.0,-277000.0,96929.1748,58.15,2.950000048,-95.32909393,-305.8771973,28.0,-6.257927418,34.52079391,-76.12904358,0.0
2018-07-30 21:23:59.400,17.0526937757,0.068,-0.214,-0.288,-0.2157463,0.387362675,9.6301303,105500.0,-366000.0,-275500.0,96929.367065,58.145,3.105000019,-101.791667915,-304.9768982,29.0,-6.257927418,34.52079391,-76.12904358,0.0
2018-07-30 21:23:59.440,17.1023951939,0.029,-0.231,-0.29,-0.30400615,0.34323275,9.85568325,110000.0,-365000.0,-274000.0,96929.55933,58.14,3.25999999,-108.2542419,-304.0765991,30.0,-6.257927418,34.52079391,-76.12904358,0.0
2018-07-30 21:23:59.480,17.1520966121,-0.0173333333333333,-0.2396666666666666,-0.2863333333333333,-0.4870636166666666,0.3301572166666666,9.966825283333334,112666.66666666669,-364333.3333333333,-274000.0,96929.55933,58.14,3.424999952,-111.7236137,-303.18478395,31.0,-6.257927418,34.52079391,-76.12904358,0.0
2018-07-30 21:23:59.520,17.2017980303,-0.0636666666666666,-0.2483333333333333,-0.2826666666666667,-0.6701210833333333,0.3170816833333333,10.077967316666667,115333.33333333331,-363666.6666666667,-274000.0,96929.55933,58.14,3.589999914,-115.1929855,-302.2929688,32.0,-6.257927418,34.52079391,-76.12904358,0.0
2018-07-30 21:23:59.560,17.2514994485,-0.11,-0.257,-0.279,-0.85317855,0.30400615,10.18910935,118000.0,-363000.0,-274000.0,96929.55933,58.14,3.589999914,-115.1929855,-302.2929688,32.0,-6.257927418,34.52079391,-76.12904358,0.0
2018-07-30 21:23:59.600,17.3012008667,-0.0975,-0.265,-0.2685,-0.85317855,0.348136075,10.802024975,121500.0,-360500.0,-277500.0,96927.798465,58.135000000000005,3.919999838,-124.9317169,-300.5431824,34.0,-6.257927418,34.52079391,-76.12904358,0.0
2018-07-30 21:23:59.640,17.350902284900002,-0.085,-0.273,-0.258,-0.85317855,0.392266,11.4149406,125000.0,-358000.0,-281000.0,96926.0376,58.13,3.919999838,-124.9317169,-300.5431824,34.0,-6.257927418,34.52079391,-76.12904358,0.0
2018-07-30 21:23:59.680,17.4006037031,-0.094,-0.261,-0.255,-0.8858673833333334,0.3563082833333333,11.56204035,125666.66666666669,-356000.0,-283666.6666666667,96928.27962333334,58.13333333333333,4.259999752,-140.5197144,-298.8016357,36.0,-6.257927418,34.52079391,-76.12904358,0.0
2018-07-30 21:23:59.720,17.4503051213,-0.103,-0.249,-0.252,-0.9185562166666666,0.3203505666666666,11.7091401,126333.33333333331,-354000.0,-286333.3333333333,96930.52164666666,58.13666666666667,4.259999752,-140.5197144,-298.8016357,36.0,-6.257927418,34.52079391,-76.12904358,0.0
2018-07-30 21:23:59.760,17.5000065395,-0.112,-0.237,-0.249,-0.95124505,0.28439285,11.85623985,127000.0,-352000.0,-289000.0,96932.76367,58.14,4.419999838,-152.7153931,-297.96476745,36.5,-6.257927418,34.52079391,-76.12904358,0.0
2018-07-30 21:23:59.800,17.5497079577,-0.1366666666666666,-0.2233333333333333,-0.2416666666666666,-0.9610517,0.2909306166666666,11.849702083333334,127333.33333333331,-350000.0,-291666.6666666667,96932.16756,58.13666666666667,4.579999924,-164.9110718,-297.1278992,37.0,-6.257927418,34.52079391,-76.12904358,0.0
2018-07-30 21:23:59.840,17.5994093759,-0.1613333333333333,-0.2096666666666666,-0.2343333333333333,-0.97085835,0.2974683833333333,11.843164316666666,127666.66666666669,-348000.0,-294333.3333333333,96931.57145,58.13333333333333,4.579999924,-164.9110718,-297.1278992,37.0,-6.257927418,34.52079391,-76.12904358,0.0
2018-07-30 21:23:59.880,17.6491107941,-0.186,-0.196,-0.227,-0.980665,0.30400615,11.83662655,128000.0,-346000.0,-297000.0,96930.97534,58.13,4.683333238,-168.96444703333333,-296.5671488666667,37.66666666666666,-5.922786871666667,33.56468899666667,-72.48088328,0.0
2018-07-30 21:23:59.920,17.683386716009093,-0.2395,-0.185,-0.2245,-0.9414384,0.318716125,12.1014061,129500.0,-341500.0,-299500.0,96935.458375,58.13,4.786666552,-173.01782226666668,-296.0063985333333,38.333333333333336,-5.587646325333333,32.608584083333334,-68.83272298,0.0
2018-07-30 21:23:59.960,17.71766263791818,-0.293,-0.174,-0.222,-0.9022118,0.3334261,12.36618565,131000.0,-337000.0,-302000.0,96939.94141,58.13,4.889999866,-177.0711975,-295.4456482,39.0,-5.252505779,31.65247917,-65.18456268,0.0
2018-07-30 21:24:00.000,17.751938559827273,-0.3,-0.1679999999999999,-0.217,-0.9218251,0.51975245,12.58193195,131000.0,-332500.0,-309000.0,96940.158085,58.125,5.179999828,-187.4816895,-293.7972717,41.0,-5.252505779,31.65247917,-65.18456268,0.0
2018-07-30 21:24:00.040,17.786214481736366,-0.307,-0.162,-0.212,-0.9414384,0.7060788,12.79767825,131000.0,-328000.0,-316000.0,96940.37476,58.12,5.179999828,-187.4816895,-293.7972717,41.0,-5.252505779,31.65247917,-65.18456268,0.0
2018-07-30 21:24:00.080,17.820490403645454,-0.3186666666666666,-0.148,-0.2153333333333333,-0.9577828166666666,0.6733899666666666,12.66038515,131333.33333333334,-324000.0,-320000.0,96940.71045333332,58.12,5.179999828,-187.4816895,-293.7972717,41.0,-5.252505779,31.65247917,-65.18456268,0.0
2018-07-30 21:24:00.120,17.854766325554547,-0.3303333333333333,-0.134,-0.2186666666666666,-0.9741272333333334,0.6407011333333333,12.52309205,131666.66666666666,-320000.0,-324000.0,96941.04614666667,58.12,5.319999933,-188.7521744,-292.9900055,42.0,-5.252505779,31.65247917,-65.18456268,0.0
2018-07-30 21:24:00.160,17.889042247463635,-0.342,-0.12,-0.222,-0.99047165,0.6080123,12.38579895,132000.0,-316000.0,-328000.0,96941.38184,58.12,5.460000038,-190.0226593,-292.1827393,43.0,-5.252505779,31.65247917,-65.18456268,0.0
2018-07-30 21:24:00.200,17.923318169372727,-0.341,-0.1126666666666666,-0.231,-1.01008495,0.5034080333333333,12.274656916666666,132000.0,-310666.6666666667,-332333.3333333333,96942.40519333334,58.12,5.710000038,-202.1989746,-290.5935059,45.0,-5.252505779,31.65247917,-65.18456268,0.0
2018-07-30 21:24:00.240,17.95759409128182,-0.34,-0.1053333333333333,-0.24,-1.02969825,0.3988037666666666,12.163514883333333,132000.0,-305333.3333333333,-336666.6666666667,96943.42854666666,58.12,5.710000038,-202.1989746,-290.5935059,45.0,-5.252505779,31.65247917,-65.18456268,0.0
2018-07-30 21:24:00.280,17.99187001319091,-0.339,-0.098,-0.249,-1.04931155,0.2941995,12.05237285,132000.0,-300000.0,-341000.0,96944.4519,58.12,5.710000038,-202.1989746,-290.5935059,45.0,-5.252505779,31.65247917,-65.18456268,0.0
2018-07-30 21:24:00.320,18.0261459351,-0.2995,-0.086,-0.258,-1.10815145,0.102969825,11.56204035,133500.0,-293500.0,-348000.0,96946.365355,58.12,5.8250000475,-202.40678405,-289.81159975,46.0,-5.210533142,27.407948495,-61.71522522,0.0
2018-07-30 21:24:00.360,17.980309327483333,-0.26,-0.074,-0.267,-1.16699135,-0.08825985,11.07170785,135000.0,-287000.0,-355000.0,96948.27881,58.12,5.940000057,-202.6145935,-289.0296936,47.0,-5.168560505,23.16341782,-58.24588776,0.0
2018-07-30 21:24:00.400,17.93447271986667,-0.2553333333333333,-0.0703333333333333,-0.2523333333333333,-1.176798,0.0621087833333333,11.048825666666666,135666.66666666666,-281333.3333333333,-359000.0,96949.22689,58.11666666666667,6.159999847,-203.4713745,-287.4994507,49.0,-5.168560505,23.16341782,-58.24588776,0.0
2018-07-30 21:24:00.440,17.88863611225,-0.2506666666666666,-0.0666666666666666,-0.2376666666666666,-1.18660465,0.2124774166666666,11.025943483333334,136333.33333333334,-275666.6666666667,-363000.0,96950.17497,58.11333333333333,6.159999847,-203.4713745,-287.4994507,49.0,-5.168560505,23.16341782,-58.24588776,0.0
2018-07-30 21:24:00.480,17.842799504633334,-0.246,-0.063,-0.223,-1.1964113,0.36284605,11.0030613,137000.0,-270000.0,-367000.0,96951.12305,58.11,6.159999847,-203.4713745,-287.4994507,49.0,-5.168560505,23.16341782,-58.24588776,0.0
2018-07-30 21:24:00.520,17.796962897016666,-0.262,-0.0485,-0.2155,-1.18660465,0.0441299249999999,10.71866845,140500.0,-264000.0,-370000.0,96951.12305,58.11,6.349999905,-193.8106537,-286.0455017,51.0,-5.168560505,23.16341782,-58.24588776,0.0
2018-07-30 21:24:00.560,17.7511262894,-0.278,-0.034,-0.208,-1.176798,-0.2745862,10.4342756,144000.0,-258000.0,-373000.0,96951.12305,58.11,6.349999905,-193.8106537,-286.0455017,51.0,-5.168560505,23.16341782,-58.24588776,0.0
2018-07-30 21:24:00.600,17.705289681783334,-0.2733333333333334,-0.0366666666666666,-0.189,-1.2519823166666666,-0.2680484333333333,10.202184883333333,144333.33333333334,-253333.3333333333,-376000.0,96951.37126,58.11,6.4449999335,-189.82810975,-285.31007385,52.0,-5.168560505,23.16341782,-58.24588776,0.0
2018-07-30 21:24:00.640,17.659453074166667,-0.2686666666666666,-0.0393333333333333,-0.1699999999999999,-1.3271666333333334,-0.2615106666666666,9.970094166666668,144666.66666666666,-248666.66666666663,-379000.0,96951.61947,58.11,6.539999962,-185.8455658,-284.574646,53.0,-5.168560505,23.16341782,-58.24588776,0.0
2018-07-30 21:24:00.680,17.61361646655,-0.264,-0.042,-0.151,-1.40235095,-0.2549729,9.73800345,145000.0,-244000.0,-382000.0,96951.86768,58.11,6.539999962,-185.8455658,-284.574646,53.0,-5.168560505,23.16341782,-58.24588776,0.0
2018-07-30 21:24:00.720,17.567779858933335,-0.233,-0.047,-0.131,-1.36312435,0.0980665,9.419287325,146500.0,-237000.0,-386000.0,96954.052735,58.105,6.6349999905,-179.9307785,-283.84342955,54.0,-5.168560505,23.16341782,-58.24588776,0.0
2018-07-30 21:24:00.760,17.521943251316667,-0.202,-0.052,-0.111,-1.32389775,0.4511059,9.1005712,148000.0,-230000.0,-390000.0,96956.23779,58.1,6.730000019,-174.0159912,-283.1122131,55.0,-5.168560505,23.16341782,-58.24588776,0.0
2018-07-30 21:24:00.800,17.4761066437,-0.2336666666666666,-0.0486666666666666,-0.0976666666666666,-1.2715956166666669,0.5230213333333333,9.322855266666666,148333.33333333334,-226333.3333333333,-393000.0,96956.99666,58.1,6.730000019,-174.0159912,-283.1122131,55.0,-5.168560505,23.16341782,-58.24588776,0.0
2018-07-30 21:24:00.840,17.43187046053,-0.2653333333333333,-0.0453333333333333,-0.0843333333333333,-1.219293483333333,0.5949367666666667,9.545139333333331,148666.66666666666,-222666.66666666663,-396000.0,96957.75553,58.1,6.929999828,-147.6106567,-281.666748,57.0,-6.066911697,15.70122051,-52.52422714,0.0
2018-07-30 21:24:00.880,17.38763427736,-0.297,-0.042,-0.071,-1.16699135,0.6668522,9.7674234,149000.0,-219000.0,-399000.0,96958.5144,58.1,7.029999733,-136.0281906,-280.9524078,58.0,-6.066911697,15.70122051,-52.52422714,0.0
2018-07-30 21:24:00.920,17.34339809419,-0.3429999999999999,-0.0335,-0.0635,-1.113054775,0.465815875,9.840973275,149000.0,-213500.0,-401000.0,96958.25195,58.1,7.129999638,-124.4457245,-280.2380676,59.0,-6.066911697,15.70122051,-52.52422714,0.0
2018-07-30 21:24:00.960,17.29916191102,-0.389,-0.025,-0.056,-1.0591182,0.26477955,9.91452315,149000.0,-208000.0,-403000.0,96957.9895,58.1,7.129999638,-124.4457245,-280.2380676,59.0,-6.066911697,15.70122051,-52.52422714,0.0
2018-07-30 21:24:01.000,17.25492572785,-0.3675,-0.0145,-0.049,-1.083634825,0.2353596,9.8654899,149000.0,-201500.0,-406500.0,96959.545895,58.095,7.339999676,-118.3919907,-278.8348389,61.0,-6.066911697,15.70122051,-52.52422714,0.0
2018-07-30 21:24:01.040,17.210689544679997,-0.346,-0.004,-0.042,-1.10815145,0.20593965,9.81645665,149000.0,-195000.0,-410000.0,96961.10229,58.09,7.339999676,-118.3919907,-278.8348389,61.0,-6.066911697,15.70122051,-52.52422714,0.0
2018-07-30 21:24:01.080,17.166453361509998,-0.3416666666666667,0.0026666666666666,-0.0393333333333333,-1.1048825666666666,0.1895952333333333,9.800112233333332,148666.66666666666,-190333.3333333333,-413000.0,96961.58650333332,58.09,7.339999676,-118.3919907,-278.8348389,61.0,-6.066911697,15.70122051,-52.52422714,0.0
2018-07-30 21:24:01.120,17.122217178339998,-0.3373333333333333,0.0093333333333333,-0.0366666666666666,-1.1016136833333334,0.1732508166666666,9.783767816666666,148333.33333333334,-185666.66666666663,-416000.0,96962.07071666668,58.09,7.439999819,-116.1436081,-278.145813,62.0,-6.066911697,15.70122051,-52.52422714,0.0
2018-07-30 21:24:01.160,17.077980995169998,-0.333,0.016,-0.034,-1.0983448,0.1569064,9.7674234,148000.0,-181000.0,-419000.0,96962.55493,58.09,7.539999962,-113.8952255,-277.4567871,63.0,-6.066911697,15.70122051,-52.52422714,0.0
2018-07-30 21:24:01.200,17.033744812,-0.3316666666666666,0.0246666666666666,-0.0323333333333333,-1.1146892166666666,0.2386284833333333,9.427459533333334,148000.0,-175666.66666666666,-421333.3333333333,96963.87532333333,58.09,7.75,-103.3744812,-276.0620117,65.0,-6.276864052,8.021648407,-51.10216904,0.0
2018-07-30 21:24:01.240,16.983989715566665,-0.3303333333333333,0.0333333333333333,-0.0306666666666666,-1.1310336333333333,0.3203505666666666,9.087495666666667,148000.0,-170333.33333333334,-423666.6666666667,96965.19571666668,58.09,7.75,-103.3744812,-276.0620117,65.0,-6.276864052,8.021648407,-51.10216904,0.0
2018-07-30 21:24:01.280,16.93423461913333,-0.329,0.042,-0.029,-1.14737805,0.40207265,8.7475318,148000.0,-165000.0,-426000.0,96966.51611,58.09,7.849999904500001,-96.165943145,-275.381546,66.0,-6.276864052,8.021648407,-51.10216904,0.0
2018-07-30 21:24:01.320,16.884479522699998,-0.345,0.047,-0.034,-1.1343025166666667,0.4118793,8.727918500000001,148000.0,-160666.66666666666,-427666.6666666667,96967.73885,58.09,7.949999809,-88.95740509,-274.7010803,67.0,-6.276864052,8.021648407,-51.10216904,0.0
2018-07-30 21:24:01.360,16.834724426266664,-0.361,0.052,-0.039,-1.1212269833333333,0.42168595,8.7083052,148000.0,-156333.33333333334,-429333.3333333333,96968.96159,58.09,7.949999809,-88.95740509,-274.7010803,67.0,-6.276864052,8.021648407,-51.10216904,0.0
2018-07-30 21:24:01.400,16.784969329833334,-0.377,0.057,-0.044,-1.10815145,0.4314926,8.6886919,148000.0,-152000.0,-431000.0,96970.18433,58.09,8.159999847,-68.12877655,-273.3484497,69.0,-6.276864052,8.021648407,-51.10216904,0.0
2018-07-30 21:24:01.440,16.7352142334,-0.3379999999999999,0.0625,-0.0475,-1.0983448,0.4314926,8.595528725000001,148500.0,-144500.0,-434000.0,96969.848635,58.085,8.159999847,-68.12877655,-273.3484497,69.0,-6.276864052,8.021648407,-51.10216904,0.0
2018-07-30 21:24:01.480,16.685459136966667,-0.299,0.068,-0.051,-1.08853815,0.4314926,8.50236555,149000.0,-137000.0,-437000.0,96969.51294,58.08,8.159999847,-68.12877655,-273.3484497,69.0,-6.276864052,8.021648407,-51.10216904,0.0
2018-07-30 21:24:01.520,16.635704040533334,-0.2324999999999999,0.0755,-0.051,-1.083634825,0.4903325,8.320942525,150500.0,-129500.0,-438500.0,96969.29016,58.08,8.2699999805,-63.36183548,-272.66375730000004,70.0,-6.60214448,6.385292440750001,-50.8999834075,0.0
2018-07-30 21:24:01.560,16.5859489441,-0.166,0.083,-0.051,-1.0787315,0.5491724,8.1395195,152000.0,-122000.0,-440000.0,96969.06738,58.08,8.380000114,-58.59489441,-271.9790649,71.0,-6.927424908,4.748936474500001,-50.697797775,0.0
2018-07-30 21:24:01.600,16.528721915355554,-0.1773333333333333,0.0843333333333333,-0.0443333333333333,-1.06892485,0.5949367666666666,8.263737066666668,153000.0,-117666.66666666669,-441000.0,96970.72346666666,58.07666666666667,8.609999657,-43.49460602,-270.6011963,73.0,-7.577985764,1.476224542,-50.29342651,0.0
2018-07-30 21:24:01.640,16.47149488661111,-0.1886666666666666,0.0856666666666666,-0.0376666666666666,-1.0591182,0.6407011333333333,8.387954633333333,154000.0,-113333.33333333331,-442000.0,96972.37955333332,58.07333333333333,8.609999657,-43.49460602,-270.6011963,73.0,-7.577985764,1.476224542,-50.29342651,0.0
2018-07-30 21:24:01.680,16.414267857866665,-0.2,0.087,-0.031,-1.04931155,0.6864655,8.5121722,155000.0,-109000.0,-443000.0,96974.03564,58.07,8.689999580666667,-37.62639363666666,-270.1446736666667,73.66666666666667,-7.577985764,1.476224542,-50.29342651,0.0
2018-07-30 21:24:01.720,16.357040829122223,-0.174,0.0829999999999999,-0.0235,-1.0591182,0.7060788,8.7475318,156500.0,-104500.0,-443500.0,96974.99084,58.07,8.769999504333333,-31.758181253333333,-269.6881510333333,74.33333333333333,-7.577985764,1.476224542,-50.29342651,0.0
2018-07-30 21:24:01.760,16.299813800377777,-0.148,0.079,-0.016,-1.06892485,0.7256921,8.9828914,158000.0,-100000.0,-444000.0,96975.94604,58.07,8.849999428,-25.88996887,-269.2316284,75.0,-7.577985764,1.476224542,-50.29342651,0.0
2018-07-30 21:24:01.800,16.242586771633334,-0.1383333333333333,0.0806666666666666,-0.0083333333333333,-1.1048825666666666,0.7387676333333333,8.8848249,159666.66666666666,-97000.0,-444666.6666666667,96978.34879333332,58.07,9.109999657,-19.3441391,-267.8622131,77.0,-7.577985764,1.476224542,-50.29342651,0.0
2018-07-30 21:24:01.840,16.18535974288889,-0.1286666666666666,0.0823333333333333,-0.0006666666666666,-1.140840283333333,0.7518431666666666,8.7867584,161333.33333333334,-94000.0,-445333.3333333333,96980.75154666668,58.07,9.109999657,-19.3441391,-267.8622131,77.0,-7.577985764,1.476224542,-50.29342651,0.0
2018-07-30 21:24:01.880,16.128132714144446,-0.119,0.084,0.007,-1.176798,0.7649187,8.6886919,163000.0,-91000.0,-446000.0,96983.1543,58.07,9.109999657,-19.3441391,-267.8622131,77.0,-7.577985764,1.476224542,-50.29342651,0.0
2018-07-30 21:24:01.920,16.0709056854,-0.1104999999999999,0.083,0.015,-1.162088025,0.818855275,8.69849855,165500.0,-87500.0,-445500.0,96982.18079,58.07,9.369999886,-7.090568542,-266.5010986,78.0,-7.577985764,1.476224542,-50.29342651,0.0
2018-07-30 21:24:01.960,16.038655757883333,-0.102,0.082,0.023,-1.14737805,0.87279185,8.7083052,168000.0,-84000.0,-445000.0,96981.20728,58.07,9.369999886,-7.090568542,-266.5010986,78.0,-9.782242775,-2.497425318,-49.51287842,0.0
2018-07-30 21:24:02.000,16.006405830366667,-0.108,0.079,0.028,-1.18660465,0.8564474333333334,8.9436648,169666.66666666666,-82333.33333333333,-444666.6666666667,96982.01701,58.06666666666667,9.5099997525,-6.6430091855,-265.8079376,79.0,-9.782242775,-2.497425318,-49.51287842,0.0
2018-07-30 21:24:02.040,15.97415590285,-0.1139999999999999,0.076,0.033,-1.22583125,0.8401030166666666,9.1790244,171333.33333333334,-80666.66666666667,-444333.3333333333,96982.82674,58.06333333333333,9.649999619,-6.195449829,-265.1147766,80.0,-9.782242775,-2.497425318,-49.51287842,0.0
2018-07-30 21:24:02.080,15.941905975333333,-0.12,0.073,0.038,-1.26505785,0.8237586,9.414384,173000.0,-79000.0,-444000.0,96983.63647,58.06,9.7899994855,-4.8163414,-264.41734315,81.0,-9.782242775,-2.497425318,-49.51287842,0.0
2018-07-30 21:24:02.120,15.909656047816666,-0.1435,0.0765,0.043,-1.289574475,0.7649187,8.9632781,174500.0,-77500.0,-443500.0,96986.74011,58.06,9.929999352,-3.437232971,-263.7199097,82.0,-9.782242775,-2.497425318,-49.51287842,0.0
2018-07-30 21:24:02.160,15.8774061203,-0.167,0.08,0.048,-1.3140911,0.7060788,8.5121722,176000.0,-76000.0,-443000.0,96989.84375,58.06,9.929999352,-3.437232971,-263.7199097,82.0,-9.782242775,-2.497425318,-49.51287842,0.0
2018-07-30 21:24:02.200,15.845156192783334,-0.181,0.079,0.0473333333333333,-1.2781333833333333,0.7256921,8.391223516666667,179000.0,-71333.33333333333,-443333.3333333333,96991.08683333332,58.06,10.21999931,0.740718842,-262.3251648,84.0,-9.782242775,-2.497425318,-49.51287842,0.0
2018-07-30 21:24:02.240,15.812906265266667,-0.195,0.078,0.0466666666666666,-1.2421756666666668,0.7453054,8.270274833333334,182000.0,-66666.66666666667,-443666.6666666667,96992.32991666668,58.06,10.21999931,0.740718842,-262.3251648,84.0,-9.782242775,-2.497425318,-49.51287842,0.0
2018-07-30 21:24:02.280,15.78065633775,-0.209,0.077,0.046,-1.20621795,0.7649187,8.14932615,185000.0,-62000.0,-444000.0,96993.573,58.06,10.21999931,0.740718842,-262.3251648,84.0,-9.782242775,-2.497425318,-49.51287842,0.0
2018-07-30 21:24:02.320,15.748406410233333,-0.145,0.059,0.0445,-1.18660465,0.7453053999999999,8.48275225,185000.0,-62000.0,-444000.0,96993.573,58.06,10.5199995,15.84033966,-260.9134827,86.0,-9.782242775,-2.497425318,-49.51287842,0.0
2018-07-30 21:24:02.360,15.716156482716666,-0.081,0.041,0.043,-1.16699135,0.7256921,8.81617835,185000.0,-62000.0,-444000.0,96993.573,58.06,10.5199995,15.84033966,-260.9134827,86.0,-9.782242775,-2.497425318,-49.51287842,0.0
2018-07-30 21:24:02.400,15.6839065552,-0.1,0.0579999999999999,0.0435,-1.201314625,0.6766588499999999,8.517075525,186000.0,-58000.0,-443500.0,96996.203615,58.055,10.82999992,31.60934448,-259.4932861,88.0,-9.782242775,-2.497425318,-49.51287842,0.0
2018-07-30 21:24:02.440,15.64453623846923,-0.119,0.075,0.044,-1.2356379,0.6276256,8.2179727,187000.0,-54000.0,-443000.0,96998.83423,58.05,10.82999992,31.60934448,-259.4932861,88.0,-12.60023785,-6.975029945,-49.873806,0.0
2018-07-30 21:24:02.480,15.60516592173846,-0.0896666666666666,0.0776666666666666,0.0483333333333333,-1.28467115,0.6014745333333333,7.917235433333333,188333.3333333333,-52666.66666666666,-443000.0,97000.01424333332,58.05,10.98999977,39.001512525,-258.78323365,89.0,-12.60023785,-6.975029945,-49.873806,0.0
2018-07-30 21:24:02.520,15.565795605007692,-0.0603333333333333,0.0803333333333333,0.0526666666666666,-1.3337044,0.5753234666666667,7.616498166666667,189666.66666666663,-51333.333333333336,-443000.0,97001.19425666668,58.05,11.14999962,46.39368057,-258.0731812,90.0,-12.60023785,-6.975029945,-49.873806,0.0
2018-07-30 21:24:02.560,15.526425288276924,-0.031,0.083,0.057,-1.38273765,0.5491724,7.3157609,191000.0,-50000.0,-443000.0,97002.37427,58.05,11.14999962,46.39368057,-258.0731812,90.0,-12.60023785,-6.975029945,-49.873806,0.0
2018-07-30 21:24:02.600,15.487054971546154,-0.002,0.0806666666666666,0.0626666666666666,-1.3958131833333334,0.4870636166666666,6.949645966666667,192333.3333333333,-48666.66666666666,-442666.6666666667,97003.9917,58.05,11.5,53.38344574,-256.6444702,92.0,-12.60023785,-6.975029945,-49.873806,0.0
2018-07-30 21:24:02.640,15.447684654815385,0.0269999999999999,0.0783333333333333,0.0683333333333333,-1.4088887166666666,0.4249548333333333,6.583531033333333,193666.66666666663,-47333.333333333336,-442333.3333333333,97005.60913,58.05,11.5,53.38344574,-256.6444702,92.0,-12.60023785,-6.975029945,-49.873806,0.0
2018-07-30 21:24:02.680,15.408314338084615,0.056,0.076,0.074,-1.42196425,0.36284605,6.2174161,195000.0,-46000.0,-442000.0,97007.22656,58.05,11.684999945,59.14721298,-255.9259491,93.0,-12.60023785,-6.975029945,-49.873806,0.0
2018-07-30 21:24:02.720,15.368944021353846,0.133,0.076,0.0799999999999999,-1.436674225,0.2598762249999999,6.3154826,197500.0,-46000.0,-440000.0,97009.262085,58.05,11.86999989,64.91098022,-255.207428,94.0,-12.60023785,-6.975029945,-49.873806,0.0
2018-07-30 21:24:02.760,15.329573704623076,0.21,0.076,0.086,-1.4513842,0.1569064,6.4135491,200000.0,-46000.0,-438000.0,97011.29761,58.05,11.86999989,64.91098022,-255.207428,94.0,-12.60023785,-6.975029945,-49.873806,0.0
2018-07-30 21:24:02.800,15.290203387892308,0.2193333333333333,0.073,0.0976666666666666,-1.4448464333333333,0.2092085333333333,6.681597533333333,202000.0,-48000.0,-437000.0,97012.70345333334,58.04666666666667,12.27999973,75.43144226,-253.753479,96.0,-12.60023785,-6.975029945,-49.873806,0.0
2018-07-30 21:24:02.840,15.25083307116154,0.2286666666666666,0.07,0.1093333333333333,-1.438308666666667,0.2615106666666666,6.949645966666667,204000.0,-50000.0,-436000.0,97014.10929666666,58.04333333333333,12.27999973,75.43144226,-253.753479,96.0,-12.60023785,-6.975029945,-49.873806,0.0
2018-07-30 21:24:02.880,15.21146275443077,0.238,0.067,0.121,-1.4317709,0.3138128,7.2176944,206000.0,-52000.0,-435000.0,97015.51514,58.04,12.27999973,75.43144226,-253.753479,96.0,-12.60023785,-6.975029945,-49.873806,0.0
2018-07-30 21:24:02.920,15.1720924377,0.2456666666666666,0.0623333333333333,0.1303333333333333,-1.4252331333333337,0.3563082833333333,7.711295783333333,207666.66666666663,-55666.66666666666,-433333.3333333333,97018.21696333334,58.04,12.71999931,82.79075623,-252.316391,98.0,-12.60023785,-6.975029945,-49.873806,0.0
2018-07-30 21:24:02.960,15.219721582166668,0.2533333333333333,0.0576666666666666,0.1396666666666666,-1.4186953666666666,0.3988037666666666,8.204897166666667,209333.3333333333,-59333.333333333336,-431666.6666666667,97020.91878666666,58.04,12.71999931,82.79075623,-252.316391,98.0,-15.93413448,-4.471184731,-51.5625267,0.0
2018-07-30 21:24:03.000,15.267350726633332,0.261,0.053,0.149,-1.4121576,0.44129925,8.69849855,211000.0,-63000.0,-430000.0,97023.62061,58.04,13.19999981,71.92687988,-250.862442,100.0,-15.93413448,-4.471184731,-51.5625267,0.0
2018-07-30 21:24:03.040,15.3149798711,0.204,0.063,0.147,-1.358221025,0.505042475,8.477848925,212500.0,-69500.0,-428000.0,97023.62061,58.04,13.19999981,71.92687988,-250.862442,100.0,-15.93413448,-4.471184731,-51.5625267,0.0
2018-07-30 21:24:03.080,15.362609015566669,0.147,0.073,0.145,-1.30428445,0.5687857,8.2571993,214000.0,-76000.0,-426000.0,97023.62061,58.04,13.19999981,71.92687988,-250.862442,100.0,-15.93413448,-4.471184731,-51.5625267,0.0
2018-07-30 21:24:03.120,15.410238160033332,0.0669999999999999,0.0775,0.14,-1.279767825,0.3726526999999999,7.75706015,216000.0,-82000.0,-424500.0,97025.50049,58.035,13.68999958,52.58836746,-249.391449,102.0,-15.93413448,-4.471184731,-51.5625267,0.0
2018-07-30 21:24:03.160,15.4578673045,-0.013,0.082,0.135,-1.2552512,0.1765197,7.256921,218000.0,-88000.0,-423000.0,97027.38037,58.03,13.68999958,52.58836746,-249.391449,102.0,-15.93413448,-4.471184731,-51.5625267,0.0
2018-07-30 21:24:03.200,15.505496448966666,-0.001,0.0783333333333333,0.1236666666666666,-1.3271666333333334,-0.00980665,7.204618866666666,219333.3333333333,-90666.66666666669,-421666.6666666667,97032.08414666666,58.03,14.19999981,39.92452621,-247.9121704,104.0,-15.93413448,-4.471184731,-51.5625267,0.0
2018-07-30 21:24:03.240,15.553125593433332,0.0109999999999999,0.0746666666666666,0.1123333333333333,-1.3990820666666666,-0.196133,7.1523167333333335,220666.66666666663,-93333.33333333331,-420333.3333333333,97036.78792333334,58.03,14.19999981,39.92452621,-247.9121704,104.0,-15.93413448,-4.471184731,-51.5625267,0.0
2018-07-30 21:24:03.280,15.6007547379,0.023,0.071,0.101,-1.4709975,-0.38245935,7.1000146,222000.0,-96000.0,-419000.0,97041.4917,58.03,14.464999675,36.68718338,-247.1767578,105.0,-16.79157686,-3.262996197,-52.75322151,0.0
2018-07-30 21:24:03.320,15.685597777412498,0.0633333333333333,0.0579999999999999,0.0873333333333333,-1.4775352666666666,-0.0621087833333333,7.410558516666667,222333.3333333333,-97333.33333333331,-418333.3333333333,97042.44995333331,58.03,14.72999954,33.44984055,-246.4413452,106.0,-17.64901924,-2.054807663,-53.94391632,0.0
2018-07-30 21:24:03.360,15.770440816925,0.1036666666666666,0.045,0.0736666666666666,-1.4840730333333334,0.2582417833333333,7.721102433333334,222666.66666666663,-98666.66666666669,-417666.6666666667,97043.40820666667,58.03,14.8674995875,26.4928340945,-246.06726455,106.5,-17.64901924,-2.054807663,-53.94391632,0.0
2018-07-30 21:24:03.400,15.8552838564375,0.144,0.032,0.06,-1.4906108,0.57859235,8.03164635,223000.0,-100000.0,-417000.0,97044.36646,58.03,15.004999635,19.535827639,-245.6931839,107.0,-17.64901924,-2.054807663,-53.94391632,0.0
2018-07-30 21:24:03.440,15.940126895949998,0.1435,0.0345,0.034,-1.4513842,0.7060788,8.036549675,224500.0,-102500.0,-416000.0,97047.25342,58.03,15.1424996825,12.5788211835,-245.31910325,107.5,-17.64901924,-2.054807663,-53.94391632,0.0
2018-07-30 21:24:03.480,16.024969935462497,0.143,0.037,0.008,-1.4121576,0.83356525,8.041453,226000.0,-105000.0,-415000.0,97050.14038,58.03,15.27999973,5.621814728,-244.9450226,108.0,-17.64901924,-2.054807663,-53.94391632,0.0
2018-07-30 21:24:03.520,16.109812974975,0.1283333333333333,0.036,-0.0133333333333333,-1.4350397833333333,0.5132146833333333,8.064335183333334,226333.3333333333,-106666.66666666669,-413666.6666666667,97051.93685,58.02666666666667,15.8399992,-12.83378601,-243.4657593,110.0,-17.64901924,-2.054807663,-53.94391632,0.0
2018-07-30 21:24:03.560,16.1946560144875,0.1136666666666666,0.035,-0.0346666666666666,-1.4579219666666667,0.1928641166666667,8.087217366666666,226666.66666666663,-108333.33333333331,-412333.3333333333,97053.73332,58.02333333333333,15.8399992,-12.83378601,-243.4657593,110.0,-17.64901924,-2.054807663,-53.94391632,0.0
2018-07-30 21:24:03.600,16.279499054,0.099,0.034,-0.056,-1.48080415,-0.12748645,8.11009955,227000.0,-110000.0,-411000.0,97055.52979,58.02,16.134999755,-20.391845705,-242.70912935,111.0,-18.163269995,-0.9917418135,-54.145923615,0.0
2018-07-30 21:24:03.640,16.35877113346,0.09,0.0155,-0.06,-1.569064,-0.083356525,8.30623255,229500.0,-112500.0,-409500.0,97059.71375,58.02,16.43000031,-27.9499054,-241.9524994,112.0,-18.67752075,0.071324036,-54.34793091,0.0
2018-07-30 21:24:03.680,16.43804321292,0.081,-0.003,-0.064,-1.65732385,-0.0392266,8.50236555,232000.0,-115000.0,-408000.0,97063.89771,58.02,16.43000031,-27.9499054,-241.9524994,112.0,-18.67752075,0.071324036,-54.34793091,0.0
2018-07-30 21:24:03.720,16.517315292379998,0.094,-0.0095,-0.066,-1.6475172,0.230456275,8.62004535,232500.0,-115500.0,-407500.0,97067.00745,58.02,17.02999878,-42.97370911,-240.430954,114.0,-18.67752075,0.071324036,-54.34793091,0.0
2018-07-30 21:24:03.760,16.59658737184,0.107,-0.016,-0.068,-1.63771055,0.50013915,8.73772515,233000.0,-116000.0,-407000.0,97070.11719,58.02,17.02999878,-42.97370911,-240.430954,114.0,-18.67752075,0.071324036,-54.34793091,0.0
2018-07-30 21:24:03.800,16.6758594513,0.1243333333333333,-0.0203333333333333,-0.0716666666666666,-1.6148283666666667,0.4936013833333333,8.757338449999999,234000.0,-117000.0,-406333.3333333333,97072.15983333334,58.02,17.63999939,-67.58594513,-238.8924713,117.0,-18.67752075,0.071324036,-54.34793091,0.0
2018-07-30 21:24:03.840,16.75476698442727,0.1416666666666666,-0.0246666666666666,-0.0753333333333333,-1.5919461833333333,0.4870636166666666,8.77695175,235000.0,-118000.0,-405666.6666666667,97074.20247666667,58.02,17.63999939,-67.58594513,-238.8924713,117.0,-18.8466568,0.796951175,-53.36883163,0.0
2018-07-30 21:24:03.880,16.833674517554545,0.159,-0.029,-0.079,-1.569064,0.48052585,8.79656505,236000.0,-119000.0,-405000.0,97076.24512,58.02,17.954999925,-77.746772765,-238.11989595,118.0,-18.8466568,0.796951175,-53.36883163,0.0
2018-07-30 21:24:03.920,16.912582050681817,0.1795,-0.0335,-0.0755,-1.57887065,0.1470997499999999,9.066247925,236000.0,-120000.0,-404500.0,97079.937745,58.015,18.27000046,-87.9076004,-237.3473206,119.0,-18.8466568,0.796951175,-53.36883163,0.0
2018-07-30 21:24:03.960,16.99148958380909,0.2,-0.038,-0.072,-1.5886773,-0.18632635,9.3359308,236000.0,-121000.0,-404000.0,97083.63037,58.01,18.27000046,-87.9076004,-237.3473206,119.0,-18.8466568,0.796951175,-53.36883163,0.0
2018-07-30 21:24:04.000,17.070397116936363,0.2086666666666666,-0.0466666666666666,-0.061,-1.6148283666666667,-0.4118793,9.456879483333331,236666.66666666663,-124000.0,-403000.0,97087.89876333332,58.01,18.89999962,-111.1814499,-235.7918396,121.0,-18.8466568,0.796951175,-53.36883163,0.0
2018-07-30 21:24:04.040,17.149304650063637,0.2173333333333333,-0.0553333333333333,-0.05,-1.6409794333333334,-0.63743225,9.577828166666666,237333.3333333333,-127000.0,-402000.0,97092.16715666666,58.01,18.89999962,-111.1814499,-235.7918396,121.0,-18.8466568,0.796951175,-53.36883163,0.0
2018-07-30 21:24:04.080,17.22821218319091,0.226,-0.064,-0.039,-1.6671305,-0.8629852,9.69877685,238000.0,-130000.0,-401000.0,97096.43555,58.01,19.2149992,-122.5941658,-235.0203247,122.0,-18.8466568,0.796951175,-53.36883163,0.0
2018-07-30 21:24:04.120,17.307119716318184,0.1876666666666666,-0.07,-0.0216666666666666,-1.6965504500000002,-0.89240515,9.970094166666666,238000.0,-130000.0,-401000.0,97096.43555,58.01,19.52999878,-134.0068817,-234.2488098,123.0,-18.8466568,0.796951175,-53.36883163,0.0
2018-07-30 21:24:04.160,17.386027249445455,0.1493333333333333,-0.076,-0.0043333333333333,-1.7259704,-0.9218251,10.241411483333334,238000.0,-130000.0,-401000.0,97096.43555,58.01,19.52999878,-134.0068817,-234.2488098,123.0,-18.8466568,0.796951175,-53.36883163,0.0
2018-07-30 21:24:04.200,17.46493478257273,0.111,-0.082,0.013,-1.75539035,-0.95124505,10.5127288,238000.0,-130000.0,-401000.0,97096.43555,58.01,20.14999962,-154.3842316,-232.675766,125.0,-18.8466568,0.796951175,-53.36883163,0.0
2018-07-30 21:24:04.240,17.5438423157,0.0865,-0.088,0.03,-1.721067075,-0.867888525,10.272465875,237500.0,-133500.0,-399000.0,97099.505615,58.01,20.14999962,-154.3842316,-232.675766,125.0,-17.74319649,4.619327068,-52.23946381,0.0
2018-07-30 21:24:04.280,17.605092763925,0.062,-0.094,0.047,-1.6867438,-0.784532,10.03220295,237000.0,-137000.0,-397000.0,97102.57568,58.01,20.454999925,-160.5671921,-231.9146118,126.0,-17.74319649,4.619327068,-52.23946381,0.0
2018-07-30 21:24:04.320,17.66634321215,0.0303333333333333,-0.0946666666666666,0.0483333333333333,-1.6834749166666667,-0.6505077833333334,10.1400761,236000.0,-139000.0,-397000.0,97105.60099,58.00666666666667,20.76000023,-166.7501526,-231.1534576,127.0,-17.74319649,4.619327068,-52.23946381,0.0
2018-07-30 21:24:04.360,17.727593660375,-0.0013333333333333,-0.0953333333333333,0.0496666666666666,-1.6802060333333333,-0.5164835666666667,10.24794925,235000.0,-141000.0,-397000.0,97108.6263,58.00333333333333,20.76000023,-166.7501526,-231.1534576,127.0,-17.74319649,4.619327068,-52.23946381,0.0
2018-07-30 21:24:04.400,17.788844108600003,-0.033,-0.096,0.051,-1.67693715,-0.38245935,10.3558224,234000.0,-143000.0,-397000.0,97111.65161,58.0,21.06499958,-174.52116395000002,-230.4440994,128.0,-17.74319649,4.619327068,-52.23946381,0.0
2018-07-30 21:24:04.440,17.850094556825002,-0.0935,-0.108,0.032,-1.652420525,0.12748645,10.792218325,232500.0,-143500.0,-398000.0,97117.929075,58.0,21.36999893,-182.2921753,-229.7347412,129.0,-17.74319649,4.619327068,-52.23946381,0.0
2018-07-30 21:24:04.480,17.911345005050002,-0.154,-0.12,0.013,-1.6279039,0.63743225,11.22861425,231000.0,-144000.0,-399000.0,97124.20654,58.0,21.664999005,-192.8383789,-228.9473877,130.0,-17.74319649,4.619327068,-52.23946381,0.0
2018-07-30 21:24:04.520,17.972595453275,-0.076,-0.138,0.01,-1.63771055,0.818855275,11.5914603,228500.0,-144000.0,-400500.0,97124.20654,58.0,21.95999908,-203.3845825,-228.1600342,131.0,-17.74319649,4.619327068,-52.23946381,0.0
2018-07-30 21:24:04.560,18.0338459015,0.002,-0.156,0.007,-1.6475172,1.0002783,11.95430635,226000.0,-144000.0,-402000.0,97124.20654,58.0,21.95999908,-203.3845825,-228.1600342,131.0,-17.74319649,4.619327068,-52.23946381,0.0
2018-07-30 21:24:04.600,18.097738266,-0.0776666666666666,-0.1453333333333333,0.0016666666666666,-1.7488525833333333,0.8858673833333333,11.2580342,224333.3333333333,-143000.0,-403666.6666666667,97126.47501333331,57.99666666666667,22.249999045,-216.607666,-227.48407745,132.5,-16.651030065,4.266573548,-52.485652925,0.0
2018-07-30 21:24:04.640,18.1616306305,-0.1573333333333333,-0.1346666666666666,-0.0036666666666666,-1.8501879666666667,0.7714564666666667,10.56176205,222666.66666666663,-142000.0,-405333.3333333333,97128.74348666667,57.99333333333333,22.53999901,-229.8307495,-226.8081207,134.0,-15.55886364,3.913820028,-52.73184204,0.0
2018-07-30 21:24:04.680,18.225522995,-0.237,-0.124,-0.009,-1.95152335,0.65704555,9.8654899,221000.0,-141000.0,-407000.0,97131.01196,57.99,22.819999695,-231.76345825,-225.9946365,135.0,-15.55886364,3.913820028,-52.73184204,0.0
2018-07-30 21:24:04.720,18.2894153595,-0.1515,-0.126,-0.056,-1.9024901,0.269682875,10.213625975,219000.0,-139000.0,-409000.0,97136.37085,57.99,23.10000038,-233.696167,-225.1811523,136.0,-15.55886364,3.913820028,-52.73184204,0.0
2018-07-30 21:24:04.760,18.353307724,-0.066,-0.128,-0.103,-1.85345685,-0.1176798,10.56176205,217000.0,-137000.0,-411000.0,97141.72974,57.99,23.10000038,-233.696167,-225.1811523,136.0,-15.55886364,3.913820028,-52.73184204,0.0
2018-07-30 21:24:04.800,18.4172000885,-0.051,-0.1306666666666666,-0.113,-1.85345685,0.06864655,10.578106466666666,215000.0,-134000.0,-412333.3333333333,97142.56999,57.99,23.65999985,-248.5548096,-223.5453186,138.0,-15.55886364,3.913820028,-52.73184204,0.0
2018-07-30 21:24:04.840,18.481092453,-0.036,-0.1333333333333333,-0.123,-1.85345685,0.2549729,10.594450883333334,213000.0,-131000.0,-413666.6666666667,97143.41024,57.99,23.65999985,-248.5548096,-223.5453186,138.0,-15.55886364,3.913820028,-52.73184204,0.0
2018-07-30 21:24:04.880,18.5449848175,-0.021,-0.136,-0.133,-1.85345685,0.44129925,10.6107953,211000.0,-128000.0,-415000.0,97144.25049,57.99,23.65999985,-248.5548096,-223.5453186,138.0,-15.55886364,3.913820028,-52.73184204,0.0
2018-07-30 21:24:04.920,18.608877182,0.0506666666666666,-0.1343333333333333,-0.1273333333333333,-1.8763390333333327,0.0359577166666666,10.672904083333332,209000.0,-126333.33333333331,-417000.0,97147.18221,57.99,24.19999886,-260.8877258,-222.5043182,140.0,-15.55886364,3.913820028,-52.73184204,0.0
2018-07-30 21:24:04.960,18.62005310058,0.1223333333333333,-0.1326666666666666,-0.1216666666666666,-1.8992212166666669,-0.3693838166666666,10.735012866666668,207000.0,-124666.66666666669,-419000.0,97150.11393,57.99,24.19999886,-260.8877258,-222.5043182,140.0,-13.39715958,1.829812646,-50.89710617,0.0
2018-07-30 21:24:05.000,18.63122901916,0.194,-0.131,-0.116,-1.9221034,-0.77472535,10.79712165,205000.0,-123000.0,-421000.0,97153.04565,57.99,24.71999931,-270.9468994,-220.8346863,142.0,-13.39715958,1.829812646,-50.89710617,0.0
2018-07-30 21:24:05.040,18.64240493774,0.244,-0.166,-0.063,-1.81423025,0.16671305,11.73856005,203000.0,-120000.0,-421000.0,97158.48389,57.98,24.71999931,-270.9468994,-220.8346863,142.0,-13.39715958,1.829812646,-50.89710617,0.0
2018-07-30 21:24:05.080,18.65358085632,0.2386666666666666,-0.1606666666666666,-0.043,-1.8174991333333328,-0.1144109166666666,11.810475483333333,202000.0,-122333.33333333331,-421000.0,97160.94767333331,57.98,24.974999425,-271.544281,-220.17268375,143.5,-13.39715958,1.829812646,-50.89710617,0.0
2018-07-30 21:24:05.120,18.6647567749,0.2333333333333333,-0.1553333333333333,-0.023,-1.8207680166666669,-0.3955348833333333,11.882390916666669,201000.0,-124666.66666666669,-421000.0,97163.41145666668,57.98,25.22999954,-272.1416626,-219.5106812,145.0,-13.39715958,1.829812646,-50.89710617,0.0
2018-07-30 21:24:05.160,18.67593269348,0.228,-0.15,-0.003,-1.8240369,-0.67665885,11.95430635,200000.0,-127000.0,-421000.0,97165.87524,57.98,25.22999954,-272.1416626,-219.5106812,145.0,-13.39715958,1.829812646,-50.89710617,0.0
2018-07-30 21:24:05.200,18.68710861206,0.2136666666666666,-0.1596666666666666,0.0203333333333333,-1.7978858333333334,-0.3007372666666666,11.990264066666668,198666.66666666663,-129666.66666666669,-420666.6666666667,97166.73583666666,57.98,25.71999931,-272.2061157,-217.7616119,147.0,-13.39715958,1.829812646,-50.89710617,0.0
2018-07-30 21:24:05.240,18.69828453064,0.1993333333333333,-0.1693333333333333,0.0436666666666666,-1.7717347666666667,0.0751843166666667,12.026221783333332,197333.3333333333,-132333.33333333334,-420333.3333333333,97167.59643333334,57.98,25.71999931,-272.2061157,-217.7616119,147.0,-13.39715958,1.829812646,-50.89710617,0.0
2018-07-30 21:24:05.280,18.70946044922,0.185,-0.179,0.067,-1.7455837,0.4511059,12.0621795,196000.0,-135000.0,-420000.0,97168.45703,57.98,25.71999931,-272.2061157,-217.7616119,147.0,-13.39715958,1.829812646,-50.89710617,0.0
2018-07-30 21:24:05.320,18.7206363678,0.1735,-0.1755,0.0645,-1.7455837,0.10787315,11.95430635,192500.0,-139000.0,-420000.0,97169.94934,57.98,25.95499897,-272.13487245,-216.8944931,148.0,-11.916846755,3.91368562,-50.53291893,0.0
2018-07-30 21:24:05.360,18.74881324768,0.162,-0.172,0.062,-1.7455837,-0.2353596,11.8464332,189000.0,-143000.0,-420000.0,97171.44165,57.98,26.18999863,-272.0636292,-216.0273743,149.0,-10.43653393,5.997558594,-50.16873169,0.0
2018-07-30 21:24:05.400,18.77699012756,0.134,-0.1795,0.0515,-1.7455837,0.0,12.253409175,185500.0,-147500.0,-419500.0,97173.953245,57.975,26.63999939,-270.1681213,-214.1529694,151.0,-10.43653393,5.997558594,-50.16873169,0.0
2018-07-30 21:24:05.440,18.80516700744,0.106,-0.187,0.041,-1.7455837,0.2353596,12.66038515,182000.0,-152000.0,-419000.0,97176.46484,57.97,26.63999939,-270.1681213,-214.1529694,151.0,-10.43653393,5.997558594,-50.16873169,0.0
2018-07-30 21:24:05.480,18.83334388732,0.1526666666666666,-0.184,0.03,-1.690012683333333,0.26477955,13.203019783333334,179666.66666666666,-154000.0,-419333.3333333333,97179.43725333334,57.97,27.04999924,-278.4295959,-212.3291626,154.0,-10.43653393,5.997558594,-50.16873169,0.0
2018-07-30 21:24:05.520,18.8615207672,0.1993333333333333,-0.181,0.019,-1.6344416666666668,0.2941995,13.745654416666666,177333.33333333334,-156000.0,-419666.6666666667,97182.40966666666,57.97,27.04999924,-278.4295959,-212.3291626,154.0,-10.43653393,5.997558594,-50.16873169,0.0
2018-07-30 21:24:05.560,18.88969764708,0.246,-0.178,0.008,-1.57887065,0.32361945,14.28828905,175000.0,-158000.0,-420000.0,97185.38208,57.97,27.04999924,-278.4295959,-212.3291626,154.0,-10.43653393,5.997558594,-50.16873169,0.0
2018-07-30 21:24:05.600,18.91787452696,0.2243333333333333,-0.1723333333333333,-0.0253333333333333,-1.6050217166666667,0.2713173166666666,13.967938483333333,172666.66666666666,-160000.0,-419666.6666666667,97185.37190666668,57.97,27.43000031,-296.0189819,-210.1457672,156.0,-10.43653393,5.997558594,-50.16873169,0.0
2018-07-30 21:24:05.640,18.94605140684,0.2026666666666666,-0.1666666666666666,-0.0586666666666666,-1.6311727833333334,0.2190151833333333,13.647587916666668,170333.33333333334,-162000.0,-419333.3333333333,97185.36173333332,57.97,27.43000031,-296.0189819,-210.1457672,156.0,-10.43653393,5.997558594,-50.16873169,0.0
2018-07-30 21:24:05.680,18.97422828672,0.181,-0.161,-0.092,-1.65732385,0.16671305,13.32723735,168000.0,-164000.0,-419000.0,97185.35156,57.97,27.43000031,-296.0189819,-210.1457672,156.0,-10.43653393,5.997558594,-50.16873169,0.0
2018-07-30 21:24:05.720,19.0024051666,0.2085,-0.161,-0.1085,-1.691647125,0.5246557749999999,12.655481825,165000.0,-168500.0,-419000.0,97189.315795,57.97,27.76000023,-300.240509,-208.2952881,158.0,-10.43653393,5.997558594,-50.16873169,0.0
2018-07-30 21:24:05.760,18.98574447629,0.236,-0.161,-0.125,-1.7259704,0.8825985,11.9837263,162000.0,-173000.0,-419000.0,97193.28003,57.97,27.76000023,-300.240509,-208.2952881,158.0,-6.461939812,10.14906597,-49.47917175,0.0
2018-07-30 21:24:05.800,18.96908378598,0.263,-0.164,-0.158,-1.7455837,0.465815875,12.17005265,159500.0,-175500.0,-418000.0,97193.93921,57.97,28.04999924,-300.9208679,-202.678894,160.0,-6.461939812,10.14906597,-49.47917175,0.0
2018-07-30 21:24:05.840,18.95242309567,0.29,-0.167,-0.191,-1.765197,0.04903325,12.356379,157000.0,-178000.0,-417000.0,97194.59839,57.97,28.04999924,-300.9208679,-202.678894,160.0,-6.461939812,10.14906597,-49.47917175,0.0
2018-07-30 21:24:05.880,18.93576240536,0.3105,-0.16625,-0.196,-1.7333253875,0.0367749375000003,12.3637339875,156750.0,-179500.0,-416500.0,97195.74585,57.9675,28.184999465,-299.1733551,-201.6864395,161.5,-6.461939812,10.14906597,-49.47917175,0.0
2018-07-30 21:24:05.920,18.91910171505,0.3309999999999999,-0.1655,-0.201,-1.701453775,0.0245166250000007,12.371088975,156500.0,-181000.0,-416000.0,97196.89331,57.965,28.31999969,-297.4258423,-200.693985,163.0,-6.461939812,10.14906597,-49.47917175,0.0
2018-07-30 21:24:05.960,18.90244102474,0.3515,-0.16475,-0.206,-1.6695821625,0.0122583125000011,12.3784439625,156250.0,-182500.0,-415500.0,97198.04077,57.9625,28.31999969,-297.4258423,-200.693985,163.0,-6.461939812,10.14906597,-49.47917175,0.0
2018-07-30 21:24:06.000,18.88578033443,0.372,-0.164,-0.211,-1.63771055,1.52e-15,12.38579895,156000.0,-184000.0,-415000.0,97199.18823,57.96,28.31999969,-297.4258423,-200.693985,163.0,-6.461939812,10.14906597,-49.47917175,0.0
2018-07-30 21:24:06.040,18.86911964412,0.4735,-0.178,-0.216,-1.57887065,0.0637432250000007,12.8270982,155500.0,-189000.0,-412500.0,97199.18823,57.96,28.55999947,-292.3509521,-198.749054,165.0,-6.461939812,10.14906597,-49.47917175,0.0
2018-07-30 21:24:06.080,18.85245895381,0.575,-0.192,-0.221,-1.52003075,0.12748645,13.26839745,155000.0,-194000.0,-410000.0,97199.18823,57.96,28.55999947,-292.3509521,-198.749054,165.0,-6.461939812,10.14906597,-49.47917175,0.0
2018-07-30 21:24:06.120,18.8357982635,0.5586666666666666,-0.177,-0.2023333333333333,-1.5396440500000002,-0.0196133,12.6701918,155333.33333333334,-197666.66666666663,-408000.0,97199.63785666668,57.96,28.77999878,-283.579834,-193.422821,167.0,-6.461939812,10.14906597,-49.47917175,0.0
2018-07-30 21:24:06.160,18.766404151875,0.5423333333333333,-0.162,-0.1836666666666666,-1.55925735,-0.16671305,12.07198615,155666.66666666666,-201333.3333333333,-406000.0,97200.08748333334,57.96,28.77999878,-283.579834,-193.422821,167.0,-5.305474043,13.991785525,-47.014417645,0.0
2018-07-30 21:24:06.200,18.69701004025,0.526,-0.147,-0.165,-1.57887065,-0.3138128,11.4737805,156000.0,-205000.0,-404000.0,97200.53711,57.96,28.77999878,-283.579834,-193.422821,167.0,-4.149008274,17.83450508,-44.54966354,0.0
2018-07-30 21:24:06.240,18.627615928625,0.473,-0.1599999999999999,-0.1415,-1.564160675,0.2059396499999999,11.743463375,155500.0,-213500.0,-400000.0,97203.372195,57.96,28.96999931,-263.4523315,-191.4308472,169.0,-4.149008274,17.83450508,-44.54966354,0.0
2018-07-30 21:24:06.280,18.558221817,0.42,-0.173,-0.118,-1.5494507,0.7256921,12.01314625,155000.0,-222000.0,-396000.0,97206.20728,57.96,29.05499935,-259.04426575,-190.45603945,170.0,-4.149008274,17.83450508,-44.54966354,0.0
2018-07-30 21:24:06.320,18.488827705375,0.3389999999999999,-0.1709999999999999,-0.1305,-1.515127425,0.34323275,11.964113,155500.0,-230000.0,-390500.0,97207.092285,57.955,29.13999939,-254.6362,-189.4812317,171.0,-4.149008274,17.83450508,-44.54966354,0.0
2018-07-30 21:24:06.360,18.41943359375,0.258,-0.169,-0.143,-1.48080415,-0.0392266,11.91507975,156000.0,-238000.0,-385000.0,97207.97729,57.95,29.13999939,-254.6362,-189.4812317,171.0,-4.149008274,17.83450508,-44.54966354,0.0
2018-07-30 21:24:06.400,18.350039482125,0.2816666666666667,-0.1663333333333333,-0.157,-1.50041745,0.0457643666666666,11.594729183333332,156333.33333333334,-241666.66666666663,-382333.3333333333,97208.45743333331,57.95,29.29999924,-245.515625,-49.7483902,174.0,-4.149008274,17.83450508,-44.54966354,0.0
2018-07-30 21:24:06.440,18.2806453705,0.3053333333333333,-0.1636666666666666,-0.1709999999999999,-1.52003075,0.1307553333333333,11.274378616666668,156666.66666666666,-245333.3333333333,-379666.6666666667,97208.93757666666,57.95,29.29999924,-245.515625,-49.7483902,174.0,-4.149008274,17.83450508,-44.54966354,0.0
2018-07-30 21:24:06.480,18.211251258875,0.329,-0.161,-0.185,-1.53964405,0.2157463,10.95402805,157000.0,-249000.0,-377000.0,97209.41772,57.95,29.37999916,-236.77243805,-48.880104065,175.0,-4.149008274,17.83450508,-44.54966354,0.0
2018-07-30 21:24:06.520,18.14185714725,0.375,-0.1593333333333333,-0.1976666666666666,-1.5134929833333333,0.1144109166666666,10.784046116666666,156666.66666666666,-253333.3333333333,-373333.3333333333,97211.24063666668,57.946666666666665,29.45999908,-228.0292511,-48.01181793,176.0,-4.149008274,17.83450508,-44.54966354,0.0
2018-07-30 21:24:06.560,18.072463035625,0.421,-0.1576666666666666,-0.2103333333333333,-1.4873419166666666,0.0130755333333333,10.614064183333332,156333.33333333334,-257666.66666666663,-369666.6666666667,97213.06355333333,57.943333333333335,29.53499889,-214.16806795,-47.115701675,177.0,-4.149008274,17.83450508,-44.54966354,0.0
2018-07-30 21:24:06.600,18.003068924,0.467,-0.156,-0.223,-1.46119085,-0.08825985,10.44408225,156000.0,-262000.0,-366000.0,97214.88647,57.94,29.6099987,-200.3068848,-46.21958542,178.0,-4.149008274,17.83450508,-44.54966354,0.0
2018-07-30 21:24:06.640,17.98968484671111,0.455,-0.155,-0.2339999999999999,-1.436674225,0.269682875,10.65982855,156000.0,-262000.0,-366000.0,97214.88647,57.94,29.6099987,-200.3068848,-46.21958542,178.0,-2.266992331,28.52472687,-38.36824799,0.0
2018-07-30 21:24:06.680,17.976300769422224,0.443,-0.154,-0.245,-1.4121576,0.6276256,10.87557485,156000.0,-262000.0,-366000.0,97214.88647,57.94,29.6099987,-200.3068848,-46.21958542,178.0,-2.266992331,28.52472687,-38.36824799,0.0
2018-07-30 21:24:06.720,17.962916692133334,0.472,-0.16,-0.262,-1.34351105,0.5687857000000001,10.9246081,157500.0,-268000.0,-360500.0,97216.41235,57.94,29.76999855,-196.092041,-44.39395523,180.0,-2.266992331,28.52472687,-38.36824799,0.0
2018-07-30 21:24:06.760,17.949532614844443,0.501,-0.166,-0.279,-1.2748645,0.5099458,10.97364135,159000.0,-274000.0,-355000.0,97217.93823,57.94,29.76999855,-196.092041,-44.39395523,180.0,-2.266992331,28.52472687,-38.36824799,0.0
2018-07-30 21:24:06.800,17.936148537555557,0.419,-0.1796666666666666,-0.268,-1.281402266666667,0.3007372666666666,11.192656533333333,160000.0,-277666.6666666667,-351666.6666666667,97218.36751,57.94,29.9299984,-192.0967102,-42.55719376,182.0,-2.266992331,28.52472687,-38.36824799,0.0
2018-07-30 21:24:06.840,17.922764460266666,0.3369999999999999,-0.1933333333333333,-0.257,-1.2879400333333333,0.0915287333333333,11.411671716666667,161000.0,-281333.3333333333,-348333.3333333333,97218.79679,57.94,29.9299984,-192.0967102,-42.55719376,182.0,-2.266992331,28.52472687,-38.36824799,0.0
2018-07-30 21:24:06.880,17.909380382977776,0.255,-0.207,-0.246,-1.2944778,-0.1176798,11.6306869,162000.0,-285000.0,-345000.0,97219.22607,57.94,29.9299984,-192.0967102,-42.55719376,182.0,-2.266992331,28.52472687,-38.36824799,0.0
2018-07-30 21:24:06.920,17.89599630568889,0.149,-0.2294999999999999,-0.2289999999999999,-1.22583125,0.30400615,12.371088975,165000.0,-290500.0,-339000.0,97219.22607,57.94,30.09999847,-188.2612305,-40.66477585,184.0,-2.266992331,28.52472687,-38.36824799,0.0
2018-07-30 21:24:06.960,17.8826122284,0.043,-0.252,-0.212,-1.1571847,0.7256921,13.11149105,168000.0,-296000.0,-333000.0,97219.22607,57.94,30.09999847,-188.2612305,-40.66477585,184.0,-2.266992331,28.52472687,-38.36824799,0.0
2018-07-30 21:24:07.000,17.89130800420909,0.0483333333333333,-0.2536666666666666,-0.217,-1.01008495,0.6014745333333333,13.48414375,168666.66666666666,-297000.0,-331666.6666666667,97220.05004666669,57.94,30.27999878,-200.8088989,-38.76122284,186.0,-1.90421319,35.60988235,-31.64866829,0.0
2018-07-30 21:24:07.040,17.90000378001818,0.0536666666666666,-0.2553333333333333,-0.222,-0.8629852,0.4772569666666666,13.85679645,169333.33333333334,-298000.0,-330333.3333333333,97220.87402333334,57.94,30.27999878,-200.8088989,-38.76122284,186.0,-1.90421319,35.60988235,-31.64866829,0.0
2018-07-30 21:24:07.080,17.908699555827273,0.059,-0.257,-0.227,-0.71588545,0.3530394,14.22944915,170000.0,-299000.0,-329000.0,97221.698,57.94,30.35499859,-212.1481857,-37.7927475,187.0,-1.90421319,35.60988235,-31.64866829,0.0
2018-07-30 21:24:07.120,17.917395331636364,0.103,-0.25375,-0.24125,-0.6913688250000001,0.3603943874999999,14.0210578375,169000.0,-297500.0,-331000.0,97223.0148325,57.9375,30.4299984,-223.4874725,-36.82427216,188.0,-1.90421319,35.60988235,-31.64866829,0.0
2018-07-30 21:24:07.160,17.926091107445455,0.147,-0.2505,-0.2555,-0.6668522,0.367749375,13.812666525,168000.0,-296000.0,-333000.0,97224.331665,57.935,30.46999868,-225.28381346666663,-36.17120234333333,188.66666666666663,-1.90421319,35.60988235,-31.64866829,0.0
2018-07-30 21:24:07.200,17.934786883254546,0.191,-0.24725,-0.26975,-0.6423355749999999,0.3751043625,13.6042752125,167000.0,-294500.0,-335000.0,97225.6484975,57.9325,30.50999896,-227.0801544333333,-35.51813252666666,189.3333333333333,-1.90421319,35.60988235,-31.64866829,0.0
2018-07-30 21:24:07.240,17.943482659063637,0.235,-0.244,-0.284,-0.61781895,0.38245935,13.3958839,166000.0,-293000.0,-337000.0,97226.96533,57.93,30.54999924,-228.8764954,-34.86506271,190.0,-1.90421319,35.60988235,-31.64866829,0.0
2018-07-30 21:24:07.280,17.952178434872728,0.176,-0.245,-0.278,-0.69627215,0.51975245,12.77806495,166000.0,-293000.0,-337000.0,97226.96533,57.93,30.54999924,-228.8764954,-34.86506271,190.0,-1.90421319,35.60988235,-31.64866829,0.0
