time,field.airspeed,field.angular_velocity.x,field.angular_velocity.y,field.angular_velocity.z,field.linear_acceleration.x,field.linear_acceleration.y,field.linear_acceleration.z,field.magnetic_field.x,field.magnetic_field.y,field.magnetic_field.z,field.fluid_pressure,field.temperature,field.alt_error,field.aspd_error,field.xtrack_error,field.wp_dist,field.measured.pitch,field.measured.roll,field.measured.yaw,fault_state
2018-09-11 16:03:18.880,0.0,0.099,-0.149,-0.204,-2.67721545,0.81395195,11.4345539,245000.0,-218000.0,-375000.0,97258.17871,35.06,17.31999969,-310.863678,30.09318542,95.0,-21.00129509,37.30131149,-35.57452393,0.0
2018-09-11 16:03:18.920,0.0,0.0935,-0.1679999999999999,-0.1925,-2.67721545,0.9610517,11.66010685,245000.0,-215500.0,-379000.0,97262.887575,35.06,17.31999969,-310.863678,30.09318542,95.0,-20.816547395,36.789459225,-31.77309227,0.0
2018-09-11 16:03:18.960,0.0,0.088,-0.187,-0.181,-2.67721545,1.10815145,11.8856598,245000.0,-213000.0,-383000.0,97267.59644,35.06,17.31999969,-310.863678,30.09318542,95.0,-20.6317997,36.27760696,-27.97166061,0.0
2018-09-11 16:03:19.000,0.0,0.1169999999999999,-0.2033333333333333,-0.1676666666666666,-2.6739465666666664,1.0198916,12.634234083333334,245333.3333333333,-212333.3333333333,-384000.0,97268.37158666666,35.056666666666665,17.574999804999997,-310.863678,30.528515815,95.5,-20.6317997,36.27760696,-27.97166061,0.0
2018-09-11 16:03:19.040,0.0,0.146,-0.2196666666666666,-0.1543333333333333,-2.670677683333333,0.93163175,13.382808366666668,245666.66666666663,-211666.66666666663,-385000.0,97269.14673333331,35.053333333333335,17.82999992,-310.863678,30.96384621,96.0,-20.6317997,36.27760696,-27.97166061,0.0
2018-09-11 16:03:19.080,0.0,0.175,-0.236,-0.141,-2.6674088,0.8433719,14.13138265,246000.0,-211000.0,-386000.0,97269.92188,35.05,18.085000035,-333.0543518,31.356917385,96.5,-20.6317997,36.27760696,-27.97166061,0.0
2018-09-11 16:03:19.120,0.0,0.108,-0.1565,-0.1275,-2.701732075,0.5982056499999999,13.400787225,245000.0,-208500.0,-387500.0,97273.324585,35.05,18.34000015,-355.2450256,31.74998856,97.0,-20.6317997,36.27760696,-27.97166061,0.0
2018-09-11 16:03:19.160,0.0,0.041,-0.077,-0.114,-2.73605535,0.3530394,12.6701918,244000.0,-206000.0,-389000.0,97276.72729,35.05,18.34000015,-355.2450256,31.74998856,97.0,-20.6317997,36.27760696,-27.97166061,0.0
2018-09-11 16:03:19.200,0.0,0.0289999999999999,-0.0856666666666666,-0.1226666666666666,-2.8079707833333334,0.1601752833333333,11.928155283333332,243000.0,-205333.3333333333,-390333.3333333333,97278.04972,35.05,18.81999969,-355.2450256,32.47693634,99.0,-20.6317997,36.27760696,-27.97166061,0.0
2018-09-11 16:03:19.240,0.0,0.0169999999999999,-0.0943333333333333,-0.1313333333333333,-2.8798862166666668,-0.0326888333333333,11.186118766666668,242000.0,-204666.66666666663,-391666.6666666667,97279.37215,35.05,18.81999969,-355.2450256,32.47693634,99.0,-20.6317997,36.27760696,-27.97166061,0.0
2018-09-11 16:03:19.280,0.0,0.005,-0.103,-0.14,-2.95180165,-0.22555295,10.44408225,241000.0,-204000.0,-393000.0,97280.69458,35.05,18.97333272,-363.20998126666666,32.691083273333334,99.33333333333331,-20.6317997,36.27760696,-27.97166061,0.0
2018-09-11 16:03:19.320,0.0,0.0325,-0.0849999999999999,-0.174,-2.868445125,-0.12748645,10.6892485,242500.0,-202000.0,-394500.0,97284.365845,35.05,19.12666575,-371.17493693333336,32.905230206666666,99.66666666666669,-20.6317997,36.27760696,-27.97166061,0.0
2018-09-11 16:03:19.360,0.0,0.06,-0.067,-0.208,-2.7850886,-0.02941995,10.93441475,244000.0,-200000.0,-396000.0,97288.03711,35.05,19.27999878,-379.1398926,33.11937714,100.0,-20.6317997,36.27760696,-27.97166061,0.0
2018-09-11 16:03:19.400,0.0,0.0333333333333333,-0.0643333333333333,-0.2263333333333333,-2.7818197166666665,-0.0196132999999995,11.274378616666668,243333.3333333333,-199333.3333333333,-396666.6666666667,97290.73486333332,35.05,19.76000023,-379.1398926,33.72799301,101.0,-19.62748337,35.74206924,-21.02860832,0.0
2018-09-11 16:03:19.440,0.0,0.0066666666666666,-0.0616666666666666,-0.2446666666666666,-2.778550833333333,-0.009806649999999,11.614342483333331,242666.66666666663,-198666.66666666663,-397333.3333333333,97293.43261666669,35.05,19.8775000575,-387.66412355,33.86324310249999,101.25,-19.62748337,35.74206924,-21.02860832,0.0
2018-09-11 16:03:19.480,0.0,-0.02,-0.059,-0.263,-2.77528195,1.46e-15,11.95430635,242000.0,-198000.0,-398000.0,97296.13037,35.05,19.994999885,-396.1883545,33.998493194999995,101.5,-19.62748337,35.74206924,-21.02860832,0.0
2018-09-11 16:03:19.520,0.0,0.0813333333333333,-0.0393333333333333,-0.266,-2.752399766666666,0.1699819333333343,11.643762433333332,244333.3333333333,-195000.0,-397666.6666666667,97299.33268,35.04666666666667,20.23333295,-401.8711751333333,34.25771331666666,102.33333333333331,-19.62748337,35.74206924,-21.02860832,0.0
2018-09-11 16:03:19.560,0.0,0.1826666666666666,-0.0196666666666666,-0.269,-2.7295175833333336,0.3399638666666671,11.333218516666667,246666.66666666663,-192000.0,-397333.3333333333,97302.53499,35.04333333333333,20.471666015,-407.5539957666667,34.51693343833333,103.16666666666669,-19.62748337,35.74206924,-21.02860832,0.0
2018-09-11 16:03:19.600,0.0,0.284,-3.33e-17,-0.272,-2.7066354,0.5099458,11.0226746,249000.0,-189000.0,-397000.0,97305.7373,35.04,20.70999908,-413.2368164,34.77615356,104.0,-19.62748337,35.74206924,-21.02860832,0.0
2018-09-11 16:03:19.640,0.0,0.2604999999999999,-0.0225,-0.274,-2.6674088,0.6864655,10.95402805,250000.0,-187500.0,-395500.0,97306.909175,35.04,20.70999908,-413.2368164,34.77615356,104.0,-19.62748337,35.74206924,-21.02860832,0.0
2018-09-11 16:03:19.680,0.0,0.237,-0.045,-0.276,-2.6281822,0.8629852,10.8853815,251000.0,-186000.0,-394000.0,97308.08105,35.04,20.70999908,-413.2368164,34.77615356,104.0,-19.62748337,35.74206924,-21.02860832,0.0
2018-09-11 16:03:19.720,0.0,0.271,-0.089,-0.2635,-2.584052275,1.0591182,9.26728425,251000.0,-186000.0,-394000.0,97308.08105,35.04,21.18000031,-450.6370544,35.22417068,105.0,-21.2510376,36.92599106,-16.05609131,0.0
2018-09-11 16:03:19.760,0.0,0.305,-0.133,-0.251,-2.53992235,1.2552512,7.649187,251000.0,-186000.0,-394000.0,97308.08105,35.04,21.43000031,-450.6370544,35.427045820000004,105.5,-21.2510376,36.92599106,-16.05609131,0.0
2018-09-11 16:03:19.800,0.0,0.2986666666666666,-0.148,-0.246,-2.55953565,1.3108222166666668,7.299416483333333,252666.66666666663,-185333.3333333333,-393333.3333333333,97309.87345,35.04,21.68000031,-450.6370544,35.62992096,106.0,-21.2510376,36.92599106,-16.05609131,0.0
2018-09-11 16:03:19.840,0.0,0.2923333333333333,-0.163,-0.241,-2.57914895,1.3663932333333333,6.949645966666667,254333.3333333333,-184666.66666666663,-392666.6666666667,97311.66585,35.04,21.68000031,-450.6370544,35.62992096,106.0,-21.2510376,36.92599106,-16.05609131,0.0
2018-09-11 16:03:19.880,0.0,0.286,-0.178,-0.236,-2.59876225,1.42196425,6.59987545,256000.0,-184000.0,-392000.0,97313.45825,35.04,22.19999886,-479.6047363,35.99338531,107.0,-21.2510376,36.92599106,-16.05609131,0.0
2018-09-11 16:03:19.920,0.0,0.265,-0.1756666666666666,-0.2413333333333333,-2.6085689,1.12776475,7.763597916666666,256333.3333333333,-184333.3333333333,-390333.3333333333,97319.7937,35.04,22.479999545,-479.6047363,36.16244888,107.5,-21.2510376,36.92599106,-16.05609131,0.0
2018-09-11 16:03:19.960,0.0,0.244,-0.1733333333333333,-0.2466666666666666,-2.61837555,0.83356525,8.927320383333333,256666.66666666663,-184666.66666666663,-388666.6666666667,97326.12915,35.04,22.76000023,-479.6047363,36.33151245,108.0,-21.2510376,36.92599106,-16.05609131,0.0
2018-09-11 16:03:20.000,0.0,0.223,-0.171,-0.252,-2.6281822,0.53936575,10.09104285,257000.0,-185000.0,-387000.0,97332.4646,35.04,22.76000023,-479.6047363,36.33151245,108.0,-21.2510376,36.92599106,-16.05609131,0.0
2018-09-11 16:03:20.040,0.0,0.259,-0.1776666666666666,-0.2453333333333333,-2.6870221,0.32361945,10.888650383333331,258333.3333333333,-183666.66666666663,-388333.3333333333,97334.39941333332,35.03666666666667,22.76000023,-479.6047363,36.33151245,108.0,-21.2510376,36.92599106,-16.05609131,0.0
2018-09-11 16:03:20.080,0.0,0.295,-0.1843333333333333,-0.2386666666666666,-2.745862,0.10787315,11.686257916666666,259666.66666666663,-182333.3333333333,-389666.6666666667,97336.33422666667,35.03333333333333,23.055000305,-480.33972165,36.470989225,108.5,-21.2510376,36.92599106,-16.05609131,0.0
2018-09-11 16:03:20.120,0.0,0.331,-0.191,-0.232,-2.8047019,-0.10787315,12.48386545,261000.0,-181000.0,-391000.0,97338.26904,35.03,23.35000038,-481.074707,36.610466,109.0,-21.2510376,36.92599106,-16.05609131,0.0
2018-09-11 16:03:20.160,0.0,0.3,-0.147,-0.23,-2.7654753000000003,-0.36284605,12.753548325,261500.0,-182000.0,-388500.0,97339.648435,35.03,23.644999505,-481.074707,36.716114045,109.5,-21.557478905,38.82997513,-11.717406989,0.0
2018-09-11 16:03:20.200,0.0,0.269,-0.103,-0.228,-2.7262487,-0.61781895,13.0232312,262000.0,-183000.0,-386000.0,97341.02783,35.03,23.93999863,-481.074707,36.82176209,110.0,-21.86392021,40.7339592,-7.378722668,0.0
2018-09-11 16:03:20.240,0.0,0.2885,-0.1175,-0.21,-2.740958675,-0.6325289249999999,12.09159945,262500.0,-182000.0,-387000.0,97343.78967,35.03,23.93999863,-481.074707,36.82176209,110.0,-21.86392021,40.7339592,-7.378722668,0.0
2018-09-11 16:03:20.280,0.0,0.308,-0.132,-0.192,-2.75566865,-0.6472389,11.1599677,263000.0,-181000.0,-388000.0,97346.55151,35.03,23.93999863,-481.074707,36.82176209,110.0,-21.86392021,40.7339592,-7.378722668,0.0
2018-09-11 16:03:20.320,0.0,0.2324999999999999,-0.161,-0.1655,-2.73605535,-0.12748645,10.625505274999998,263500.0,-182000.0,-389000.0,97349.945065,35.03,24.52999878,-500.6378174,36.94010544,111.0,-21.86392021,40.7339592,-7.378722668,0.0
2018-09-11 16:03:20.360,0.0,0.157,-0.19,-0.139,-2.71644205,0.392266,10.09104285,264000.0,-183000.0,-390000.0,97353.33862,35.03,24.52999878,-500.6378174,36.94010544,111.0,-21.86392021,40.7339592,-7.378722668,0.0
2018-09-11 16:03:20.400,0.0,0.0906666666666666,-0.1996666666666666,-0.1303333333333333,-2.6510643833333334,0.6897343833333334,10.460426666666669,262000.0,-182000.0,-392000.0,97355.75561333331,35.03,24.834999085,-500.6378174,36.96967697,112.0,-21.86392021,40.7339592,-7.378722668,0.0
2018-09-11 16:03:20.440,0.0,0.0243333333333333,-0.2093333333333333,-0.1216666666666666,-2.5856867166666664,0.9872027666666668,10.829810483333333,260000.0,-181000.0,-394000.0,97358.17260666667,35.03,25.13999939,-500.6378174,36.9992485,113.0,-21.86392021,40.7339592,-7.378722668,0.0
2018-09-11 16:03:20.480,0.0,-0.042,-0.219,-0.113,-2.52030905,1.28467115,11.1991943,258000.0,-180000.0,-396000.0,97360.5896,35.03,25.13999939,-500.6378174,36.9992485,113.0,-21.86392021,40.7339592,-7.378722668,0.0
2018-09-11 16:03:20.520,0.0,-0.0426666666666666,-0.2246666666666666,-0.1213333333333333,-2.53992235,1.3467799333333337,10.499653266666666,255333.3333333333,-178000.0,-399666.6666666667,97362.69531333334,35.03,25.75,-546.0250854,36.98234177,113.0,-21.86392021,40.7339592,-7.378722668,0.0
2018-09-11 16:03:20.560,0.0,-0.0433333333333333,-0.2303333333333333,-0.1296666666666666,-2.55953565,1.4088887166666666,9.800112233333332,252666.66666666663,-176000.0,-403333.3333333333,97364.80102666668,35.03,26.06499958,-546.0250854,36.944295885,113.5,-21.86392021,40.7339592,-7.378722668,0.0
2018-09-11 16:03:20.600,0.0,-0.044,-0.236,-0.138,-2.57914895,1.4709975,9.1005712,250000.0,-174000.0,-407000.0,97366.90674,35.03,26.37999916,-546.0250854,36.90625,114.0,-21.86392021,40.7339592,-7.378722668,0.0
2018-09-11 16:03:20.640,0.0,-0.048,-0.2425,-0.1415,-2.603665575,1.38273765,10.42446895,250000.0,-174000.0,-407000.0,97366.90674,35.03,26.37999916,-546.0250854,36.90625,114.0,-20.48365784,40.78321838,0.15404129,0.0
2018-09-11 16:03:20.680,0.0,-0.052,-0.249,-0.145,-2.6281822,1.2944778,11.7483667,250000.0,-174000.0,-407000.0,97366.90674,35.03,26.699998855,-551.31988525,36.830171585,114.5,-20.48365784,40.78321838,0.15404129,0.0
2018-09-11 16:03:20.720,0.0,-0.0985,-0.2515,-0.174,-2.61837555,0.995374975,12.910454725,248500.0,-170000.0,-411000.0,97372.81189,35.025000000000006,27.01999855,-556.6146851,36.75409317,115.0,-20.48365784,40.78321838,0.15404129,0.0
2018-09-11 16:03:20.760,0.0,-0.145,-0.254,-0.203,-2.6085689,0.69627215,14.07254275,247000.0,-166000.0,-415000.0,97378.71704,35.02,27.01999855,-556.6146851,36.75409317,115.0,-20.48365784,40.78321838,0.15404129,0.0
2018-09-11 16:03:20.800,0.0,-0.1029999999999999,-0.2333333333333333,-0.219,-2.6249133166666665,0.4903324999999999,13.997358433333334,245666.66666666663,-163666.66666666666,-417666.6666666667,97379.86246666667,35.02333333333333,27.63999939,-556.6146851,36.54277039,116.0,-20.48365784,40.78321838,0.15404129,0.0
2018-09-11 16:03:20.840,0.0,-0.0609999999999999,-0.2126666666666666,-0.235,-2.6412577333333336,0.28439285,13.922174116666666,244333.3333333333,-161333.33333333334,-420333.3333333333,97381.00789333331,35.02666666666667,27.63999939,-556.6146851,36.54277039,116.0,-20.48365784,40.78321838,0.15404129,0.0
2018-09-11 16:03:20.880,0.0,-0.019,-0.192,-0.251,-2.65760215,0.0784532,13.8469898,243000.0,-159000.0,-423000.0,97382.15332,35.03,28.25,-591.1310425,36.23661804,117.0,-20.48365784,40.78321838,0.15404129,0.0
2018-09-11 16:03:20.920,0.0,0.0083333333333333,-0.1676666666666666,-0.2593333333333333,-2.6608710333333336,0.0065377666666666,13.60182355,240666.66666666663,-152333.33333333334,-426666.6666666667,97386.77775,35.02666666666667,28.44999949,-591.1310425,36.11268234,117.33333333333331,-20.48365784,40.78321838,0.15404129,0.0
2018-09-11 16:03:20.960,0.0,0.0356666666666666,-0.1433333333333333,-0.2676666666666666,-2.6641399166666666,-0.0653776666666666,13.3566573,238333.3333333333,-145666.66666666666,-430333.3333333333,97391.40218,35.02333333333333,28.64999898,-591.1310425,35.98874664,117.66666666666669,-20.48365784,40.78321838,0.15404129,0.0
2018-09-11 16:03:21.000,0.0,0.063,-0.119,-0.276,-2.6674088,-0.1372931,13.11149105,236000.0,-139000.0,-434000.0,97396.02661,35.02,28.84999847,-591.1310425,35.86481094,118.0,-20.48365784,40.78321838,0.15404129,0.0
2018-09-11 16:03:21.040,0.0,0.0114999999999999,-0.1144999999999999,-0.2775,-2.672312125,-0.02941995,13.096781075,237000.0,-137000.0,-433000.0,97398.45886,35.02,29.4299984,-638.7128906,35.40847778,119.0,-20.49547768,37.87314606,7.541315079,0.0
2018-09-11 16:03:21.080,0.0,-0.04,-0.11,-0.279,-2.67721545,0.0784532,13.0820711,238000.0,-135000.0,-432000.0,97400.89111,35.02,29.4299984,-638.7128906,35.40847778,119.0,-20.49547768,37.87314606,7.541315079,0.0
2018-09-11 16:03:21.120,0.0,-0.068,-0.108,-0.2645,-2.711538725,0.28439285,12.282829125,238000.0,-135000.0,-432000.0,97400.89111,35.02,29.4299984,-638.7128906,35.40847778,119.0,-20.49547768,37.87314606,7.541315079,0.0
2018-09-11 16:03:21.160,0.0,-0.096,-0.106,-0.25,-2.745862,0.4903325,11.48358715,238000.0,-135000.0,-432000.0,97400.89111,35.02,29.4299984,-638.7128906,35.40847778,119.0,-20.49547768,37.87314606,7.541315079,0.0
2018-09-11 16:03:21.200,0.0,-0.1186666666666666,-0.1076666666666666,-0.235,-2.7197109333333334,0.6864655,11.696064566666667,236666.66666666663,-132333.33333333334,-434000.0,97404.81160333334,35.02,29.7149992,-638.7128906,35.101455685,119.0,-20.49547768,37.87314606,7.541315079,0.0
2018-09-11 16:03:21.240,0.0,-0.1413333333333333,-0.1093333333333333,-0.22,-2.6935598666666665,0.8825985,11.908541983333333,235333.3333333333,-129666.66666666669,-436000.0,97408.73209666666,35.02,30.0,-638.7128906,34.79443359,119.0,-20.49547768,37.87314606,7.541315079,0.0
2018-09-11 16:03:21.280,0.0,-0.164,-0.111,-0.205,-2.6674088,1.0787315,12.1210194,234000.0,-127000.0,-438000.0,97412.65259,35.02,30.55999947,-682.7554932,34.21014023,120.0,-20.49547768,37.87314606,7.541315079,0.0
2018-09-11 16:03:21.320,0.0,-0.194,-0.1015,-0.1865,-2.6772154500000003,1.20621795,11.7483667,234500.0,-120500.0,-441500.0,97413.97095,35.02,30.55999947,-682.7554932,34.21014023,120.0,-20.49547768,37.87314606,7.541315079,0.0
2018-09-11 16:03:21.360,0.0,-0.224,-0.092,-0.168,-2.6870221,1.3337044,11.375714,235000.0,-114000.0,-445000.0,97415.28931,35.02,30.834999085,-682.7554932,33.785276415,120.5,-20.745389940000003,35.94808388,10.1816773395,0.0
2018-09-11 16:03:21.400,0.0,-0.227,-0.1153333333333333,-0.1573333333333333,-2.7066354,1.3990820666666666,11.401865066666668,234000.0,-110000.0,-447666.6666666667,97419.09586666666,35.02,31.1099987,-682.7554932,33.3604126,121.0,-20.9953022,34.0230217,12.8220396,0.0
2018-09-11 16:03:21.440,0.0,-0.23,-0.1386666666666666,-0.1466666666666666,-2.7262487,1.4644597333333331,11.428016133333331,233000.0,-106000.0,-450333.3333333333,97422.90242333332,35.02,31.1099987,-682.7554932,33.3604126,121.0,-20.9953022,34.0230217,12.8220396,0.0
2018-09-11 16:03:21.480,0.0,-0.233,-0.162,-0.136,-2.745862,1.5298374,11.4541672,232000.0,-102000.0,-453000.0,97426.70898,35.02,31.65999985,-709.4819946,32.67428207,122.0,-20.9953022,34.0230217,12.8220396,0.0
2018-09-11 16:03:21.520,0.0,-0.24475,-0.156,-0.151,-2.7287003625,1.436674225,11.6429452125,229500.0,-95250.0,-457000.0,97429.232785,35.0175,31.843332926666665,-709.4819946,32.19826443666666,122.0,-20.9953022,34.0230217,12.8220396,0.0
2018-09-11 16:03:21.560,0.0,-0.2565,-0.15,-0.166,-2.711538725,1.34351105,11.831723225,227000.0,-88500.0,-461000.0,97431.75659,35.015,32.02666600333333,-709.4819946,31.72224680333333,122.0,-20.9953022,34.0230217,12.8220396,0.0
2018-09-11 16:03:21.600,0.0,-0.26825,-0.144,-0.181,-2.6943770875,1.250347875,12.0205012375,224500.0,-81750.0,-465000.0,97434.280395,35.0125,32.20999908,-709.4819946,31.24622917,122.0,-20.9953022,34.0230217,12.8220396,0.0
2018-09-11 16:03:21.640,0.0,-0.28,-0.138,-0.196,-2.67721545,1.1571847,12.20927925,222000.0,-75000.0,-469000.0,97436.8042,35.01,32.20999908,-709.4819946,31.24622917,122.0,-20.9953022,34.0230217,12.8220396,0.0
2018-09-11 16:03:21.680,0.0,-0.313,-0.123,-0.22,-2.6870221,0.71588545,11.89546645,222000.0,-75000.0,-469000.0,97436.8042,35.01,32.73999786,-745.3289185,30.52015305,123.0,-20.9953022,34.0230217,12.8220396,0.0
2018-09-11 16:03:21.720,0.0,-0.293,-0.08,-0.2314999999999999,-2.7213453750000003,0.46091255,10.91480145,219500.0,-67000.0,-472000.0,97441.174315,35.01,32.73999786,-745.3289185,30.52015305,123.0,-20.9953022,34.0230217,12.8220396,0.0
2018-09-11 16:03:21.760,0.0,-0.273,-0.037,-0.243,-2.75566865,0.20593965,9.93413645,217000.0,-59000.0,-475000.0,97445.54443,35.01,32.999998090000005,-745.3289185,30.136002545,123.5,-20.80839443,30.1557951,15.666279315,0.0
2018-09-11 16:03:21.800,0.0,-0.3076666666666667,-0.0396666666666666,-0.2443333333333333,-2.7687441833333333,0.0980664999999999,10.074698433333332,216000.0,-52666.66666666666,-477333.3333333333,97445.54443,35.01,33.25999832,-745.3289185,29.75185204,124.0,-20.62148666,26.2885685,18.51051903,0.0
2018-09-11 16:03:21.840,0.0,-0.3423333333333333,-0.0423333333333333,-0.2456666666666666,-2.781819716666667,-0.00980665,10.215260416666666,215000.0,-46333.333333333336,-479666.6666666667,97445.54443,35.01,33.25999832,-745.3289185,29.75185204,124.0,-20.62148666,26.2885685,18.51051903,0.0
2018-09-11 16:03:21.880,0.0,-0.377,-0.045,-0.247,-2.79489525,-0.1176798,10.3558224,214000.0,-40000.0,-482000.0,97445.54443,35.01,33.77000046,-774.1039429,28.22559929,124.0,-20.62148666,26.2885685,18.51051903,0.0
2018-09-11 16:03:21.920,0.0,-0.3575,-0.0345,-0.2535,-2.75566865,-0.308909475,10.439178925,212500.0,-30500.0,-483000.0,97449.72839,35.01,33.77000046,-774.1039429,28.22559929,124.0,-20.62148666,26.2885685,18.51051903,0.0
2018-09-11 16:03:21.960,0.0,-0.338,-0.024,-0.26,-2.71644205,-0.50013915,10.52253545,211000.0,-21000.0,-484000.0,97453.91235,35.01,34.02499962,-774.1039429,27.845026015,124.5,-20.62148666,26.2885685,18.51051903,0.0
2018-09-11 16:03:22.000,0.0,-0.358,-0.011,-0.227,-2.73605535,-0.50013915,10.73828175,210000.0,-10500.00000000003,-484500.0,97457.31201,35.004999999999995,34.27999878,-774.1039429,27.46445274,125.0,-20.62148666,26.2885685,18.51051903,0.0
2018-09-11 16:03:22.040,0.0,-0.378,0.002,-0.194,-2.75566865,-0.50013915,10.95402805,209000.0,-5.94e-11,-485000.0,97460.71167,35.0,34.27999878,-774.1039429,27.46445274,125.0,-20.62148666,26.2885685,18.51051903,0.0
2018-09-11 16:03:22.080,0.0,-0.3583333333333333,0.017,-0.181,-2.73605535,-0.1765197,10.408124533333334,207666.66666666663,6666.666666666627,-485000.0,97462.36979333332,35.0,34.53999901,-783.00457765,25.81590843,125.0,-20.62148666,26.2885685,18.51051903,0.0
2018-09-11 16:03:22.120,0.0,-0.3386666666666666,0.032,-0.168,-2.71644205,0.1470997499999999,9.862221016666666,206333.3333333333,13333.333333333312,-485000.0,97464.02791666667,35.0,34.79999924,-791.9052124,24.16736412,125.0,-20.62148666,26.2885685,18.51051903,0.0
2018-09-11 16:03:22.160,0.0,-0.319,0.047,-0.155,-2.69682875,0.4707192,9.3163175,205000.0,20000.0,-485000.0,97465.68604,35.0,35.0549984,-791.9052124,23.85539913,125.5,-21.285648345,21.460139275,21.253385545,0.0
2018-09-11 16:03:22.200,0.0,-0.3319999999999999,0.02,-0.144,-2.672312125,0.63743225,9.65955025,202000.0,28500.0,-485500.0,97469.25354,35.0,35.30999756,-791.9052124,23.54343414,126.0,-21.94981003,16.63171005,23.99625206,0.0
2018-09-11 16:03:22.240,0.0,-0.345,-0.007,-0.133,-2.6477955,0.8041453,10.002783,199000.0,37000.0,-486000.0,97472.82104,35.0,35.30999756,-791.9052124,23.54343414,126.0,-21.94981003,16.63171005,23.99625206,0.0
2018-09-11 16:03:22.280,0.0,-0.299,-0.0249999999999999,-0.1246666666666666,-2.65760215,0.9022118,9.636668066666669,199333.3333333333,43000.0,-487333.3333333333,97473.83626,35.0,35.30999756,-791.9052124,23.54343414,126.0,-21.94981003,16.63171005,23.99625206,0.0
2018-09-11 16:03:22.320,0.0,-0.253,-0.043,-0.1163333333333333,-2.6674088,1.0002783,9.270553133333332,199666.66666666663,49000.0,-488666.6666666667,97474.85148,35.0,35.82999802,-818.5014648,22.89631653,127.0,-21.94981003,16.63171005,23.99625206,0.0
2018-09-11 16:03:22.360,0.0,-0.207,-0.061,-0.108,-2.67721545,1.0983448,8.9044382,200000.0,55000.0,-490000.0,97475.8667,35.0,35.82999802,-818.5014648,22.89631653,127.0,-21.94981003,16.63171005,23.99625206,0.0
2018-09-11 16:03:22.400,0.0,-0.1855,-0.0395,-0.078,-2.69682875,1.073828175,8.311135875,198500.0,63000.0,-489000.0,97478.92151,35.0,36.36000061,-818.5014648,20.56383133,128.0,-21.94981003,16.63171005,23.99625206,0.0
2018-09-11 16:03:22.440,0.0,-0.164,-0.018,-0.048,-2.71644205,1.04931155,7.71783355,197000.0,71000.0,-488000.0,97481.97632,35.0,36.36000061,-818.5014648,20.56383133,128.0,-21.94981003,16.63171005,23.99625206,0.0
2018-09-11 16:03:22.480,0.0,-0.1703333333333333,-0.0256666666666666,-0.046,-2.7654753,1.0329671333333337,7.8649333,195666.66666666663,75000.0,-488333.3333333333,97488.44197666668,35.0,36.88999939,-807.895874,20.03041649,128.0,-21.94981003,16.63171005,23.99625206,0.0
2018-09-11 16:03:22.520,0.0,-0.1766666666666666,-0.0333333333333333,-0.044,-2.81450855,1.0166227166666666,8.01203305,194333.3333333333,79000.0,-488666.6666666667,97494.90763333334,35.0,36.88999939,-807.895874,20.03041649,128.0,-21.92415428,10.59648991,26.388237,0.0
2018-09-11 16:03:22.560,0.0,-0.183,-0.041,-0.042,-2.8635418,1.0002783,8.1591328,193000.0,83000.0,-489000.0,97501.37329,35.0,37.16499901,-807.895874,17.697330475,128.5,-21.92415428,10.59648991,26.388237,0.0
2018-09-11 16:03:22.600,0.0,-0.1513333333333333,-0.032,-0.0563333333333333,-2.9027684,0.6668522000000003,8.021839700000001,192000.0,85333.33333333333,-489666.6666666667,97501.37329,35.0,37.43999863,-807.895874,15.36424446,129.0,-21.92415428,10.59648991,26.388237,0.0
2018-09-11 16:03:22.640,0.0,-0.1196666666666666,-0.023,-0.0706666666666666,-2.941995,0.3334261000000006,7.8845466,191000.0,87666.66666666667,-490333.3333333333,97501.37329,35.0,37.43999863,-807.895874,15.36424446,129.0,-21.92415428,10.59648991,26.388237,0.0
2018-09-11 16:03:22.680,0.0,-0.088,-0.014,-0.085,-2.9812216,9.49e-16,7.7472535,190000.0,90000.0,-491000.0,97501.37329,35.0,37.724998475,-810.33764645,15.236515045,129.5,-21.92415428,10.59648991,26.388237,0.0
2018-09-11 16:03:22.720,0.0,-0.0185,0.002,-0.0655,-2.9910282500000003,-0.3138127999999995,8.056162975,189000.0,95000.0,-489000.0,97504.94995,34.995000000000005,38.00999832,-812.7794189,15.10878563,130.0,-21.92415428,10.59648991,26.388237,0.0
2018-09-11 16:03:22.760,0.0,0.051,0.018,-0.046,-3.0008349,-0.6276256,8.36507245,188000.0,100000.0,-487000.0,97508.52661,34.99,38.00999832,-812.7794189,15.10878563,130.0,-21.92415428,10.59648991,26.388237,0.0
2018-09-11 16:03:22.800,0.0,0.0633333333333333,0.0073333333333333,-0.019,-2.9910282500000003,-0.6537766666666667,8.711574083333334,187666.66666666663,101666.66666666669,-488333.3333333333,97509.15323666668,34.99,38.59999847,-812.7794189,13.76351452,131.0,-21.87815666,9.895274641,27.01885128,0.0
2018-09-11 16:03:22.840,0.0,0.0756666666666666,-0.0033333333333333,0.008,-2.9812216,-0.6799277333333333,9.058075716666666,187333.3333333333,103333.33333333331,-489666.6666666667,97509.77986333332,34.99,38.59999847,-812.7794189,13.76351452,131.0,-21.83215904,9.194059372,27.64946556,0.0
2018-09-11 16:03:22.880,0.0,0.088,-0.014,0.035,-2.97141495,-0.7060788,9.40457735,187000.0,105000.0,-491000.0,97510.40649,34.99,38.899999615,-815.3989868,13.66695547,131.5,-21.83215904,9.194059372,27.64946556,0.0
2018-09-11 16:03:22.920,0.0,0.0456666666666666,-0.002,0.0356666666666666,-2.9550705333333336,-0.6341633666666666,9.241133183333334,187000.0,103000.0,-491000.0,97514.55891666666,34.99,39.20000076,-818.0185547,13.57039642,132.0,-21.83215904,9.194059372,27.64946556,0.0
2018-09-11 16:03:22.960,0.0,0.0033333333333333,0.0099999999999999,0.0363333333333333,-2.9387261166666665,-0.5622479333333333,9.077689016666666,187000.0,101000.0,-491000.0,97518.71134333331,34.99,39.51499939,-818.0185547,13.46478605,132.5,-21.83215904,9.194059372,27.64946556,0.0
2018-09-11 16:03:23.000,0.0,-0.039,0.022,0.037,-2.9223817,-0.4903325,8.91424485,187000.0,99000.0,-491000.0,97522.86377,34.99,39.82999802,-818.0185547,13.35917568,133.0,-21.83215904,9.194059372,27.64946556,0.0
2018-09-11 16:03:23.040,0.0,0.0024999999999999,0.0395,0.0279999999999999,-2.907671725,-0.524655775,9.007408025,187000.0,99000.0,-491000.0,97522.86377,34.99,39.82999802,-818.0185547,13.35917568,133.0,-21.83215904,9.194059372,27.64946556,0.0
2018-09-11 16:03:23.080,0.0,0.044,0.057,0.019,-2.89296175,-0.55897905,9.1005712,187000.0,99000.0,-491000.0,97522.86377,34.99,40.134998325,-814.16360475,11.1608014095,133.0,-21.83215904,9.194059372,27.64946556,0.0
2018-09-11 16:03:23.120,0.0,0.0495,0.0105,0.013,-2.9027684,-0.5687857000000001,9.09076455,187500.0,99000.0,-491500.0,97525.78125,34.99,40.43999863,-810.3086548,8.962427139,133.0,-21.83215904,9.194059372,27.64946556,0.0
2018-09-11 16:03:23.160,0.0,0.055,-0.036,0.007,-2.91257505,-0.57859235,9.0809579,188000.0,99000.0,-492000.0,97528.69873,34.99,40.43999863,-810.3086548,8.962427139,133.0,-21.83215904,9.194059372,27.64946556,0.0
2018-09-11 16:03:23.200,0.0,0.065,-0.0553333333333333,0.0006666666666666,-2.899499516666667,-0.5491724,9.5909037,189000.0,98000.0,-490666.6666666667,97530.53995666667,34.99,41.07999802,-810.3086548,9.03576088,134.0,-21.83215904,9.194059372,27.64946556,0.0
2018-09-11 16:03:23.240,0.0,0.075,-0.0746666666666666,-0.0056666666666666,-2.886423983333333,-0.51975245,10.1008495,190000.0,97000.0,-489333.3333333333,97532.38118333332,34.99,41.07999802,-810.3086548,9.03576088,134.0,-21.672032355,9.858906271,27.391892435,0.0
2018-09-11 16:03:23.280,0.0,0.085,-0.094,-0.012,-2.87334845,-0.4903325,10.6107953,191000.0,96000.0,-488000.0,97534.22241,34.99,41.07999802,-810.3086548,9.03576088,134.0,-21.51190567,10.52375317,27.13431931,0.0
2018-09-11 16:03:23.320,0.0,0.0345,-0.07,-0.0209999999999999,-2.8831551,-0.328522775,10.198916,189500.0,95000.0,-488000.0,97537.48169,34.99,41.70999908,-815.3030396,8.036067963,135.0,-21.51190567,10.52375317,27.13431931,0.0
2018-09-11 16:03:23.360,0.0,-0.016,-0.046,-0.03,-2.89296175,-0.16671305,9.7870367,188000.0,94000.0,-488000.0,97540.74097,34.99,41.70999908,-815.3030396,8.036067963,135.0,-21.51190567,10.52375317,27.13431931,0.0
2018-09-11 16:03:23.400,0.0,-0.018,-0.0195,-0.043,-2.888058425,-0.142196425,10.223432625,185000.0,93500.0,-492500.0,97543.811035,34.985,42.32999802,-815.3030396,8.161178589,136.0,-21.51190567,10.52375317,27.13431931,0.0
2018-09-11 16:03:23.440,0.0,-0.02,0.007,-0.056,-2.8831551,-0.1176798,10.65982855,182000.0,93000.0,-497000.0,97546.8811,34.98,42.32999802,-815.3030396,8.161178589,136.0,-21.51190567,10.52375317,27.13431931,0.0
2018-09-11 16:03:23.480,0.0,-0.018,0.0076666666666666,-0.071,-2.899499516666667,-0.1634441666666666,10.636946366666669,178333.33333333334,95333.33333333331,-500000.0,97552.08129666669,34.98,42.63999939,-821.09985355,8.2227315905,136.5,-21.51190567,10.52375317,27.13431931,0.0
2018-09-11 16:03:23.520,0.0,-0.016,0.0083333333333333,-0.086,-2.915843933333333,-0.2092085333333333,10.614064183333332,174666.66666666666,97666.66666666669,-503000.0,97557.28149333331,34.98,42.95000076,-826.8966675,8.284284592,137.0,-21.51190567,10.52375317,27.13431931,0.0
2018-09-11 16:03:23.560,0.0,-0.014,0.009,-0.101,-2.93218835,-0.2549729,10.591182,171000.0,100000.0,-506000.0,97562.48169,34.98,42.95000076,-826.8966675,8.284284592,137.0,-20.64185715,10.43838882,27.99154663,0.0
2018-09-11 16:03:23.600,0.0,0.0206666666666666,0.0063333333333333,-0.1043333333333333,-2.9616083,-0.26477955,10.4538889,169666.66666666666,100666.66666666669,-505333.3333333333,97564.6403,34.98,43.55999756,-826.8966675,4.359380245,138.0,-20.64185715,10.43838882,27.99154663,0.0
2018-09-11 16:03:23.640,0.0,0.0553333333333333,0.0036666666666666,-0.1076666666666666,-2.9910282500000003,-0.2745862,10.3165958,168333.33333333334,101333.33333333331,-504666.6666666667,97566.79891,34.98,43.55999756,-826.8966675,4.359380245,138.0,-20.64185715,10.43838882,27.99154663,0.0
2018-09-11 16:03:23.680,0.0,0.09,0.001,-0.111,-3.0204482,-0.28439285,10.1793027,167000.0,102000.0,-504000.0,97568.95752,34.98,43.854997635,-831.3075867,4.561712265,138.5,-20.64185715,10.43838882,27.99154663,0.0
2018-09-11 16:03:23.720,0.0,0.138,0.0035,-0.105,-3.005738225,-0.2157463,9.605613675,167000.0,102000.0,-507500.0,97574.46289,34.98,44.14999771,-835.7185059,4.764044285,139.0,-20.64185715,10.43838882,27.99154663,0.0
2018-09-11 16:03:23.760,0.0,0.186,0.006,-0.099,-2.99102825,-0.14709975,9.03192465,167000.0,102000.0,-511000.0,97579.96826,34.98,44.14999771,-835.7185059,4.764044285,139.0,-20.64185715,10.43838882,27.99154663,0.0
2018-09-11 16:03:23.800,0.0,0.18,-0.0176666666666666,-0.099,-2.9877593666666664,0.1013353833333333,9.035193533333334,167000.0,102000.0,-511000.0,97579.96826,34.98,44.75,-835.7185059,1.913410664,140.0,-20.64185715,10.43838882,27.99154663,0.0
2018-09-11 16:03:23.840,0.0,0.174,-0.0413333333333333,-0.099,-2.984490483333333,0.3497705166666667,9.038462416666666,167000.0,102000.0,-511000.0,97579.96826,34.98,44.75,-835.7185059,1.913410664,140.0,-20.64185715,10.43838882,27.99154663,0.0
2018-09-11 16:03:23.880,0.0,0.168,-0.065,-0.099,-2.9812216,0.59820565,9.0417313,167000.0,102000.0,-511000.0,97579.96826,34.98,45.055000305,-842.8843383999999,2.2169975045,140.5,-20.64185715,10.43838882,27.99154663,0.0
2018-09-11 16:03:23.920,0.0,0.2375,-0.0605,-0.1115,-2.9812216,0.8482752250000001,10.13026945,163500.0,99500.0,-516500.0,97586.61499,34.98,45.36000061,-850.0501709,2.520584345,141.0,-20.64185715,10.43838882,27.99154663,0.0
2018-09-11 16:03:23.960,0.0,0.307,-0.056,-0.124,-2.9812216,1.0983448,11.2188076,160000.0,97000.0,-522000.0,97593.26172,34.98,45.36000061,-850.0501709,2.520584345,141.0,-20.64185715,10.43838882,27.99154663,0.0
2018-09-11 16:03:24.000,0.0,0.3415,-0.04,-0.1325,-2.927285025,0.8335652499999999,11.321777425,160000.0,97000.0,-522000.0,97593.26172,34.98,45.95999908,-850.0501709,3.122021437,142.0,-20.64185715,10.43838882,27.99154663,0.0
2018-09-11 16:03:24.040,0.0,0.376,-0.024,-0.141,-2.87334845,0.5687857,11.42474725,160000.0,97000.0,-522000.0,97593.26172,34.98,45.95999908,-850.0501709,3.122021437,142.0,-20.35550308,13.85712147,31.53969955,0.0
2018-09-11 16:03:24.080,0.0,0.353,-0.0165,-0.1237499999999999,-2.8831551,0.4045243125,10.4710505375,158250.0,93250.0,-526250.0,97595.648195,34.9775,46.264999385,-843.9778442500001,2.399482489,142.5,-20.35550308,13.85712147,31.53969955,0.0
2018-09-11 16:03:24.120,0.0,0.3299999999999999,-0.009,-0.1064999999999999,-2.89296175,0.2402629249999999,9.517353825,156500.0,89500.0,-530500.0,97598.03467,34.974999999999994,46.56999969,-837.9055176,1.676943541,143.0,-20.35550308,13.85712147,31.53969955,0.0
2018-09-11 16:03:24.160,0.0,0.307,-0.0015,-0.08925,-2.9027684,0.0760015374999999,8.5636571125,154750.0,85750.0,-534750.0,97600.421145,34.9725,46.56999969,-837.9055176,1.676943541,143.0,-20.35550308,13.85712147,31.53969955,0.0
2018-09-11 16:03:24.200,0.0,0.284,0.006,-0.072,-2.91257505,-0.08825985,7.6099604,153000.0,82000.0,-539000.0,97602.80762,34.97,46.86499977,-837.40548705,2.023992181,143.5,-20.35550308,13.85712147,31.53969955,0.0
2018-09-11 16:03:24.240,0.0,0.318,0.024,-0.071,-2.93218835,0.44129925,7.48247395,153000.0,82000.0,-539000.0,97602.80762,34.97,47.15999985,-836.9054565,2.371040821,144.0,-20.35550308,13.85712147,31.53969955,0.0
2018-09-11 16:03:24.280,0.0,0.3893333333333333,0.0213333333333333,-0.0679999999999999,-2.8668106833333336,0.3170816833333333,8.041453,152666.66666666666,79000.0,-539333.3333333334,97607.88167666669,34.97,47.469999315,-809.59939575,2.232253432,144.5,-20.35550308,13.85712147,31.53969955,0.0
2018-09-11 16:03:24.320,0.0,0.4606666666666666,0.0186666666666666,-0.065,-2.8014330166666666,0.1928641166666666,8.60043205,152333.33333333334,76000.0,-539666.6666666666,97612.95573333334,34.97,47.77999878,-782.293335,2.093466043,145.0,-20.35550308,13.85712147,31.53969955,0.0
2018-09-11 16:03:24.360,0.0,0.532,0.016,-0.062,-2.73605535,0.06864655,9.1594111,152000.0,73000.0,-540000.0,97618.02979,34.97,47.77999878,-782.293335,2.093466043,145.0,-20.35550308,13.85712147,31.53969955,0.0
2018-09-11 16:03:24.400,0.0,0.5443333333333333,0.0026666666666666,-0.0486666666666666,-2.77528195,0.2353596,9.0613446,153333.33333333334,67666.66666666667,-540666.6666666666,97618.02979,34.97,48.39999771,-783.293335,2.816170216,147.0,-20.35550308,13.85712147,31.53969955,0.0
2018-09-11 16:03:24.440,0.0,0.5566666666666666,-0.0106666666666666,-0.0353333333333333,-2.81450855,0.40207265,8.9632781,154666.66666666666,62333.333333333336,-541333.3333333334,97618.02979,34.97,48.39999771,-783.293335,2.816170216,147.0,-20.35550308,13.85712147,31.53969955,0.0
2018-09-11 16:03:24.480,0.0,0.569,-0.024,-0.022,-2.85373515,0.5687857,8.8652116,156000.0,57000.0,-542000.0,97618.02979,34.97,49.04999924,-776.87854,-0.325807333,148.0,-21.00232697,23.11798668,33.43202209,0.0
2018-09-11 16:03:24.520,0.0,0.4375,-0.014,-0.047,-2.77528195,0.4707192,9.046634625,155000.0,50500.0,-546000.0,97622.039795,34.97,49.04999924,-776.87854,-0.325807333,148.0,-21.00232697,23.11798668,33.43202209,0.0
2018-09-11 16:03:24.560,0.0,0.306,-0.004,-0.072,-2.69682875,0.3726527,9.22805765,154000.0,44000.0,-550000.0,97626.0498,34.97,49.375,-776.37854,0.145683497,148.5,-21.00232697,23.11798668,33.43202209,0.0
2018-09-11 16:03:24.600,0.0,0.2536666666666666,-0.0316666666666666,-0.0826666666666666,-2.73605535,0.5034080333333333,10.1008495,148000.0,36000.0,-558666.6666666666,97630.65795666666,34.96666666666667,49.70000076,-775.87854,0.617174327,149.0,-21.00232697,23.11798668,33.43202209,0.0
2018-09-11 16:03:24.640,0.0,0.2013333333333333,-0.0593333333333333,-0.0933333333333333,-2.77528195,0.6341633666666666,10.97364135,142000.0,28000.0,-567333.3333333334,97635.26611333332,34.96333333333333,49.70000076,-775.87854,0.617174327,149.0,-21.00232697,23.11798668,33.43202209,0.0
2018-09-11 16:03:24.680,0.0,0.149,-0.087,-0.104,-2.81450855,0.7649187,11.8464332,136000.0,20000.0,-576000.0,97639.87427,34.96,50.030000685000005,-777.94247435,1.0708144005,149.5,-21.00232697,23.11798668,33.43202209,0.0
2018-09-11 16:03:24.720,0.0,0.1626666666666666,-0.0956666666666666,-0.0996666666666666,-2.8177774333333336,0.7910697666666666,12.1798593,132666.66666666666,19666.666666666668,-580000.0,97642.20988,34.96,50.36000061,-780.0064087,1.524454474,150.0,-21.00232697,23.11798668,33.43202209,0.0
2018-09-11 16:03:24.760,0.0,0.1763333333333333,-0.1043333333333333,-0.0953333333333333,-2.8210463166666666,0.8172208333333333,12.5132854,129333.33333333331,19333.33333333333,-584000.0,97644.54549,34.96,50.680000305,-780.0064087,0.5202878264999999,150.5,-20.86794281,25.19875431,34.168926235,0.0
2018-09-11 16:03:24.800,0.0,0.19,-0.113,-0.091,-2.8243152,0.8433719,12.8467115,126000.0,19000.0,-588000.0,97646.8811,34.96,51.0,-780.0064087,-0.483878821,151.0,-20.73355865,27.27952194,34.90583038,0.0
2018-09-11 16:03:24.840,0.0,0.16,-0.112,-0.11,-2.7850886,0.3530394,12.69961175,126000.0,19000.0,-588000.0,97646.8811,34.96,51.0,-780.0064087,-0.483878821,151.0,-20.73355865,27.27952194,34.90583038,0.0
2018-09-11 16:03:24.880,0.0,0.152,-0.131,-0.1206666666666666,-2.7883574833333333,0.3988037666666666,12.64077185,120000.0,19333.33333333333,-596000.0,97649.53206,34.96,51.62999725,-792.4445801,0.547826648,152.0,-20.73355865,27.27952194,34.90583038,0.0
2018-09-11 16:03:24.920,0.0,0.144,-0.15,-0.1313333333333333,-2.7916263666666667,0.4445681333333333,12.58193195,114000.0,19666.666666666668,-604000.0,97652.18302,34.96,51.62999725,-792.4445801,0.547826648,152.0,-20.73355865,27.27952194,34.90583038,0.0
2018-09-11 16:03:24.960,0.0,0.136,-0.169,-0.142,-2.79489525,0.4903325,12.52309205,108000.0,20000.0,-612000.0,97654.83398,34.96,51.934997555,-792.4445801,0.08929573,152.5,-20.73355865,27.27952194,34.90583038,0.0
2018-09-11 16:03:25.000,0.0,0.148,-0.1726666666666666,-0.1446666666666666,-2.8210463166666666,0.5295591,12.245236966666669,106000.0,20000.0,-618000.0,97657.44018333332,34.96,52.23999786,-792.4445801,-0.369235188,153.0,-20.73355865,27.27952194,34.90583038,0.0
2018-09-11 16:03:25.040,0.0,0.16,-0.1763333333333333,-0.1473333333333333,-2.847197383333333,0.5687857,11.967381883333331,104000.0,20000.0,-624000.0,97660.04638666668,34.96,52.23999786,-792.4445801,-0.369235188,153.0,-20.73355865,27.27952194,34.90583038,0.0
2018-09-11 16:03:25.080,0.0,0.172,-0.18,-0.15,-2.87334845,0.6080123,11.6895268,102000.0,20000.0,-630000.0,97662.65259,34.96,52.82999802,-826.6332397,0.706772208,154.0,-20.73355865,27.27952194,34.90583038,0.0
2018-09-11 16:03:25.120,0.0,0.1659999999999999,-0.1815,-0.1585,-2.809605225,0.7109821249999999,11.890563125,90500.0,19500.0,-640000.0,97670.193485,34.96,52.82999802,-826.6332397,0.706772208,154.0,-20.73355865,27.27952194,34.90583038,0.0
2018-09-11 16:03:25.160,0.0,0.16,-0.183,-0.167,-2.745862,0.81395195,12.09159945,79000.0,19000.0,-650000.0,97677.73438,34.96,53.02333196333333,-826.6332397,1.053957343,154.33333333333334,-20.12702051333333,28.09965515,36.50012206666666,0.0
2018-09-11 16:03:25.200,0.0,0.177,-0.1643333333333333,-0.1716666666666666,-2.749130883333333,0.7191543333333333,11.516275983333331,75666.66666666667,19333.33333333333,-653333.3333333334,97677.99072666666,34.96,53.21666590666666,-826.6332397,1.401142478,154.66666666666666,-19.520482376666667,28.91978836,38.094413753333335,0.0
2018-09-11 16:03:25.240,0.0,0.194,-0.1456666666666666,-0.1763333333333333,-2.752399766666666,0.6243567166666666,10.940952516666668,72333.33333333333,19666.666666666668,-656666.6666666666,97678.24707333332,34.96,53.40999985,-826.6332397,1.748327613,155.0,-18.91394424,29.73992157,39.68870544,0.0
2018-09-11 16:03:25.280,0.0,0.211,-0.127,-0.181,-2.75566865,0.5295591,10.36562905,69000.0,20000.0,-660000.0,97678.50342,34.96,53.68999863,-838.6929321,0.962360561,155.5,-18.91394424,29.73992157,39.68870544,0.0
2018-09-11 16:03:25.320,0.0,0.2445,-0.131,-0.1925,-2.7654753000000003,0.5687857,10.802024975,64500.0,20000.0,-665500.0,97681.326295,34.955,53.96999741,-850.7526245,0.176393509,156.0,-18.91394424,29.73992157,39.68870544,0.0
2018-09-11 16:03:25.360,0.0,0.278,-0.135,-0.204,-2.77528195,0.6080123,11.2384209,60000.0,20000.0,-671000.0,97684.14917,34.95,54.16333135333333,-850.7526245,0.55988125,156.33333333333334,-18.91394424,29.73992157,39.68870544,0.0
2018-09-11 16:03:25.400,0.0,0.29,-0.189,-0.202,-2.750765325,0.622722275,11.8660465,60000.0,20000.0,-671000.0,97684.14917,34.95,54.35666529666666,-850.7526245,0.943368991,156.66666666666666,-18.91394424,29.73992157,39.68870544,0.0
2018-09-11 16:03:25.440,0.0,0.302,-0.243,-0.2,-2.7262487,0.63743225,12.4936721,60000.0,20000.0,-671000.0,97684.14917,34.95,54.54999924,-850.7526245,1.326856732,157.0,-18.91394424,29.73992157,39.68870544,0.0
2018-09-11 16:03:25.480,0.0,0.311,-0.2666666666666666,-0.1966666666666666,-2.6674088,0.6047434166666666,12.50347875,47333.333333333336,22000.0,-687666.6666666666,97687.66479333332,34.95,54.834999085,-847.8024292,1.1116439995,157.5,-18.91394424,29.73992157,39.68870544,0.0
2018-09-11 16:03:25.520,0.0,0.32,-0.2903333333333333,-0.1933333333333333,-2.6085689000000003,0.5720545833333334,12.5132854,34666.66666666667,24000.0,-704333.3333333334,97691.18041666668,34.95,55.11999893,-844.8522339,0.896431267,158.0,-18.91394424,29.73992157,39.68870544,0.0
2018-09-11 16:03:25.560,0.0,0.329,-0.314,-0.19,-2.549729,0.53936575,12.52309205,22000.0,26000.0,-721000.0,97694.69604,34.95,55.39999962,-844.8522339,1.487180978,158.0,-18.27156734,31.421173095,42.577629085,0.0
2018-09-11 16:03:25.600,0.0,0.299,-0.3303333333333333,-0.1846666666666666,-2.4908891,0.4707192,13.389346133333332,-13666.666666666664,32666.666666666668,-770333.3333333334,97699.3693,34.95,55.68000031,-844.8522339,2.077930689,158.0,-17.62919044,33.10242462,45.46655273,0.0
2018-09-11 16:03:25.640,0.0,0.269,-0.3466666666666667,-0.1793333333333333,-2.4320492,0.40207265,14.255600216666668,-49333.33333333333,39333.333333333336,-819666.6666666666,97704.04256,34.95,55.68000031,-844.8522339,2.077930689,158.0,-17.62919044,33.10242462,45.46655273,0.0
2018-09-11 16:03:25.680,0.0,0.239,-0.363,-0.174,-2.3732093,0.3334261,15.1218543,-85000.0,46000.0,-869000.0,97708.71582,34.95,56.20999908,-844.833374,3.195059299,159.0,-17.62919044,33.10242462,45.46655273,0.0
2018-09-11 16:03:25.720,0.0,0.22,-0.3389999999999999,-0.154,-2.221206225,0.392266,15.0630144,-85000.0,46000.0,-869000.0,97712.7594,34.95,56.20999908,-844.833374,3.195059299,159.0,-17.62919044,33.10242462,45.46655273,0.0
2018-09-11 16:03:25.760,0.0,0.201,-0.315,-0.134,-2.06920315,0.4511059,15.0041745,-85000.0,46000.0,-869000.0,97716.80298,34.95,56.38333256666667,-844.833374,2.9550414083333334,159.33333333333334,-17.62919044,33.10242462,45.46655273,0.0
2018-09-11 16:03:25.800,0.0,0.191,-0.3345,-0.13,-2.01036325,0.544269075,15.215017475,-116500.0,52000.0,-914000.0,97716.80298,34.95,56.55666605333334,-844.833374,2.7150235176666664,159.66666666666666,-17.62919044,33.10242462,45.46655273,0.0
2018-09-11 16:03:25.840,0.0,0.181,-0.354,-0.126,-1.95152335,0.63743225,15.42586045,-148000.0,58000.0,-959000.0,97716.80298,34.95,56.72999954,-844.833374,2.475005627,160.0,-17.62919044,33.10242462,45.46655273,0.0
2018-09-11 16:03:25.880,0.0,0.16625,-0.351,-0.12575,-1.868166825,0.671755525,15.401343825,-193750.0,69500.0,-966750.0,97719.9432375,34.947500000000005,57.20999908,-862.6256714,3.601871967,161.0,-17.62919044,33.10242462,45.46655273,0.0
2018-09-11 16:03:25.920,0.0,0.1515,-0.348,-0.1255,-1.7848103,0.7060788,15.3768272,-239500.0,81000.0,-974500.0,97723.083495,34.945,57.20999908,-862.6256714,3.601871967,161.0,-17.62919044,33.10242462,45.46655273,0.0
2018-09-11 16:03:25.960,0.0,0.1367499999999999,-0.345,-0.12525,-1.701453775,0.740402075,15.352310575,-285250.0,92500.0,-982250.0,97726.2237525,34.942499999999995,57.20999908,-862.6256714,3.601871967,161.0,-17.62919044,33.10242462,45.46655273,0.0
2018-09-11 16:03:26.000,0.0,0.122,-0.342,-0.125,-1.61809725,0.77472535,15.32779395,-331000.0,104000.0,-990000.0,97729.36401,34.94,57.434999465,-862.6256714,3.336244702,161.5,-15.179177759999998,34.79173851,49.579486845,0.0
2018-09-11 16:03:26.040,0.0,0.1134999999999999,-0.3155,-0.129,-1.52003075,0.8335652499999999,15.3964405,-331000.0,104000.0,-990000.0,97729.36401,34.94,57.65999985,-862.6256714,3.070617437,162.0,-12.72916508,36.4810524,53.69242096,0.0
2018-09-11 16:03:26.080,0.0,0.105,-0.289,-0.133,-1.42196425,0.89240515,15.46508705,-331000.0,104000.0,-990000.0,97729.36401,34.94,57.65999985,-862.6256714,3.070617437,162.0,-12.72916508,36.4810524,53.69242096,0.0
2018-09-11 16:03:26.120,0.0,0.097,-0.3185,-0.145,-1.338607725,0.926728425,15.479797025,-366500.0,111000.0,-976500.0,97732.78503,34.94,58.07999802,-889.0571289,4.182518482,162.0,-12.72916508,36.4810524,53.69242096,0.0
2018-09-11 16:03:26.160,0.0,0.089,-0.348,-0.157,-1.2552512,0.9610517,15.494507,-402000.0,118000.0,-963000.0,97736.20605,34.94,58.07999802,-889.0571289,4.182518482,162.0,-12.72916508,36.4810524,53.69242096,0.0
2018-09-11 16:03:26.200,0.0,0.087,-0.376,-0.172,-1.1571847,0.858081875,15.989742825,-439500.0,137500.0,-691000.0,97739.36462,34.94,58.27999878,-889.0571289,4.709963083,162.5,-12.72916508,36.4810524,53.69242096,0.0
2018-09-11 16:03:26.240,0.0,0.085,-0.404,-0.187,-1.0591182,0.75511205,16.48497865,-477000.0,157000.0,-419000.0,97742.52319,34.94,58.47999954,-889.0571289,5.237407684,163.0,-12.72916508,36.4810524,53.69242096,0.0
2018-09-11 16:03:26.280,0.0,0.0856666666666666,-0.4043333333333334,-0.198,-0.9643205833333331,0.7976075333333333,16.792253683333332,-475000.0,157000.0,-57000.0,97742.59033,34.94,58.65499878,-883.9670105,5.4743614195,163.0,-12.72916508,36.4810524,53.69242096,0.0
2018-09-11 16:03:26.320,0.0,0.0863333333333333,-0.4046666666666667,-0.209,-0.8695229666666666,0.8401030166666666,17.09952871666667,-473000.0,157000.0,305000.0,97742.65747,34.94,58.82999802,-878.8768921,5.711315155,163.0,-12.72916508,36.4810524,53.69242096,0.0
2018-09-11 16:03:26.360,0.0,0.087,-0.405,-0.22,-0.77472535,0.8825985,17.40680375,-471000.0,157000.0,667000.0,97742.72461,34.94,58.93999863,-878.8768921,6.024164199666667,163.33333333333334,-11.288733802,36.78610611,56.41790898666667,0.0
2018-09-11 16:03:26.400,0.0,0.0883333333333333,-0.3983333333333334,-0.221,-0.6831966166666666,0.8695229666666666,17.5931301,-508000.0,170333.33333333334,1352333.3333333335,97745.47119333332,34.94,59.04999924,-878.8768921,6.337013244333333,163.66666666666666,-9.848302524,37.09115982,59.143397013333335,0.0
2018-09-11 16:03:26.440,0.0,0.0896666666666666,-0.3916666666666666,-0.222,-0.5916678833333333,0.8564474333333333,17.77945645,-545000.0,183666.66666666663,2037666.6666666667,97748.21777666669,34.94,59.15999985,-878.8768921,6.649862289,164.0,-8.407871246,37.39621353,61.86888504,0.0
2018-09-11 16:03:26.480,0.0,0.091,-0.385,-0.223,-0.50013915,0.8433719,17.9657828,-582000.0,197000.0,2723000.0,97750.96436,34.94,59.29500008,-891.64468385,7.026282787,164.0,-8.407871246,37.39621353,61.86888504,0.0
2018-09-11 16:03:26.520,0.0,0.0945,-0.3535,-0.226,-0.44129925,0.926728425,17.539193525,-632500.0,211000.0,2722000.0,97756.67725,34.94,59.43000031,-904.4124756,7.402703285,164.0,-8.407871246,37.39621353,61.86888504,0.0
2018-09-11 16:03:26.560,0.0,0.098,-0.322,-0.229,-0.38245935,1.01008495,17.11260425,-683000.0,225000.0,2721000.0,97762.39014,34.94,59.54999924,-904.4124756,7.792319297500001,164.5,-8.407871246,37.39621353,61.86888504,0.0
2018-09-11 16:03:26.600,0.0,0.0975,-0.3085,-0.24,-0.26477955,0.8237586,16.34768555,-711000.0,231500.0,2720500.0,97759.713745,34.94,59.66999817,-904.4124756,8.18193531,165.0,-8.407871246,37.39621353,61.86888504,0.0
2018-09-11 16:03:26.640,0.0,0.097,-0.295,-0.251,-0.14709975,0.63743225,15.58276685,-739000.0,238000.0,2720000.0,97757.03735,34.94,59.66999817,-904.4124756,8.18193531,165.0,-8.407871246,37.39621353,61.86888504,0.0
2018-09-11 16:03:26.680,0.0,0.108,-0.3036666666666666,-0.2426666666666666,-0.1046042666666666,0.6701210833333333,15.625262333333334,-756000.0,248666.66666666663,2719666.6666666665,97758.35571,34.93666666666667,59.66999817,-904.4124756,8.18193531,165.0,-8.407871246,37.39621353,61.86888504,0.0
2018-09-11 16:03:26.720,0.0,0.119,-0.3123333333333333,-0.2343333333333333,-0.0621087833333333,0.7028099166666667,15.667757816666668,-773000.0,259333.3333333333,2719333.333333333,97759.67407,34.93333333333333,59.8599968,-933.7102661,8.883243561,165.0,-6.129981995,38.38119507,69.13064575,0.0
2018-09-11 16:03:26.760,0.0,0.13,-0.321,-0.226,-0.0196133,0.73549875,15.7102533,-790000.0,270000.0,2719000.0,97760.99243,34.93,59.8599968,-933.7102661,8.883243561,165.0,-6.129981995,38.38119507,69.13064575,0.0
2018-09-11 16:03:26.800,0.0,0.1226666666666666,-0.3323333333333333,-0.2196666666666666,0.02941995,0.7583809333333333,15.6318001,-819000.0,273000.0,2718333.333333333,97762.78279666668,34.93,60.02999878,-933.7102661,9.495497704,165.0,-6.129981995,38.38119507,69.13064575,0.0
2018-09-11 16:03:26.840,0.0,0.1153333333333333,-0.3436666666666667,-0.2133333333333333,0.0784532,0.7812631166666666,15.5533469,-848000.0,276000.0,2717666.6666666665,97764.57316333332,34.93,60.02999878,-933.7102661,9.495497704,165.0,-6.129981995,38.38119507,69.13064575,0.0
2018-09-11 16:03:26.880,0.0,0.108,-0.355,-0.207,0.12748645,0.8041453,15.4748937,-877000.0,279000.0,2717000.0,97766.36353,34.93,60.02999878,-933.7102661,9.495497704,165.0,-6.129981995,38.38119507,69.13064575,0.0
2018-09-11 16:03:26.920,0.0,0.0705,-0.3755,-0.2025,0.1765197,0.73549875,16.264329025000002,-917000.0,293000.0,2716500.0,97770.32471,34.93,60.15999985,-940.2167969,10.02982807,165.0,-6.129981995,38.38119507,69.13064575,0.0
2018-09-11 16:03:26.960,0.0,0.033,-0.396,-0.198,0.22555295,0.6668522,17.05376435,-957000.0,307000.0,2716000.0,97774.28589,34.93,60.15999985,-940.2167969,10.02982807,165.0,-6.129981995,38.38119507,69.13064575,0.0
2018-09-11 16:03:27.000,0.0,-0.0029999999999999,-0.3673333333333333,-0.1946666666666666,0.3170816833333333,0.6930032666666667,16.64188505,-960000.0,309666.6666666667,2716000.0,97772.84139,34.93,60.27999878,-940.2167969,10.47510338,166.0,-6.129981995,38.38119507,69.13064575,0.0
2018-09-11 16:03:27.040,0.0,-0.0389999999999999,-0.3386666666666666,-0.1913333333333333,0.4086104166666666,0.7191543333333333,16.23000575,-963000.0,312333.3333333333,2716000.0,97771.39689,34.93,60.27999878,-940.2167969,10.47510338,166.0,-6.129981995,38.38119507,69.13064575,0.0
2018-09-11 16:03:27.080,0.0,-0.075,-0.31,-0.188,0.50013915,0.7453054,15.81812645,-966000.0,315000.0,2716000.0,97769.95239,34.93,60.34999847,-949.6135864,10.83132362,166.0,-6.129981995,38.38119507,69.13064575,0.0
2018-09-11 16:03:27.120,0.0,-0.1005,-0.364,-0.1975,0.48052585,0.8433719,16.411428775,-1030000.0,334000.0,2714500.0,97774.98779,34.93,60.34999847,-949.6135864,10.83132362,166.0,-4.3300583365,38.560979845,73.964492795,0.0
2018-09-11 16:03:27.160,0.0,-0.126,-0.418,-0.207,0.46091255,0.9414384,17.0047311,-1094000.0,353000.0,2713000.0,97780.02319,34.93,60.34999847,-949.6135864,10.83132362,166.0,-2.530134678,38.74076462,78.79833984,0.0
2018-09-11 16:03:27.200,0.0,-0.1365,-0.433,-0.205,0.53936575,0.965955025,17.362673825,-1094000.0,353000.0,2713000.0,97780.02319,34.93,60.37999916,-949.6135864,10.964906215,166.0,-2.530134678,38.74076462,78.79833984,0.0
2018-09-11 16:03:27.240,0.0,-0.147,-0.448,-0.203,0.61781895,0.99047165,17.72061655,-1094000.0,353000.0,2713000.0,97780.02319,34.93,60.40999985,-949.6135864,11.09848881,166.0,-2.530134678,38.74076462,78.79833984,0.0
2018-09-11 16:03:27.280,0.0,-0.1663333333333333,-0.3953333333333333,-0.2056666666666666,0.6407011333333333,0.9937405333333332,17.527752433333333,-1098333.3333333333,358666.6666666667,2713000.0,97779.49422,34.92666666666667,60.40999985,-970.2016602,11.27659893,166.0,-2.530134678,38.74076462,78.79833984,0.0
2018-09-11 16:03:27.320,0.0,-0.1856666666666666,-0.3426666666666667,-0.2083333333333333,0.6635833166666666,0.9970094166666666,17.334888316666667,-1102666.6666666667,364333.3333333333,2713000.0,97778.96525,34.92333333333333,60.40999985,-970.2016602,11.27659893,166.0,-2.530134678,38.74076462,78.79833984,0.0
2018-09-11 16:03:27.360,0.0,-0.205,-0.29,-0.211,0.6864655,1.0002783,17.1420242,-1107000.0,370000.0,2713000.0,97778.43628,34.92,60.40999985,-970.2016602,11.27659893,166.0,-2.530134678,38.74076462,78.79833984,0.0
2018-09-11 16:03:27.400,0.0,-0.2229999999999999,-0.291,-0.204,0.652142225,0.975761675,16.54381855,-1163500.0,379500.0,2711500.0,97775.90027,34.92,60.38999939,-970.2016602,11.35452175,166.0,-2.530134678,38.74076462,78.79833984,0.0
2018-09-11 16:03:27.440,0.0,-0.241,-0.292,-0.197,0.61781895,0.95124505,15.9456129,-1220000.0,389000.0,2710000.0,97773.36426,34.92,60.38999939,-970.2016602,11.35452175,166.0,-2.530134678,38.74076462,78.79833984,0.0
2018-09-11 16:03:27.480,0.0,-0.2486666666666666,-0.329,-0.1936666666666666,0.6080123,0.9087495666666668,16.344416666666667,-1222000.0,391000.0,2710000.0,97774.73348,34.92,60.38999939,-970.2016602,11.35452175,166.0,-2.530134678,38.74076462,78.79833984,0.0
2018-09-11 16:03:27.520,0.0,-0.2563333333333333,-0.366,-0.1903333333333333,0.59820565,0.8662540833333333,16.743220433333335,-1224000.0,393000.0,2710000.0,97776.1027,34.92,60.29999924,-961.8213501,11.34339046,166.0,-2.530134678,38.74076462,78.79833984,0.0
2018-09-11 16:03:27.560,0.0,-0.264,-0.403,-0.187,0.588399,0.8237586,17.1420242,-1226000.0,395000.0,2710000.0,97777.47192,34.92,60.29999924,-961.8213501,11.34339046,166.0,1.398665786,34.34542465,87.59010315,0.0
2018-09-11 16:03:27.600,0.0,-0.2855,-0.4125,-0.183,0.554075725,0.9022118,17.3381572,-1228000.0,390500.0,2710000.0,97775.616455,34.92,60.18999863,-961.8213501,11.2543354,166.0,1.398665786,34.34542465,87.59010315,0.0
2018-09-11 16:03:27.640,0.0,-0.307,-0.422,-0.179,0.51975245,0.980665,17.5342902,-1230000.0,386000.0,2710000.0,97773.76099,34.92,60.18999863,-961.8213501,11.2543354,166.0,1.398665786,34.34542465,87.59010315,0.0
2018-09-11 16:03:27.680,0.0,-0.338,-0.4216666666666666,-0.1706666666666666,0.5524412833333333,0.9643205833333334,17.763112033333336,-1209000.0,385666.6666666667,2710333.333333333,97773.31339666666,34.92,60.094999315,-964.8326721,11.170845985,165.5,1.398665786,34.34542465,87.59010315,0.0
2018-09-11 16:03:27.720,0.0,-0.369,-0.4213333333333333,-0.1623333333333333,0.5851301166666667,0.9479761666666666,17.991933866666667,-1188000.0,385333.3333333333,2710666.6666666665,97772.86580333332,34.92,60.0,-967.8439941,11.08735657,165.0,1.398665786,34.34542465,87.59010315,0.0
2018-09-11 16:03:27.760,0.0,-0.4,-0.421,-0.154,0.61781895,0.93163175,18.2207557,-1167000.0,385000.0,2711000.0,97772.41821,34.92,60.0,-967.8439941,11.08735657,165.0,1.398665786,34.34542465,87.59010315,0.0
2018-09-11 16:03:27.800,0.0,-0.4263333333333333,-0.416,-0.1563333333333333,0.5524412833333333,0.99047165,18.19460463333333,-1166666.6666666667,395333.3333333333,2711000.0,97772.23714,34.92,59.88500023,-967.8439941,10.964906215,165.0,1.398665786,34.34542465,87.59010315,0.0
2018-09-11 16:03:27.840,0.0,-0.4526666666666666,-0.411,-0.1586666666666666,0.4870636166666666,1.04931155,18.168453566666667,-1166333.3333333333,405666.6666666667,2711000.0,97772.05607,34.92,59.77000046,-967.8439941,10.84245586,165.0,1.398665786,34.34542465,87.59010315,0.0
2018-09-11 16:03:27.880,0.0,-0.479,-0.406,-0.161,0.42168595,1.10815145,18.1423025,-1166000.0,416000.0,2711000.0,97771.875,34.92,59.61499977,-957.2017517,10.681043145,165.0,6.078121185,28.8905468,94.02381897,0.0
2018-09-11 16:03:27.920,0.0,-0.491,-0.367,-0.1545,0.485429175,0.975761675,17.823586374999998,-1177500.0,415000.0,2711000.0,97761.74927,34.915,59.537499425,-951.8806305,10.6003367875,165.0,6.078121185,28.8905468,94.02381897,0.0
2018-09-11 16:03:27.960,0.0,-0.503,-0.328,-0.148,0.5491724,0.8433719,17.50487025,-1189000.0,414000.0,2711000.0,97751.62354,34.91,59.45999908,-946.5595093,10.51963043,165.0,6.078121185,28.8905468,94.02381897,0.0
2018-09-11 16:03:28.000,0.0,-0.5093333333333333,-0.2943333333333333,-0.1493333333333333,0.4739880833333333,0.8825985,17.17144415,-1166666.6666666667,408666.6666666667,2711333.333333333,97751.62354,34.91,59.09000015,-946.5595093,10.13001537,164.0,6.078121185,28.8905468,94.02381897,0.0
2018-09-11 16:03:28.040,0.0,-0.5156666666666667,-0.2606666666666666,-0.1506666666666666,0.3988037666666666,0.9218251,16.83801805,-1144333.3333333333,403333.3333333333,2711666.6666666665,97751.62354,34.91,59.09000015,-946.5595093,10.13001537,164.0,6.078121185,28.8905468,94.02381897,0.0
2018-09-11 16:03:28.080,0.0,-0.522,-0.227,-0.152,0.32361945,0.9610517,16.50459195,-1122000.0,398000.0,2712000.0,97751.62354,34.91,59.09000015,-946.5595093,10.13001537,164.0,6.078121185,28.8905468,94.02381897,0.0
2018-09-11 16:03:28.120,0.0,-0.5415000000000001,-0.158,-0.144,0.1667130499999999,0.838468575,15.268954049999998,-1089000.0,403000.0,2713000.0,97750.540165,34.91,58.62999725,-893.6019897,9.684739113,164.0,6.078121185,28.8905468,94.02381897,0.0
2018-09-11 16:03:28.160,0.0,-0.561,-0.089,-0.136,0.00980665,0.71588545,14.03331615,-1056000.0,408000.0,2714000.0,97749.45679,34.91,58.37999725,-893.6019897,9.4398379325,164.0,7.837488650999999,24.774279595,96.413238525,0.0
2018-09-11 16:03:28.200,0.0,-0.5673333333333334,-0.072,-0.1323333333333333,-0.04903325,0.6897343833333334,13.3174307,-1029000.0,399666.6666666667,2714333.333333333,97746.14258,34.906666666666666,58.12999725,-893.6019897,9.194936752,164.0,9.596856117,20.65801239,98.80265808,0.0
2018-09-11 16:03:28.240,0.0,-0.5736666666666667,-0.055,-0.1286666666666666,-0.10787315,0.6635833166666667,12.60154525,-1002000.0,391333.3333333333,2714666.6666666665,97742.82837,34.90333333333333,58.12999725,-893.6019897,9.194936752,164.0,9.596856117,20.65801239,98.80265808,0.0
2018-09-11 16:03:28.280,0.0,-0.58,-0.038,-0.125,-0.16671305,0.63743225,11.8856598,-975000.0,383000.0,2715000.0,97739.51416,34.9,57.57999802,-842.9511719,8.694002151,163.0,9.596856117,20.65801239,98.80265808,0.0
2018-09-11 16:03:28.320,0.0,-0.5814999999999999,-0.0675,-0.1105,-0.196133,0.63743225,11.56204035,-956000.0,385500.0,2715500.0,97730.926515,34.9,57.57999802,-842.9511719,8.694002151,163.0,9.596856117,20.65801239,98.80265808,0.0
2018-09-11 16:03:28.360,0.0,-0.583,-0.097,-0.096,-0.22555295,0.63743225,11.2384209,-937000.0,388000.0,2716000.0,97722.33887,34.9,57.57999802,-842.9511719,8.694002151,163.0,9.596856117,20.65801239,98.80265808,0.0
2018-09-11 16:03:28.400,0.0,-0.581,-0.0826666666666666,-0.0923333333333333,-0.2876617333333333,0.6276256,11.205732066666666,-927333.3333333334,389000.0,2351000.0,97722.33887,34.9,57.29999924,-842.9511719,8.432402610499999,163.0,9.596856117,20.65801239,98.80265808,0.0
2018-09-11 16:03:28.440,0.0,-0.579,-0.0683333333333333,-0.0886666666666666,-0.3497705166666667,0.61781895,11.173043233333331,-917666.6666666666,390000.0,1986000.0,97722.33887,34.9,57.02000046,-842.9511719,8.17080307,163.0,9.596856117,20.65801239,98.80265808,0.0
2018-09-11 16:03:28.480,0.0,-0.577,-0.054,-0.085,-0.4118793,0.6080123,11.1403544,-908000.0,391000.0,1621000.0,97722.33887,34.9,57.02000046,-842.9511719,8.17080307,163.0,9.596856117,20.65801239,98.80265808,0.0
2018-09-11 16:03:28.520,0.0,-0.5569999999999999,-0.0375,-0.0775,-0.465815875,0.573689025,10.71866845,-890000.0,393500.0,1007000.0,97722.61658,34.895,56.43999863,-789.3234253,7.669868469,163.0,9.596856117,20.65801239,98.80265808,0.0
2018-09-11 16:03:28.560,0.0,-0.537,-0.021,-0.07,-0.51975245,0.53936575,10.2969825,-872000.0,396000.0,393000.0,97722.89429,34.89,56.43999863,-789.3234253,7.669868469,163.0,10.84611797,7.884469032,101.8368378,0.0
2018-09-11 16:03:28.600,0.0,-0.5206666666666667,-0.0183333333333333,-0.061,-0.5459035166666667,0.4445681333333333,10.05181625,-854333.3333333334,398666.6666666667,-260000.0,97714.97396,34.89,56.14999962,-789.3234253,7.413835048499999,162.5,10.84611797,7.884469032,101.8368378,0.0
2018-09-11 16:03:28.640,0.0,-0.5043333333333333,-0.0156666666666666,-0.052,-0.5720545833333334,0.3497705166666667,9.80665,-836666.6666666666,401333.3333333333,-913000.0,97707.05363,34.89,55.86000061,-789.3234253,7.157801628,162.0,10.84611797,7.884469032,101.8368378,0.0
2018-09-11 16:03:28.680,0.0,-0.488,-0.013,-0.043,-0.59820565,0.2549729,9.56148375,-819000.0,404000.0,-1566000.0,97699.1333,34.89,55.27999878,-741.3040161,6.667998791,162.0,10.84611797,7.884469032,101.8368378,0.0
