time,field.angular_velocity.x,field.angular_velocity.y,field.angular_velocity.z,field.linear_acceleration.x,field.linear_acceleration.y,field.linear_acceleration.z,field.magnetic_field.x,field.magnetic_field.y,field.magnetic_field.z,field.fluid_pressure,field.temperature,field.alt_error,field.aspd_error,field.xtrack_error,field.wp_dist,field.measured.pitch,field.measured.roll,field.measured.yaw,fault_state,field.airspeed
07:47.2,-0.04,0.041333333,0.064333333,-0.022882183,0.4118793,7.802824517,-188333.3333,96666.66667,-855666.6667,98177.34985,32.08,-0.140000001,-0.766468048,-40.37721252,3,-0.246220425,1.027297974,-87.28736877,0,0
07:47.3,-0.01,0.024666667,0.065666667,-0.006537767,0.4314926,8.280081483,-197666.6667,103333.3333,-867333.3333,98176.15357,32.08,-0.144999996,-0.766468048,-39.75527954,3.5,-0.464429178,1.116122783,-87.7624855,0,0
07:47.3,0.02,0.008,0.067,0.00980665,0.4511059,8.75733845,-207000,110000,-879000,98174.95728,32.08,-0.149999991,-0.766468048,-39.13334656,4,-0.68263793,1.204947591,-88.23760223,0,0
07:47.4,0.012,0.010333333,0.067,-0.04903325,0.496870267,8.6690786,-211333.3333,117000,-888666.6667,98174.70297,32.07666667,-0.149999991,-0.766468048,-39.13334656,4,-0.68263793,1.204947591,-88.23760223,0,0
07:47.4,0.004,0.012666667,0.067,-0.10787315,0.542634633,8.58081875,-215666.6667,124000,-898333.3333,98174.44865,32.07333333,-0.149999991,-0.766468048,-39.13334656,4,-0.68263793,1.204947591,-88.23760223,0,0
07:47.4,-0.004,0.015,0.067,-0.16671305,0.588399,8.4925589,-220000,131000,-908000,98174.19434,32.07,-0.149999991,-1.083040238,-242.9126663,4.5,-0.68263793,1.204947591,-88.23760223,0,0
07:47.5,0.143,0.017,0.046,-0.1569064,0.622722275,9.095667875,-226500,133500,-928000,98175.62256,32.07,-0.149999991,-1.399612427,-446.6919861,5,-0.68263793,1.204947591,-88.23760223,0,0
07:47.5,0.29,0.019,0.025,-0.14709975,0.65704555,9.69877685,-233000,136000,-948000,98177.05078,32.07,-0.119999997,98.60038757,-445.440918,6,-0.68263793,1.204947591,-88.23760223,0,0
07:47.6,0.575,0.0225,-0.013,0.00980665,0.475622525,9.586000375,-233000,136000,-948000,98177.15759,32.07,-0.119999997,98.60038757,-445.440918,6,-0.68263793,1.204947591,-88.23760223,0,0
07:47.6,0.86,0.026,-0.051,0.16671305,0.2941995,9.4732239,-233000,136000,-948000,98177.2644,32.07,-0.119999997,98.60038757,-445.440918,6,-0.68263793,1.204947591,-88.23760223,0,0
07:47.6,0.943,0.030666667,-0.061666667,0.042495483,0.336694983,9.5516771,-230000,132333.3333,-940666.6667,98177.2644,32.07,-0.104999997,98.07691574,-444.8153687,7,-0.68263793,1.204947591,-88.23760223,0,0
07:47.7,1.026,0.035333333,-0.072333333,-0.081722083,0.379190467,9.6301303,-227000,128666.6667,-933333.3333,98177.2644,32.07,-0.089999996,97.55344391,-444.1898193,8,-0.68263793,1.204947591,-88.23760223,0,0
07:47.7,1.109,0.04,-0.083,-0.20593965,0.42168595,9.7085835,-224000,125000,-926000,98177.2644,32.07,-0.089999996,97.55344391,-444.1898193,8,-0.68263793,1.204947591,-88.23760223,0,0
07:47.8,1.072333333,0.046333333,-0.079333333,-0.241897367,0.457643667,9.407846233,-208666.6667,97000,-891000,98175.64087,32.06666667,-0.049999997,97.55344391,-442.9387512,9,-0.68263793,1.204947591,-88.23760223,0,0
07:47.8,1.035666667,0.052666667,-0.075666667,-0.277855083,0.493601383,9.107108967,-193333.3333,69000,-856000,98174.01733,32.06333333,-0.049999997,97.55344391,-442.9387512,9,-1.678834796,14.59521484,-88.38201141,0,0
07:47.8,0.999,0.059,-0.072,-0.3138128,0.5295591,8.8063717,-178000,41000,-821000,98172.3938,32.06,-0.024999999,129.1083794,-442.3132172,9.5,-1.678834796,14.59521484,-88.38201141,0,0
07:47.9,0.919,0.0485,-0.075,-0.36284605,0.701175475,9.017214675,-160000,3000,-790000,98174.70703,32.06,0,160.6633148,-441.6876831,10,-1.678834796,14.59521484,-88.38201141,0,0
07:47.9,0.839,0.038,-0.078,-0.4118793,0.87279185,9.22805765,-142000,-35000,-759000,98177.02026,32.06,0,160.6633148,-441.6876831,10,-1.678834796,14.59521484,-88.38201141,0,0
07:48.0,0.7265,0.039,-0.091,-0.42168595,0.8433719,8.968181425,-116000,-95500,-700500,98176.36414,32.06,0.035,160.6633148,-441.0621491,10.5,-1.678834796,14.59521484,-88.38201141,0,0
07:48.0,0.614,0.04,-0.104,-0.4314926,0.81395195,8.7083052,-90000,-156000,-642000,98175.70801,32.06,0.07,160.6633148,-440.436615,11,-1.678834796,14.59521484,-88.38201141,0,0
07:48.0,0.569333333,0.044666667,-0.111666667,-0.503408033,0.820489717,8.56120545,-90000,-156000,-642000,98175.70801,32.06,0.105000001,166.2053604,-439.811081,12,-1.678834796,14.59521484,-88.38201141,0,0
07:48.1,0.524666667,0.049333333,-0.119333333,-0.575323467,0.827027483,8.4141057,-90000,-156000,-642000,98175.70801,32.06,0.140000001,171.747406,-439.1855469,13,-1.678834796,14.59521484,-88.38201141,0,0
07:48.1,0.48,0.054,-0.127,-0.6472389,0.83356525,8.26700595,-90000,-156000,-642000,98175.70801,32.06,0.140000001,171.747406,-439.1855469,13,-1.678834796,14.59521484,-88.38201141,0,0
07:48.2,0.3955,0.0505,-0.1485,-0.7060788,0.97085835,8.09048625,-69500,-190500,-602000,98176.31531,32.055,0.219999996,175.7917709,-438.2599259,13.75,-2.552682221,22.07220459,-87.6443634,0,0
07:48.2,0.311,0.047,-0.17,-0.7649187,1.10815145,7.91396655,-49000,-225000,-562000,98176.92261,32.05,0.29999999,179.8361359,-437.3343048,14.5,-3.426529646,29.54919434,-86.90671539,0,0
07:48.2,0.291333333,0.046,-0.186333333,-0.742036517,1.065655967,7.8845466,-49000,-225000,-562000,98176.92261,32.05,0.329999988,183.8805008,-437.0257645,14.75,-3.426529646,29.54919434,-86.90671539,0,0
07:48.3,0.271666667,0.045,-0.202666667,-0.719154333,1.023160483,7.85512665,-49000,-225000,-562000,98176.92261,32.05,0.359999985,187.9248657,-436.7172241,15,-3.426529646,29.54919434,-86.90671539,0,0
07:48.3,0.252,0.044,-0.219,-0.69627215,0.980665,7.8257067,-49000,-225000,-562000,98176.92261,32.05,0.359999985,187.9248657,-436.7172241,15,-3.426529646,29.54919434,-86.90671539,0,0
07:48.4,0.204,0.047666667,-0.227,-0.77472535,1.016622717,7.8257067,-40333.33333,-231333.3333,-547000,98176.65812,32.05,0.5,187.9248657,-435.4914856,16,-3.426529646,29.54919434,-86.90671539,0,0
07:48.4,0.156,0.051333333,-0.235,-0.85317855,1.052580433,7.8257067,-31666.66667,-237666.6667,-532000,98176.39364,32.05,0.5,187.9248657,-435.4914856,16,-3.426529646,29.54919434,-86.90671539,0,0
07:48.4,0.108,0.055,-0.243,-0.93163175,1.08853815,7.8257067,-23000,-244000,-517000,98176.12915,32.05,0.669999957,202.6749573,-434.2826843,17,-3.426529646,29.54919434,-86.90671539,0,0
07:48.5,0.075333333,0.061666667,-0.250666667,-0.95124505,0.97085835,7.8649333,-10333.33333,-259000,-502666.6667,98176.72933,32.04666667,0.774999976,202.6749573,-433.6740418,18,-3.426529646,29.54919434,-86.90671539,0,0
07:48.5,0.042666667,0.068333333,-0.258333333,-0.97085835,0.85317855,7.9041599,2333.333333,-274000,-488333.3333,98177.32951,32.04333333,0.879999995,202.6749573,-433.0653992,19,-3.426529646,29.54919434,-86.90671539,0,0
07:48.6,0.01,0.075,-0.266,-0.99047165,0.73549875,7.9433865,15000,-289000,-474000,98177.92969,32.04,0.879999995,202.6749573,-433.0653992,19,-5.491722942,31.66170121,-84.97201157,0,0
07:48.6,-0.01,0.065,-0.268,-1.01008495,1.01008495,7.87473995,15000,-289000,-474000,98177.92969,32.04,0.879999995,202.6749573,-433.0653992,19,-7.556916237,33.77420807,-83.03730774,0,0
07:48.6,-0.001333333,0.066333333,-0.272333333,-1.065655967,1.006816067,7.63938035,26333.33333,-292333.3333,-464666.6667,98178.94287,32.04,1.100000024,223.5237122,-431.8650818,20,-7.556916237,33.77420807,-83.03730774,0,0
07:48.7,0.007333333,0.067666667,-0.276666667,-1.121226983,1.003547183,7.40402075,37666.66667,-295666.6667,-455333.3333,98179.95606,32.04,1.100000024,223.5237122,-431.8650818,20,-7.556916237,33.77420807,-83.03730774,0,0
07:48.7,0.016,0.069,-0.281,-1.176798,1.0002783,7.16866115,49000,-299000,-446000,98180.96924,32.04,1.230000019,223.5237122,-431.2691346,20.5,-7.556916237,33.77420807,-83.03730774,0,0
07:48.8,-0.0155,0.0545,-0.2775,-1.2356379,1.064021525,7.2961476,56000,-309000,-436000,98180.91431,32.04,1.360000014,223.5237122,-430.6731873,21,-7.556916237,33.77420807,-83.03730774,0,0
07:48.8,-0.047,0.04,-0.274,-1.2944778,1.12776475,7.42363405,63000,-319000,-426000,98180.85938,32.04,1.504999995,230.3605042,-430.0814667,21.5,-7.556916237,33.77420807,-83.03730774,0,0
07:48.8,-0.041666667,0.043333333,-0.279333333,-1.287940033,0.954513933,7.426902933,78666.66667,-321666.6667,-413000,98183.0363,32.03666667,1.649999976,237.1972961,-429.4897461,22,-7.556916237,33.77420807,-83.03730774,0,0
07:48.9,-0.036333333,0.046666667,-0.284666667,-1.281402267,0.781263117,7.430171817,94333.33333,-324333.3333,-400000,98185.21322,32.03333333,1.649999976,237.1972961,-429.4897461,22,-7.556916237,33.77420807,-83.03730774,0,0
07:48.9,-0.031,0.05,-0.29,-1.2748645,0.6080123,7.4334407,110000,-327000,-387000,98187.39014,32.03,1.649999976,237.1972961,-429.4897461,22,-7.556916237,33.77420807,-83.03730774,0,0
07:49.0,-0.057333333,0.049666667,-0.284333333,-1.369662117,0.624356717,7.40402075,119666.6667,-332000,-380333.3333,98188.38094,32.03,1.969999909,237.1972961,-428.3399963,23,-12.04805565,32.72431946,-78.54212952,0,0
07:49.0,-0.083666667,0.049333333,-0.278666667,-1.464459733,0.640701133,7.3746008,129333.3333,-337000,-373666.6667,98189.37175,32.03,2.144999921,245.4983673,-427.7609711,24,-12.04805565,32.72431946,-78.54212952,0,0
07:49.0,-0.11,0.049,-0.273,-1.55925735,0.65704555,7.34518085,139000,-342000,-367000,98190.36255,32.03,2.319999933,253.7994385,-427.1819458,25,-12.04805565,32.72431946,-78.54212952,0,0
07:49.1,-0.1245,0.0485,-0.2575,-1.5886773,0.769822025,7.222597725,139000,-342000,-367000,98190.36255,32.03,2.319999933,253.7994385,-427.1819458,25,-12.04805565,32.72431946,-78.54212952,0,0
07:49.1,-0.139,0.048,-0.242,-1.61809725,0.8825985,7.1000146,139000,-342000,-367000,98190.36255,32.03,2.319999933,253.7994385,-427.1819458,25,-12.04805565,32.72431946,-78.54212952,0,0
07:49.2,-0.136333333,0.044,-0.233,-1.644248317,0.817220833,7.279803183,150000,-340666.6667,-361666.6667,98193.46314,32.03,2.720000029,253.7994385,-426.0238647,26,-12.04805565,32.72431946,-78.54212952,0,0
07:49.2,-0.133666667,0.04,-0.224,-1.670399383,0.751843167,7.459591767,161000,-339333.3333,-356333.3333,98196.56372,32.03,2.720000029,253.7994385,-426.0238647,26,-12.04805565,32.72431946,-78.54212952,0,0
07:49.2,-0.131,0.036,-0.215,-1.69655045,0.6864655,7.63938035,172000,-338000,-351000,98199.66431,32.03,2.720000029,253.7994385,-426.0238647,26,-12.04805565,32.72431946,-78.54212952,0,0
07:49.3,-0.131333333,0.047,-0.214,-1.739045933,0.454374783,7.60015375,177000,-337000,-349666.6667,98201.47298,32.02666667,2.924999953,241.6784745,-425.457489,26.5,-12.04805565,32.72431946,-78.54212952,0,0
07:49.3,-0.131666667,0.058,-0.213,-1.781541417,0.222284067,7.56092715,182000,-336000,-348333.3333,98203.28166,32.02333333,3.129999876,229.5575104,-424.8911133,27,-12.04805565,32.72431946,-78.54212952,0,0
07:49.4,-0.132,0.069,-0.212,-1.8240369,-0.00980665,7.52170055,187000,-335000,-347000,98205.09033,32.02,3.569999933,229.5575104,-423.7583923,28,-15.89462185,28.96441841,-73.97135162,0,0
07:49.4,-0.158,0.038,-0.208,-1.75539035,0.93163175,8.09048625,187000,-335000,-347000,98209.44214,32.01,3.569999933,229.5575104,-423.7583923,28,-15.89462185,28.96441841,-73.97135162,0,0
07:49.4,-0.15125,0.041,-0.207,-1.7848103,0.801693638,8.036549675,193500,-331750,-347250,98211.38153,32.0125,3.804999948,234.4044648,-423.2003784,28.5,-15.89462185,28.96441841,-73.97135162,0,0
07:49.5,-0.1445,0.044,-0.206,-1.81423025,0.671755525,7.9826131,200000,-328500,-347500,98213.32093,32.015,4.039999962,239.2514191,-422.6423645,29,-15.89462185,28.96441841,-73.97135162,0,0
07:49.5,-0.13775,0.047,-0.205,-1.8436502,0.541817413,7.928676525,206500,-325250,-347750,98215.26032,32.0175,4.289999962,239.2514191,-422.0886994,29.5,-15.89462185,28.96441841,-73.97135162,0,0
07:49.6,-0.131,0.05,-0.204,-1.87307015,0.4118793,7.87473995,213000,-322000,-348000,98217.19971,32.02,4.539999962,239.2514191,-421.5350342,30,-15.89462185,28.96441841,-73.97135162,0,0
07:49.6,-0.128,0.054,-0.209,-1.8632635,0.83356525,7.3549875,213000,-322000,-348000,98217.19971,32.02,4.539999962,239.2514191,-421.5350342,30,-15.89462185,28.96441841,-73.97135162,0,0
07:49.6,-0.148666667,0.048666667,-0.205,-1.876339033,0.751843167,7.351718617,217000,-319000,-347666.6667,98218.56893,32.01666667,5.049999714,243.9116516,-420.4361267,32,-15.89462185,28.96441841,-73.97135162,0,0
07:49.7,-0.169333333,0.043333333,-0.201,-1.889414567,0.670121083,7.348449733,221000,-316000,-347333.3333,98219.93815,32.01333333,5.187499762,243.9116516,-420.1613922,32.25,-15.89462185,28.96441841,-73.97135162,0,0
07:49.7,-0.19,0.038,-0.197,-1.9024901,0.588399,7.34518085,225000,-313000,-347000,98221.30737,32.01,5.32499981,243.9116516,-419.8866577,32.5,-15.89462185,28.96441841,-73.97135162,0,0
07:49.8,-0.176,0.031666667,-0.196666667,-1.918834517,0.653776667,7.515162783,228000,-310666.6667,-349333.3333,98226.11898,32.01,5.511666537,244.618927,-419.521759,32.83333333,-15.89462185,28.96441841,-73.97135162,0,0
07:49.8,-0.162,0.025333333,-0.196333333,-1.935178933,0.719154333,7.685144717,231000,-308333.3333,-351666.6667,98230.93058,32.01,5.698333264,245.3262024,-419.1568603,33.16666667,-15.89462185,28.96441841,-73.97135162,0,0
07:49.8,-0.148,0.019,-0.196,-1.95152335,0.784532,7.85512665,234000,-306000,-354000,98235.74219,32.01,5.884999991,246.0334778,-418.7919617,33.5,-15.89462185,28.96441841,-73.97135162,0,0
07:49.9,-0.142,0.0175,-0.19,-1.995653275,0.838468575,7.71783355,234000,-306000,-354000,98235.74219,32.01,6.170000076,248.155304,-418.2467346,34,-19.5451889,23.04145241,-68.65263367,0,0
07:49.9,-0.136,0.016,-0.184,-2.0397832,0.89240515,7.58054045,234000,-306000,-354000,98235.74219,32.01,6.759999752,248.155304,-417.1647339,35,-19.5451889,23.04145241,-68.65263367,0,0
07:50.0,-0.162666667,0.007666667,-0.177666667,-2.013632133,0.928362867,8.146057267,241333.3333,-296000,-356000,98240.20589,32.00666667,6.759999752,248.155304,-417.1647339,35,-19.5451889,23.04145241,-68.65263367,0,0
07:50.0,-0.189333333,-0.000666667,-0.171333333,-1.987481067,0.964320583,8.711574083,248666.6667,-286000,-358000,98244.6696,32.00333333,6.759999752,248.155304,-417.1647339,35,-19.5451889,23.04145241,-68.65263367,0,0
07:50.0,-0.216,-0.009,-0.165,-1.96133,1.0002783,9.2770909,256000,-276000,-360000,98249.1333,32,7.069999695,240.6096955,-416.627945,35.5,-19.5451889,23.04145241,-68.65263367,0,0
07:50.1,-0.2355,-0.015,-0.158,-2.0005566,0.799241975,9.610517,256000,-276000,-360000,98249.1333,32,7.379999638,233.0640869,-416.091156,36,-19.5451889,23.04145241,-68.65263367,0,0
07:50.1,-0.255,-0.021,-0.151,-2.0397832,0.59820565,9.9439431,256000,-276000,-360000,98249.1333,32,7.379999638,233.0640869,-416.091156,36,-19.5451889,23.04145241,-68.65263367,0,0
07:50.2,-0.27,-0.0025,-0.1575,-2.064299825,0.642335575,9.860586575,258000,-270500,-363000,98252.44446,32,8.010000229,233.0640869,-415.0089722,37,-19.5451889,23.04145241,-68.65263367,0,0
07:50.2,-0.285,0.016,-0.164,-2.08881645,0.6864655,9.77723005,260000,-265000,-366000,98255.75562,32,8.010000229,233.0640869,-415.0089722,37,-20.69890404,18.28868294,-65.49349976,0,0
07:50.2,-0.251,0.021,-0.161666667,-2.1182364,0.787800883,9.675894667,259333.3333,-260666.6667,-368666.6667,98258.8562,31.99666667,8.649999619,232.0086517,-413.9354248,39,-20.69890404,18.28868294,-65.49349976,0,0
07:50.3,-0.217,0.026,-0.159333333,-2.14765635,0.889136267,9.574559283,258666.6667,-256333.3333,-371333.3333,98261.95679,31.99333333,8.649999619,232.0086517,-413.9354248,39,-20.69890404,18.28868294,-65.49349976,0,0
07:50.3,-0.183,0.031,-0.157,-2.1770763,0.99047165,9.4732239,258000,-252000,-374000,98265.05737,31.99,8.649999619,232.0086517,-413.9354248,39,-20.69890404,18.28868294,-65.49349976,0,0
07:50.4,-0.174,0.025,-0.156666667,-2.170538533,1.046042667,9.50264385,259666.6667,-247666.6667,-376000,98268.24341,31.99,9.289999962,232.0086517,-412.8618469,40,-20.69890404,18.28868294,-65.49349976,0,0
07:50.4,-0.165,0.019,-0.156333333,-2.164000767,1.101613683,9.5320638,261333.3333,-243333.3333,-378000,98271.42944,31.99,9.452499867,227.0127334,-412.5913467,40.25,-20.69890404,18.28868294,-65.49349976,0,0
07:50.4,-0.156,0.013,-0.156,-2.157463,1.1571847,9.56148375,263000,-239000,-380000,98274.61548,31.99,9.614999771,222.0168152,-412.3208466,40.5,-20.69890404,18.28868294,-65.49349976,0,0
07:50.5,-0.166,0.01,-0.1625,-2.181979625,1.0395049,9.301607525,266000,-233000,-382000,98279.20533,31.99,9.777499676,217.0208969,-412.0503464,40.75,-20.69890404,18.28868294,-65.49349976,0,0
07:50.5,-0.176,0.007,-0.169,-2.20649625,0.9218251,9.0417313,269000,-227000,-384000,98283.79517,31.99,9.93999958,212.0249786,-411.7798462,41,-20.69890404,18.28868294,-65.49349976,0,0
07:50.6,-0.153666667,0.006666667,-0.167666667,-2.199958483,0.827027483,9.143066683,273666.6667,-218666.6667,-386333.3333,98288.20394,31.99,10.26999951,212.0249786,-411.2388306,41.5,-20.69890404,18.28868294,-65.49349976,0,0
07:50.6,-0.131333333,0.006333333,-0.166333333,-2.193420717,0.732229867,9.244402067,278333.3333,-210333.3333,-388666.6667,98292.61271,31.99,10.59999943,212.0249786,-410.6978149,42,-20.69890404,18.28868294,-65.49349976,0,0
07:50.6,-0.109,0.006,-0.165,-2.18688295,0.63743225,9.34573745,283000,-202000,-391000,98297.02148,31.99,11.25,194.8766785,-409.6411133,43,-22.07794189,12.71688843,-61.42525101,0,0
07:50.7,-0.095,0.0075,-0.1585,-2.181979625,0.36284605,9.3751574,283000,-202000,-391000,98300.94299,31.985,11.25,194.8766785,-409.6411133,43,-22.07794189,12.71688843,-61.42525101,0,0
07:50.7,-0.081,0.009,-0.152,-2.1770763,0.08825985,9.40457735,283000,-202000,-391000,98304.8645,31.98,11.25,194.8766785,-409.6411133,43,-22.07794189,12.71688843,-61.42525101,0,0
07:50.8,-0.055,0.0045,-0.136,-2.20649625,0.1569064,9.46341725,281500,-198000,-392500,98309.50928,31.98,11.92000008,194.8766785,-408.5506897,45,-22.07794189,12.71688843,-61.42525101,0,0
07:50.8,-0.029,-1.47E-17,-0.12,-2.2359162,0.22555295,9.52225715,280000,-194000,-394000,98314.15405,31.98,11.92000008,194.8766785,-408.5506897,45,-22.07794189,12.71688843,-61.42525101,0,0
07:50.8,-0.009333333,-0.011333333,-0.108666667,-2.252260617,0.317081683,9.50264385,280666.6667,-192333.3333,-395000,98314.15405,31.98,12.25500012,185.8243485,-408.0054474,45.5,-22.18751335,12.29342532,-60.87269497,0,0
07:50.9,0.010333333,-0.022666667,-0.097333333,-2.268605033,0.408610417,9.48303055,281333.3333,-190666.6667,-396000,98314.15405,31.98,12.59000015,176.7720184,-407.4602051,46,-22.29708481,11.86996222,-60.32013894,0,0
07:50.9,0.03,-0.034,-0.086,-2.28494945,0.50013915,9.46341725,282000,-189000,-397000,98314.15405,31.98,13.2699995,176.7720184,-406.3695374,47,-22.51622772,11.023036,-59.21502686,0,0
07:51.0,0.022,-0.038333333,-0.069333333,-2.278411683,0.4511059,9.36535075,281000,-187000,-398666.6667,98315.98714,31.97666667,13.2699995,176.7720184,-406.3695374,47,-22.51622772,11.023036,-59.21502686,0,0
07:51.0,0.014,-0.042666667,-0.052666667,-2.271873917,0.40207265,9.26728425,280000,-185000,-400333.3333,98317.82023,31.97333333,13.2699995,176.7720184,-406.3695374,47,-22.51622772,11.023036,-59.21502686,0,0
07:51.0,0.006,-0.047,-0.036,-2.26533615,0.3530394,9.16921775,279000,-183000,-402000,98319.65332,31.97,13.61499977,176.7368317,-405.8243256,47.5,-22.51622772,11.023036,-59.21502686,0,0
07:51.1,-0.004,-0.0525,-0.0155,-2.2359162,0.2157463,9.218251,277000,-184500,-402500,98324.22486,31.97,13.96000004,176.7016449,-405.2791138,48,-22.51622772,11.023036,-59.21502686,0,0
07:51.1,-0.014,-0.058,0.005,-2.20649625,0.0784532,9.26728425,275000,-186000,-403000,98328.79639,31.97,13.96000004,176.7016449,-405.2791138,48,-22.51622772,11.023036,-59.21502686,0,0
07:51.2,-0.032333333,-0.060666667,0.014666667,-2.222840667,0.22555295,9.4339973,276000,-183000,-404000,98334.30583,31.97,14.64999962,176.7016449,-404.1800842,50,-22.51622772,11.023036,-59.21502686,0,0
07:51.2,-0.050666667,-0.063333333,0.024333333,-2.239185083,0.3726527,9.60071035,277000,-180000,-405000,98339.81527,31.97,14.82499957,173.0614433,-403.9053574,50.25,-22.51622772,11.023036,-59.21502686,0,0
07:51.2,-0.069,-0.066,0.034,-2.2555295,0.51975245,9.7674234,278000,-177000,-406000,98345.32471,31.97,14.99999953,169.4212417,-403.6306305,50.5,-22.51622772,11.023036,-59.21502686,0,0
07:51.3,-0.1005,-0.066,0.029,-2.2163029,0.63743225,9.9439431,278000,-176000,-408500,98349.85657,31.965,15.34999943,165.7810402,-403.0811768,51,-21.95953369,10.71554709,-58.83423806,0,0
07:51.3,-0.132,-0.066,0.024,-2.1770763,0.75511205,10.1204628,278000,-175000,-411000,98354.38843,31.96,15.69999934,162.1408386,-402.5317231,51.5,-21.40283966,10.40805817,-58.45344925,0,0
07:51.4,-0.165,-0.062,0.017,-2.199958483,0.709347683,10.31332692,277333.3333,-172666.6667,-414000,98354.38843,31.96,15.81666597,162.1408386,-402.3485718,51.66666667,-21.40283966,10.40805817,-58.45344925,0,0
07:51.4,-0.198,-0.058,0.01,-2.222840667,0.663583317,10.50619103,276666.6667,-170333.3333,-417000,98354.38843,31.96,15.93333261,162.1408386,-402.1654206,51.83333333,-21.40283966,10.40805817,-58.45344925,0,0
07:51.4,-0.231,-0.054,0.003,-2.24572285,0.61781895,10.69905515,276000,-168000,-420000,98354.38843,31.96,16.04999924,162.1408386,-401.9822693,52,-21.40283966,10.40805817,-58.45344925,0,0
07:51.5,-0.226,-0.0515,-0.017,-2.20649625,0.6276256,10.93931808,268000,-168500,-423000,98358.78296,31.96,16.76000023,141.298584,-400.8748169,54,-21.40283966,10.40805817,-58.45344925,0,0
07:51.5,-0.221,-0.049,-0.037,-2.16726965,0.63743225,11.179581,260000,-169000,-426000,98363.17749,31.96,17.10499955,141.298584,-400.3169098,54.5,-21.40283966,10.40805817,-58.45344925,0,0
07:51.6,-0.210333333,-0.051,-0.043333333,-2.18688295,0.758380933,11.40840283,256666.6667,-159666.6667,-432666.6667,98368.34106,31.96,17.21999932,141.298584,-400.1309408,54.66666667,-21.11072922,9.356334053,-58.35648727,0,0
07:51.6,-0.199666667,-0.053,-0.049666667,-2.20649625,0.879329617,11.63722467,253333.3333,-150333.3333,-439333.3333,98373.50464,31.96,17.33499909,141.298584,-399.9449717,54.83333333,-20.81861877,8.304609935,-58.2595253,0,0
07:51.6,-0.189,-0.055,-0.056,-2.22610955,1.0002783,11.8660465,250000,-141000,-446000,98378.66821,31.96,17.44999886,141.298584,-399.7590027,55,-20.52650833,7.252885818,-58.16256332,0,0
07:51.7,-0.11,-0.01,-0.095,-2.353596,-0.08825985,10.8069283,250000,-141000,-446000,98378.66821,31.96,18.11999893,114.8575745,-398.6346436,56,-20.52650833,7.252885818,-58.16256332,0,0
07:51.7,-0.08525,-0.0145,-0.08925,-2.380564288,0.024516625,10.84125158,251750,-135750,-448000,98382.92389,31.9575,18.77999878,114.8575745,-397.4934387,58,-20.52650833,7.252885818,-58.16256332,0,0
07:51.8,-0.0605,-0.019,-0.0835,-2.407532575,0.1372931,10.87557485,253500,-130500,-450000,98387.17957,31.955,18.88833237,108.8765742,-397.3018087,58.16666667,-20.52650833,7.252885818,-58.16256332,0,0
07:51.8,-0.03575,-0.0235,-0.07775,-2.434500863,0.250069575,10.90989813,255250,-125250,-452000,98391.43524,31.9525,18.99666596,102.895574,-397.1101786,58.33333333,-20.52650833,7.252885818,-58.16256332,0,0
07:51.8,-0.011,-0.028,-0.072,-2.46146915,0.36284605,10.9442214,257000,-120000,-454000,98395.69092,31.95,19.10499955,96.91457369,-396.9185486,58.5,-20.52650833,7.252885818,-58.16256332,0,0
07:51.9,-0.018,-0.029,-0.083,-2.353596,0.65704555,8.77695175,254000,-115000,-456000,98395.69092,31.95,19.43000031,78.97157288,-396.3436584,59,-20.52650833,7.252885818,-58.16256332,0,0
07:51.9,0.017,-0.04075,-0.08225,-2.348692675,0.652142225,8.970633088,252250,-114250,-458250,98398.29712,31.95,19.43000031,78.97157288,-396.3436584,59,-20.52650833,7.252885818,-58.16256332,0,0
07:52.0,0.052,-0.0525,-0.0815,-2.34378935,0.6472389,9.164314425,250500,-113500,-460500,98400.90332,31.95,20.06999969,78.97157288,-395.1855469,61,-20.52650833,7.252885818,-58.16256332,0,0
07:52.0,0.087,-0.06425,-0.08075,-2.338886025,0.642335575,9.357995763,248750,-112750,-462750,98403.50952,31.95,20.06999969,78.97157288,-395.1855469,61,-20.52650833,7.252885818,-58.16256332,0,0
07:52.0,0.122,-0.076,-0.08,-2.3339827,0.63743225,9.5516771,247000,-112000,-465000,98406.11572,31.95,20.06999969,78.97157288,-395.1855469,61,-20.52650833,7.252885818,-58.16256332,0,0
07:52.1,0.086666667,-0.080333333,-0.075,-2.3732093,0.503408033,9.842607717,243000,-111000,-469333.3333,98411.94458,31.94666667,20.70999908,60.75258255,-394.0274353,62,-19.52427673,5.541291714,-55.80752945,0,0
07:52.1,0.051333333,-0.084666667,-0.07,-2.4124359,0.369383817,10.13353833,239000,-110000,-473666.6667,98417.77343,31.94333333,21.03499889,60.75258255,-393.4441529,62.5,-19.52427673,5.541291714,-55.80752945,0,0
07:52.2,0.016,-0.089,-0.065,-2.4516625,0.2353596,10.42446895,235000,-109000,-478000,98423.60229,31.94,21.3599987,60.75258255,-392.8608704,63,-19.52427673,5.541291714,-55.80752945,0,0
07:52.2,0.0305,-0.083,-0.06,-2.515405725,0.269682875,10.95893138,235500,-109500,-478000,98426.03149,31.94,21.3599987,60.75258255,-392.8608704,63,-19.52427673,5.541291714,-55.80752945,0,0
07:52.2,0.045,-0.077,-0.055,-2.57914895,0.30400615,11.4933938,236000,-110000,-478000,98428.46069,31.94,21.3599987,60.75258255,-392.8608704,63,-19.52427673,5.541291714,-55.80752945,0,0
07:52.3,0.0345,-0.081,-0.0605,-2.59876225,0.524655775,11.07661118,236000,-110000,-478000,98428.46069,31.94,22.01000023,60.79387665,-391.6943359,65,-19.52427673,5.541291714,-55.80752945,0,0
07:52.3,0.024,-0.085,-0.066,-2.61837555,0.7453054,10.65982855,236000,-110000,-478000,98428.46069,31.94,22.01000023,60.79387665,-391.6943359,65,-19.52427673,5.541291714,-55.80752945,0,0
07:52.4,0.056,-0.089333333,-0.063,-2.549729,0.523021333,10.90172592,236333.3333,-107333.3333,-480333.3333,98434.42789,31.94,22.32999993,60.79387665,-391.1153107,65.5,-19.52427673,5.541291714,-55.80752945,0,0
07:52.4,0.088,-0.093666667,-0.06,-2.48108245,0.300737267,11.14362328,236666.6667,-104666.6667,-482666.6667,98440.3951,31.94,22.64999962,60.79387665,-390.5362854,66,-19.52427673,5.541291714,-55.80752945,0,0
07:52.4,0.12,-0.098,-0.057,-2.4124359,0.0784532,11.38552065,237000,-102000,-485000,98446.3623,31.94,22.9649992,70.1581955,-389.9528961,67,-19.52427673,5.541291714,-55.80752945,0,0
07:52.5,0.18,-0.0975,-0.0355,-2.4712758,0.210842975,11.67481683,228000,-101500,-491000,98446.3623,31.94,23.12249899,74.84035492,-389.6612015,67.5,-18.34678078,6.34539938,-54.89522553,0,0
07:52.5,0.24,-0.097,-0.014,-2.5301157,0.34323275,11.964113,219000,-101000,-497000,98446.3623,31.94,23.27999878,79.52251434,-389.3695068,68,-17.16928482,7.149507046,-53.9829216,0,0
07:52.6,0.135,-0.0925,-0.017,-2.505599075,0.24516625,11.03248125,219500,-103000,-497500,98447.8363,31.935,23.88999939,79.52251434,-388.2028503,69,-17.16928482,7.149507046,-53.9829216,0,0
07:52.6,0.03,-0.088,-0.02,-2.48108245,0.14709975,10.1008495,220000,-105000,-498000,98449.3103,31.93,23.88999939,79.52251434,-388.2028503,69,-17.16928482,7.149507046,-53.9829216,0,0
07:52.6,0.003666667,-0.092666667,-0.016333333,-2.448393617,0.290930617,9.7674234,216000,-105666.6667,-499333.3333,98452.58382,31.93,24.18999958,74.12595749,-387.6238098,70,-17.16928482,7.149507046,-53.9829216,0,0
07:52.7,-0.022666667,-0.097333333,-0.012666667,-2.415704783,0.434761483,9.4339973,212000,-106333.3333,-500666.6667,98455.85734,31.93,24.48999977,68.72940063,-387.0447693,71,-17.16928482,7.149507046,-53.9829216,0,0
07:52.7,-0.049,-0.102,-0.009,-2.38301595,0.57859235,9.1005712,208000,-107000,-502000,98459.13086,31.93,24.48999977,68.72940063,-387.0447693,71,-17.16928482,7.149507046,-53.9829216,0,0
07:52.8,-0.048333333,-0.096666667,-0.005333333,-2.399360367,0.408610417,8.9436648,206000,-103666.6667,-505000,98461.81844,31.93,25.09000015,68.72940063,-385.8866882,72,-17.16928482,7.149507046,-53.9829216,0,0
07:52.8,-0.047666667,-0.091333333,-0.001666667,-2.415704783,0.238628483,8.7867584,204000,-100333.3333,-508000,98464.50602,31.93,25.09000015,68.72940063,-385.8866882,72,-17.16928482,7.149507046,-53.9829216,0,0
07:52.8,-0.047,-0.086,0.002,-2.4320492,0.06864655,8.629852,202000,-97000,-511000,98467.1936,31.93,25.09000015,68.72940063,-385.8866882,72,-17.16928482,7.149507046,-53.9829216,0,0
07:52.9,-0.0095,-0.112,0.015,-2.3143694,0.3138128,10.20872265,204000,-93000,-512500,98469.9707,31.93,25.69999886,64.62487793,-384.7453918,74,-15.57504082,7.52156496,-53.56533432,0,0
07:52.9,0.028,-0.138,0.028,-2.1966896,0.55897905,11.7875933,206000,-89000,-514000,98472.7478,31.93,25.69999886,64.62487793,-384.7453918,74,-15.57504082,7.52156496,-53.56533432,0,0
07:53.0,-0.014666667,-0.116333333,0.019666667,-2.190151833,0.506676917,12.0229529,200333.3333,-89000,-519000,98477.58992,31.92666667,26.29999924,64.62487793,-383.6042175,75,-15.57504082,7.52156496,-53.56533432,0,0
07:53.0,-0.057333333,-0.094666667,0.011333333,-2.183614067,0.454374783,12.2583125,194666.6667,-89000,-524000,98482.43205,31.92333333,26.59499932,67.67744827,-383.0336151,76,-15.57504082,7.52156496,-53.56533432,0,0
07:53.0,-0.1,-0.073,0.003,-2.1770763,0.40207265,12.4936721,189000,-89000,-529000,98487.27417,31.92,26.88999939,70.73001862,-382.4630127,77,-15.57504082,7.52156496,-53.56533432,0,0
07:53.1,-0.127,-0.0835,0.0065,-2.231012875,0.661948875,12.27302248,189000,-89000,-529000,98487.27417,31.92,27.0274992,70.73001862,-382.1798325,77.25,-15.57504082,7.52156496,-53.56533432,0,0
07:53.1,-0.154,-0.094,0.01,-2.28494945,0.9218251,12.05237285,189000,-89000,-529000,98487.27417,31.92,27.16499901,70.73001862,-381.8966522,77.5,-15.57504082,7.52156496,-53.56533432,0,0
07:53.2,-0.142666667,-0.080666667,0.000333333,-2.2359162,0.889136267,11.63395578,186333.3333,-85666.66667,-534333.3333,98488.73088,31.92,27.43999863,70.73001862,-381.3302917,78,-15.57504082,7.52156496,-53.56533432,0,0
07:53.2,-0.131333333,-0.067333333,-0.009333333,-2.18688295,0.856447433,11.21553872,183666.6667,-82333.33333,-539666.6667,98490.18758,31.92,27.70999909,62.75105477,-380.7639313,78.5,-14.47426987,7.266424656,-53.49344445,0,0
07:53.2,-0.12,-0.054,-0.019,-2.1378497,0.8237586,10.79712165,181000,-79000,-545000,98491.64429,31.92,27.97999954,54.77209091,-380.1975708,79,-13.37349892,7.011284351,-53.42155457,0,0
07:53.3,-0.022333333,-0.06,-0.027,-2.105160867,0.6668522,11.95757523,176000,-73666.66667,-551000,98496.48031,31.91666667,27.97999954,54.77209091,-380.1975708,79,-13.37349892,7.011284351,-53.42155457,0,0
07:53.3,0.075333333,-0.066,-0.035,-2.072472033,0.5099458,13.11802882,171000,-68333.33333,-557000,98501.31632,31.91333333,27.97999954,54.77209091,-380.1975708,79,-13.37349892,7.011284351,-53.42155457,0,0
07:53.4,0.173,-0.072,-0.043,-2.0397832,0.3530394,14.2784824,166000,-63000,-563000,98506.15234,31.91,28.5,54.77209091,-379.0731812,81,-13.37349892,7.011284351,-53.42155457,0,0
07:53.4,0.255,-0.062,-0.016,-2.0397832,0.22555295,14.7492016,166000,-63000,-563000,98506.15234,31.91,28.5,54.77209091,-379.0731812,81,-13.37349892,7.011284351,-53.42155457,0,0
07:53.4,0.180333333,-0.060666667,0.003,-2.036514317,0.287661733,14.09869382,165000,-64666.66667,-561666.6667,98508.73006,31.91,29,44.99349594,-377.9404297,82,-13.37349892,7.011284351,-53.42155457,0,0
07:53.5,0.105666667,-0.059333333,0.022,-2.033245433,0.349770517,13.44818603,164000,-66333.33333,-560333.3333,98511.30778,31.91,29,44.99349594,-377.9404297,82,-13.37349892,7.011284351,-53.42155457,0,0
07:53.5,0.031,-0.058,0.041,-2.02997655,0.4118793,12.79767825,163000,-68000,-559000,98513.8855,31.91,29.44999886,44.99349594,-376.81604,84,-13.37349892,7.011284351,-53.42155457,0,0
07:53.6,0.1805,-0.0735,0.066,-2.02997655,0.603108975,13.7881499,158500,-79000,-557500,98517.1875,31.91,29.44999886,44.99349594,-376.81604,84,-12.81589079,7.886010885,-53.24829102,0,0
07:53.6,0.33,-0.089,0.091,-2.02997655,0.79433865,14.77862155,154000,-90000,-556000,98520.4895,31.91,29.44999886,44.99349594,-376.81604,84,-12.25828266,8.760737419,-53.07502747,0,0
07:53.6,0.211666667,-0.079333333,0.098333333,-1.9024901,1.04931155,14.31117123,154000,-90000,-556000,98520.4895,31.91,29.86999893,40.43369293,-375.7002258,85,-12.25828266,8.760737419,-53.07502747,0,0
07:53.7,0.093333333,-0.069666667,0.105666667,-1.77500365,1.30428445,13.84372092,154000,-90000,-556000,98520.4895,31.91,29.86999893,40.43369293,-375.7002258,85,-12.25828266,8.760737419,-53.07502747,0,0
07:53.7,-0.025,-0.06,0.113,-1.6475172,1.55925735,13.3762706,154000,-90000,-556000,98520.4895,31.91,30.23999977,40.43369293,-374.5842285,87,-12.25828266,8.760737419,-53.07502747,0,0
07:53.8,-0.112666667,-0.007333333,0.073,-1.77500365,1.640979433,12.0621795,154666.6667,-94333.33333,-556333.3333,98525.92977,31.90666667,30.23999977,40.43369293,-374.5842285,87,-12.25828266,8.760737419,-53.07502747,0,0
07:53.8,-0.200333333,0.045333333,0.033,-1.9024901,1.722701517,10.7480884,155333.3333,-98666.66667,-556666.6667,98531.37003,31.90333333,30.23999977,40.43369293,-374.5842285,87,-12.25828266,8.760737419,-53.07502747,0,0
07:53.8,-0.288,0.098,-0.007,-2.02997655,1.8044236,9.4339973,156000,-103000,-557000,98536.8103,31.9,30.59000015,34.2877388,-373.4683838,88,-12.25828266,8.760737419,-53.07502747,0,0
07:53.9,-0.4555,0.0985,-0.0515,-1.97113665,1.642613875,8.673981925,152500,-103000,-554500,98536.8103,31.9,30.59000015,34.2877388,-373.4683838,88,-12.22044849,8.615250587,-53.99513626,0,0
07:53.9,-0.623,0.099,-0.096,-1.91229675,1.48080415,7.91396655,149000,-103000,-552000,98536.8103,31.9,30.93999863,34.2877388,-372.3610535,90,-12.22044849,8.615250587,-53.99513626,0,0
07:54.0,-0.568,0.1,-0.1455,-1.976039975,1.220927925,7.958096475,156000,-95000,-549000,98536.56922,31.9,30.93999863,34.2877388,-372.3610535,90,-12.22044849,8.615250587,-53.99513626,0,0
07:54.0,-0.513,0.101,-0.195,-2.0397832,0.9610517,8.0022264,163000,-87000,-546000,98536.32813,31.9,31.12999916,31.1328888,-371.8031159,90.5,-12.22044849,8.615250587,-53.99513626,0,0
07:54.0,-0.397333333,0.081,-0.19,-2.092085333,0.947976167,8.113368433,162333.3333,-79666.66667,-549000,98537.69532,31.89666667,31.31999969,27.97803879,-371.2451782,91,-12.22044849,8.615250587,-53.99513626,0,0
07:54.1,-0.281666667,0.061,-0.185,-2.144387467,0.934900633,8.224510467,161666.6667,-72333.33333,-552000,98539.0625,31.89333333,31.31999969,27.97803879,-371.2451782,91,-12.22044849,8.615250587,-53.99513626,0,0
07:54.1,-0.166,0.041,-0.18,-2.1966896,0.9218251,8.3356525,161000,-65000,-555000,98540.42969,31.89,31.31999969,27.97803879,-371.2451782,91,-12.22044849,8.615250587,-53.99513626,0,0
07:54.2,-0.169333333,0.024,-0.166,-2.144387467,0.738767633,8.8848249,167666.6667,-56000,-551666.6667,98542.09595,31.89,31.71999931,27.97803879,-370.1293335,93,-12.22044849,8.615250587,-53.99513626,0,0
07:54.2,-0.172666667,0.007,-0.152,-2.092085333,0.555710167,9.4339973,174333.3333,-47000,-548333.3333,98543.76221,31.89,31.71999931,27.97803879,-370.1293335,93,-12.22044849,8.615250587,-53.99513626,0,0
07:54.2,-0.176,-0.01,-0.138,-2.0397832,0.3726527,9.9831697,181000,-38000,-545000,98545.42847,31.89,31.92500019,32.54551888,-369.5671234,93.5,-12.22044849,8.615250587,-53.99513626,0,0
07:54.3,-0.246,-0.0195,-0.1165,-2.08881645,0.16671305,9.880199875,181000,-38000,-545000,98545.42847,31.89,32.13000107,37.11299896,-369.0049133,94,-12.22044849,8.615250587,-53.99513626,0,0
07:54.3,-0.316,-0.029,-0.095,-2.1378497,-0.0392266,9.77723005,181000,-38000,-545000,98545.42847,31.89,32.13000107,37.11299896,-369.0049133,94,-12.22044849,8.615250587,-53.99513626,0,0
07:54.4,-0.023,-0.0505,-0.05,-2.034879875,-0.181423025,9.988073025,187000,-28000,-547000,98546.78345,31.89,32.55999756,37.11299896,-367.8890991,96,-13.64932823,-0.092472494,-50.49515533,0,0
07:54.4,0.27,-0.072,-0.005,-1.93191005,-0.32361945,10.198916,193000,-18000,-549000,98548.13843,31.89,32.76499748,38.6007309,-367.3269653,96.5,-13.64932823,-0.092472494,-50.49515533,0,0
07:54.4,0.1765,-0.0785,0.0305,-1.966233325,-0.171616375,9.517353825,179500,-8500,-566500,98549.86573,31.89,32.96999741,40.08846283,-366.7648315,97,-13.64932823,-0.092472494,-50.49515533,0,0
07:54.5,0.083,-0.085,0.066,-2.0005566,-0.0196133,8.83579165,166000,1000,-584000,98551.59302,31.89,32.96999741,40.08846283,-366.7648315,97,-13.64932823,-0.092472494,-50.49515533,0,0
07:54.5,0.063,-0.103666667,0.073333333,-1.8828768,0.14709975,9.195368817,144666.6667,20333.33333,-613000,98555.37923,31.88666667,32.96999741,40.08846283,-366.7648315,97,-13.64932823,-0.092472494,-50.49515533,0,0
07:54.6,0.043,-0.122333333,0.080666667,-1.765197,0.3138128,9.554945983,123333.3333,39666.66667,-642000,98559.16545,31.88333333,33.38999939,40.08846283,-365.6404419,99,-13.64932823,-0.092472494,-50.49515533,0,0
07:54.6,0.023,-0.141,0.088,-1.6475172,0.48052585,9.91452315,102000,59000,-671000,98562.95166,31.88,33.38999939,40.08846283,-365.6404419,99,-13.64932823,-0.092472494,-50.49515533,0,0
07:54.6,0.0565,-0.15575,0.08575,-1.615645588,0.436395925,10.2185293,93500,64250,-684250,98564.44244,31.88,33.81999969,36.02685928,-364.5161438,100,-13.64932823,-0.092472494,-50.49515533,0,0
07:54.7,0.09,-0.1705,0.0835,-1.583773975,0.392266,10.52253545,85000,69500,-697500,98565.93323,31.88,33.95999908,36.02685928,-364.1413676,100.6666667,-12.93479411,0.526997804,-50.75122197,0,0
07:54.7,0.1235,-0.18525,0.08125,-1.551902363,0.348136075,10.8265416,76500,74750,-710750,98567.42401,31.88,34.09999847,36.02685928,-363.7665914,101.3333333,-12.22025998,1.146468103,-51.00728862,0,0
07:54.8,0.157,-0.2,0.079,-1.52003075,0.30400615,11.13054775,68000,80000,-724000,98568.91479,31.88,34.23999786,36.02685928,-363.3918152,102,-11.50572586,1.765938401,-51.26335526,0,0
07:54.8,0.132,-0.229,0.081,-1.1571847,0.196133,12.3759923,68000,80000,-724000,98568.91479,31.88,34.23999786,36.02685928,-363.3918152,102,-11.50572586,1.765938401,-51.26335526,0,0
07:54.8,0.08575,-0.23125,0.09475,-1.144926388,0.242714588,12.66774014,44500,98750,-759250,98572.36175,31.8775,34.44499779,38.22584152,-362.8381195,102.5,-11.50572586,1.765938401,-51.26335526,0,0
07:54.9,0.0395,-0.2335,0.1085,-1.132668075,0.289296175,12.95948798,21000,117500,-794500,98575.80872,31.875,34.64999771,40.42482376,-362.2844238,103,-11.50572586,1.765938401,-51.26335526,0,0
07:54.9,-0.00675,-0.23575,0.12225,-1.120409763,0.335877763,13.25123581,-2500,136250,-829750,98579.25568,31.8725,34.84499931,40.42482376,-361.7137299,104,-11.50572586,1.765938401,-51.26335526,0,0
07:55.0,-0.053,-0.238,0.136,-1.10815145,0.38245935,13.54298365,-26000,155000,-865000,98582.70264,31.87,35.04000092,40.42482376,-361.1430359,105,-11.50572586,1.765938401,-51.26335526,0,0
07:55.0,-0.109,-0.259,0.178,-0.9218251,0.5295591,13.6508568,-26000,155000,-865000,98582.70264,31.87,35.04000092,40.42482376,-361.1430359,105,-11.50572586,1.765938401,-51.26335526,0,0
07:55.0,-0.089,-0.257333333,0.170333333,-0.856447433,0.621087833,13.95159407,-51666.66667,177000,-893000,98584.49097,31.87,35.38000107,29.29191589,-360.0272217,107,-11.50572586,1.765938401,-51.26335526,0,0
07:55.1,-0.069,-0.255666667,0.162666667,-0.791069767,0.712616567,14.25233133,-77333.33333,199000,-921000,98586.2793,31.87,35.38000107,29.29191589,-360.0272217,107,-8.800934792,2.2618348,-52.52626038,0,0
07:55.1,-0.049,-0.254,0.155,-0.7256921,0.8041453,14.5530686,-103000,221000,-949000,98588.06763,31.87,35.38000107,29.29191589,-360.0272217,107,-6.096143723,2.757731199,-53.7891655,0,0
07:55.2,-0.096333333,-0.258666667,0.141666667,-0.536096867,0.836834133,14.5726819,-139000,259666.6667,-1103666.667,98590.54159,31.86666667,35.53499985,29.29191589,-359.4524079,107.5,-6.096143723,2.757731199,-53.7891655,0,0
07:55.2,-0.143666667,-0.263333333,0.128333333,-0.346501633,0.869522967,14.5922952,-175000,298333.3333,-1258333.333,98593.01554,31.86333333,35.68999863,29.29191589,-358.877594,108,-6.096143723,2.757731199,-53.7891655,0,0
07:55.2,-0.191,-0.268,0.115,-0.1569064,0.9022118,14.6119085,-211000,337000,-1413000,98595.4895,31.86,35.81499863,21.22569084,-358.3112335,109,-6.096143723,2.757731199,-53.7891655,0,0
07:55.3,-0.201,-0.256,0.1035,-0.18632635,1.152281375,14.75900825,-211000,337000,-1413000,98595.4895,31.86,35.93999863,13.15946579,-357.744873,110,-6.096143723,2.757731199,-53.7891655,0,0
07:55.3,-0.211,-0.244,0.092,-0.2157463,1.40235095,14.906108,-211000,337000,-1413000,98595.4895,31.86,35.93999863,13.15946579,-357.744873,110,-6.096143723,2.757731199,-53.7891655,0,0
07:55.4,-0.1805,-0.2355,0.058,-0.196133,1.309187775,14.87178473,-238000,351000,-1124500,98599.1211,31.86,36.15999985,13.15946579,-356.586792,111,-6.096143723,2.757731199,-53.7891655,0,0
07:55.4,-0.15,-0.227,0.024,-0.1765197,1.2160246,14.83746145,-265000,365000,-836000,98602.75269,31.86,36.15999985,13.15946579,-356.586792,111,-6.096143723,2.757731199,-53.7891655,0,0
07:55.4,-0.08975,-0.22375,0.006,-0.122583125,1.110603113,14.69281336,-269500,378250,-969250,98603.80555,31.86,36.21333313,9.927622477,-356.2007243,111.6666667,-4.450164001,1.868510105,-54.37711716,0,0
07:55.5,-0.0295,-0.2205,-0.012,-0.06864655,1.005181625,14.54816528,-274000,391500,-1102500,98604.8584,31.86,36.26666641,6.695779165,-355.8146566,112.3333333,-2.804184278,0.97928901,-54.96506882,0,0
07:55.5,0.03075,-0.21725,-0.03,-0.014709975,0.899760138,14.40351719,-278500,404750,-1235750,98605.91126,31.86,36.31999969,3.463935852,-355.4285889,113,-1.158204556,0.090067916,-55.55302048,0,0
07:55.6,0.091,-0.214,-0.048,0.0392266,0.79433865,14.2588691,-283000,418000,-1369000,98606.96411,31.86,36.43999863,3.463935852,-354.2620544,114,-1.158204556,0.090067916,-55.55302048,0,0
07:55.6,0.108,-0.213,-0.048,0.16671305,0.89240515,14.709975,-283000,418000,-1369000,98606.96411,31.86,36.43999863,3.463935852,-354.2620544,114,-1.158204556,0.090067916,-55.55302048,0,0
07:55.6,0.122666667,-0.213,-0.042666667,0.22555295,0.840103017,14.75247048,-298666.6667,436333.3333,-1434666.667,98608.02409,31.86,36.48499871,2.169036865,-353.6787872,115,-1.158204556,0.090067916,-55.55302048,0,0
07:55.7,0.137333333,-0.213,-0.037333333,0.28439285,0.787800883,14.79496597,-314333.3333,454666.6667,-1500333.333,98609.08406,31.86,36.52999878,0.874137878,-353.09552,116,-1.158204556,0.090067916,-55.55302048,0,0
07:55.7,0.152,-0.213,-0.032,0.34323275,0.73549875,14.83746145,-330000,473000,-1566000,98610.14404,31.86,36.52999878,0.874137878,-353.09552,116,-1.158204556,0.090067916,-55.55302048,0,0
07:55.8,0.1625,-0.208,-0.037,0.377556025,0.534462425,14.7688149,-346000,476000,-1560500,98608.75549,31.855,36.54999924,0.874137878,-352.5079193,116.5,-1.158204556,0.090067916,-55.55302048,0,0
07:55.8,0.173,-0.203,-0.042,0.4118793,0.3334261,14.70016835,-362000,479000,-1555000,98607.36694,31.85,36.56999969,0.874137878,-351.9203186,117,-1.158204556,0.090067916,-55.55302048,0,0
07:55.8,0.198,-0.198666667,-0.037,0.4118793,0.385728233,14.83419257,-369000,490000,-1658333.333,98610.62215,31.85,36.56999969,0.846529007,-351.3328247,118,-1.158204556,0.090067916,-55.55302048,0,0
07:55.9,0.223,-0.194333333,-0.032,0.4118793,0.438030367,14.96821678,-376000,501000,-1761666.667,98613.87736,31.85,36.56999969,0.818920135,-350.7453308,119,-1.158204556,0.090067916,-55.55302048,0,0
07:55.9,0.248,-0.19,-0.027,0.4118793,0.4903325,15.102241,-383000,512000,-1865000,98617.13257,31.85,36.56999969,0.818920135,-350.7453308,119,-1.158204556,0.090067916,-55.55302048,0,0
07:56.0,0.161,-0.1865,-0.016,0.377556025,0.289296175,15.05811108,-387000,494000,-1793000,98620.23621,31.85,36.52000046,0.818920135,-349.5787964,120,4.776523113,3.805330515,-54.3935585,0,0
07:56.0,0.074,-0.183,-0.005,0.34323275,0.08825985,15.01398115,-391000,476000,-1721000,98623.33984,31.85,36.52000046,0.818920135,-349.5787964,120,4.776523113,3.805330515,-54.3935585,0,0
07:56.0,0.146333333,-0.179333333,0.01,0.379190467,0.1569064,15.21338303,-408666.6667,473000,-1461000,98619.31356,31.85,36.49000041,6.0049057,-349.1955872,120.6666667,4.776523113,3.805330515,-54.3935585,0,0
07:56.1,0.218666667,-0.175666667,0.025,0.415148183,0.22555295,15.41278492,-426333.3333,470000,-1201000,98615.28727,31.85,36.46000036,11.19089127,-348.8123779,121.3333333,4.776523113,3.805330515,-54.3935585,0,0
07:56.1,0.291,-0.172,0.04,0.4511059,0.2941995,15.6121868,-444000,467000,-941000,98611.26099,31.85,36.43000031,16.37687683,-348.4291687,122,4.776523113,3.805330515,-54.3935585,0,0
07:56.2,0.173,-0.160666667,0.061,0.473988083,0.379190467,15.10877877,-447000,450333.3333,-716000,98613.79802,31.84666667,36.29000092,16.37687683,-347.2963562,124,4.776523113,3.805330515,-54.3935585,0,0
07:56.2,0.055,-0.149333333,0.082,0.496870267,0.464181433,14.60537073,-450000,433666.6667,-491000,98616.33504,31.84333333,36.29000092,16.37687683,-347.2963562,124,4.776523113,3.805330515,-54.3935585,0,0
07:56.2,-0.063,-0.138,0.103,0.51975245,0.5491724,14.1019627,-453000,417000,-266000,98618.87207,31.84,36.29000092,16.37687683,-347.2963562,124,4.776523113,3.805330515,-54.3935585,0,0
07:56.3,-0.095,-0.1205,0.0925,0.4903325,0.603108975,13.2782041,-447500,435500,-733500,98616.69312,31.84,36.11999893,41.51592255,-346.180542,125,4.776523113,3.805330515,-54.3935585,0,0
07:56.3,-0.127,-0.103,0.082,0.46091255,0.65704555,12.4544455,-442000,454000,-1201000,98614.51416,31.84,36.11999893,41.51592255,-346.180542,125,4.776523113,3.805330515,-54.3935585,0,0
07:56.4,-0.087,-0.0835,0.068,0.475622525,0.63743225,11.95430635,-441500,451500,-1078500,98614.51416,31.84,35.89999771,41.51592255,-345.0900879,126,4.776523113,3.805330515,-54.3935585,0,0
07:56.4,-0.047,-0.064,0.054,0.4903325,0.61781895,11.4541672,-441000,449000,-956000,98614.51416,31.84,35.89999771,41.51592255,-345.0900879,126,8.313342094,5.014010906,-55.49629974,0,0
07:56.4,-0.1075,-0.0585,0.0475,0.465815875,0.661948875,11.28255083,-452500,468000,-1402000,98609.22852,31.84,35.66999817,74.00131226,-344.0163269,128,8.313342094,5.014010906,-55.49629974,0,0
07:56.5,-0.168,-0.053,0.041,0.44129925,0.7060788,11.11093445,-464000,487000,-1848000,98603.94287,31.84,35.66999817,74.00131226,-344.0163269,128,8.313342094,5.014010906,-55.49629974,0,0
07:56.5,-0.16575,-0.0405,0.0285,0.399620987,0.740402075,10.85105823,-451750,474000,-1712500,98601.37482,31.8375,35.54499817,74.00131226,-343.4880066,128.5,8.313342094,5.014010906,-55.49629974,0,0
07:56.6,-0.1635,-0.028,0.016,0.357942725,0.77472535,10.591182,-439500,461000,-1577000,98598.80676,31.835,35.41999817,74.00131226,-342.9596863,129,8.313342094,5.014010906,-55.49629974,0,0
07:56.6,-0.16125,-0.0155,0.0035,0.316264463,0.809048625,10.33130578,-427250,448000,-1441500,98596.23871,31.8325,35.41999817,74.00131226,-342.9596863,129,8.313342094,5.014010906,-55.49629974,0,0
07:56.6,-0.159,-0.003,-0.009,0.2745862,0.8433719,10.07142955,-415000,435000,-1306000,98593.67065,31.83,35.29999924,90.56296538,-342.4355469,130,8.313342094,5.014010906,-55.49629974,0,0
07:56.7,-0.1125,0,-0.019,0.210842975,0.867888525,10.04691293,-415000,435000,-1306000,98593.67065,31.83,35.18000031,107.1246185,-341.9114075,131,8.313342094,5.014010906,-55.49629974,0,0
07:56.7,-0.066,0.003,-0.029,0.14709975,0.89240515,10.0223963,-415000,435000,-1306000,98593.67065,31.83,35.05500031,107.1246185,-341.3915558,131.5,8.576028824,3.813693881,-55.66690064,0,0
07:56.8,-0.037333333,0.006666667,-0.033666667,0.2157463,0.777994233,10.1793027,-409000,425333.3333,-1292000,98590.87524,31.83,34.93000031,107.1246185,-340.8717041,132,8.838715553,2.613376856,-55.83750153,0,0
07:56.8,-0.008666667,0.010333333,-0.038333333,0.28439285,0.663583317,10.3362091,-403000,415666.6667,-1278000,98588.07983,31.83,34.93000031,107.1246185,-340.8717041,132,8.838715553,2.613376856,-55.83750153,0,0
07:56.8,0.02,0.014,-0.043,0.3530394,0.5491724,10.4931155,-397000,406000,-1264000,98585.28442,31.83,34.68999863,133.0572205,-339.8487854,134,8.838715553,2.613376856,-55.83750153,0,0
07:56.9,0.022,0.026,-0.036,0.377556025,0.48052585,10.31169248,-390500,408500,-1333500,98585.28442,31.83,34.68999863,133.0572205,-339.8487854,134,8.838715553,2.613376856,-55.83750153,0,0
07:56.9,0.024,0.038,-0.029,0.40207265,0.4118793,10.13026945,-384000,411000,-1403000,98585.28442,31.83,34.43999863,133.0572205,-338.8344116,135,8.838715553,2.613376856,-55.83750153,0,0
07:57.0,0.0365,0.045,-0.017,0.34323275,0.495235825,9.93413645,-381000,403500,-1311500,98583.13294,31.825,34.43999863,133.0572205,-338.8344116,135,8.838715553,2.613376856,-55.83750153,0,0
07:57.0,0.049,0.052,-0.005,0.28439285,0.57859235,9.73800345,-378000,396000,-1220000,98580.98145,31.82,34.43999863,133.0572205,-338.8344116,135,8.838715553,2.613376856,-55.83750153,0,0
07:57.0,0.020333333,0.044666667,-0.001666667,0.3334261,0.467450317,9.862221017,-379333.3333,399333.3333,-1233000,98577.92766,31.82,34.30999947,150.2417603,-338.3314209,135.5,8.533932686,2.789805889,-55.51986123,0,0
07:57.1,-0.008333333,0.037333333,0.001666667,0.38245935,0.356308283,9.986438583,-380666.6667,402666.6667,-1246000,98574.87386,31.82,34.18000031,167.4263,-337.8284302,136,8.229149818,2.966234922,-55.20222092,0,0
07:57.1,-0.037,0.03,0.005,0.4314926,0.24516625,10.11065615,-382000,406000,-1259000,98571.82007,31.82,34.05500031,167.4263,-337.32547,137,8.229149818,2.966234922,-55.20222092,0,0
07:57.2,-0.021,0.033333333,0.01,0.418417067,0.192864117,10.05508513,-371333.3333,399000,-1290000,98567.11629,31.82,33.96999995,171.2453511,-336.992981,137.5,8.229149818,2.966234922,-55.20222092,0,0
07:57.2,-0.005,0.036666667,0.015,0.405341533,0.140561983,9.999514117,-360666.6667,392000,-1321000,98562.41252,31.82,33.8849996,175.0644022,-336.660492,138,8.229149818,2.966234922,-55.20222092,0,0
07:57.2,0.011,0.04,0.02,0.392266,0.08825985,9.9439431,-350000,385000,-1352000,98557.70874,31.82,33.79999924,178.8834534,-336.328003,138.5,8.229149818,2.966234922,-55.20222092,0,0
07:57.3,0.0015,0.047,0.046,0.269682875,0.269682875,9.52225715,-328500,356500,-1259000,98558.95386,31.815,33.66999817,190.3406067,-335.8334961,139,8.229149818,2.966234922,-55.20222092,0,0
07:57.3,-0.008,0.054,0.072,0.14709975,0.4511059,9.1005712,-307000,328000,-1166000,98560.19897,31.81,33.53999901,190.3406067,-335.3431092,139.5,8.229149818,2.966234922,-55.20222092,0,0
07:57.4,-0.1915,0.0435,0.073,0.18632635,0.34323275,9.09076455,-307000,328000,-1166000,98560.19897,31.81,33.40999985,190.3406067,-334.8527222,140,8.229149818,2.966234922,-55.20222092,0,0
07:57.4,-0.375,0.033,0.074,0.22555295,0.2353596,9.0809579,-307000,328000,-1166000,98560.19897,31.81,33.40999985,190.3406067,-334.8527222,140,7.336523056,2.163952351,-55.86619186,0,0
07:57.4,-0.4205,0.0345,0.085,0.406975975,0.142196425,8.723015175,-317000,349000,-1167500,98556.86646,31.81,33.15999985,209.4911499,-333.8806152,142,7.336523056,2.163952351,-55.86619186,0,0
07:57.5,-0.466,0.036,0.096,0.588399,0.04903325,8.36507245,-327000,370000,-1169000,98553.53394,31.81,33.15999985,209.4911499,-333.8806152,142,7.336523056,2.163952351,-55.86619186,0,0
07:57.5,-0.28,0.063333333,0.096666667,0.6080123,0.199401883,6.838503933,-335666.6667,371666.6667,-1183333.333,98551.23902,31.81,33.03499985,209.4911499,-333.3988037,142.5,7.336523056,2.163952351,-55.86619186,0,0
07:57.6,-0.094,0.090666667,0.097333333,0.6276256,0.349770517,5.311935417,-344333.3333,373333.3333,-1197666.667,98548.94409,31.81,32.90999985,209.4911499,-332.9169922,143,7.336523056,2.163952351,-55.86619186,0,0
07:57.6,0.092,0.118,0.098,0.6472389,0.50013915,3.7853669,-353000,375000,-1212000,98546.64917,31.81,32.90999985,209.4911499,-332.9169922,143,7.336523056,2.163952351,-55.86619186,0,0
07:57.6,0.137333333,0.107666667,0.084,0.611281183,0.555710167,4.955627133,-346333.3333,384333.3333,-1216666.667,98547.06828,31.81,32.68000031,232.5246887,-331.9533081,144,7.336523056,2.163952351,-55.86619186,0,0
07:57.7,0.182666667,0.097333333,0.07,0.575323467,0.611281183,6.125887367,-339666.6667,393666.6667,-1221333.333,98547.48738,31.81,32.68000031,232.5246887,-331.9533081,144,7.336523056,2.163952351,-55.86619186,0,0
07:57.7,0.228,0.087,0.056,0.53936575,0.6668522,7.2961476,-333000,403000,-1226000,98547.90649,31.81,32.5,232.5246887,-330.9812012,146,7.336523056,2.163952351,-55.86619186,0,0
07:57.8,0.26525,0.092,0.04875,0.57859235,0.664400537,7.379504125,-335750,403500,-1219250,98546.08307,31.8075,32.5,232.5246887,-330.9812012,146,7.336523056,2.163952351,-55.86619186,0,0
07:57.8,0.3025,0.097,0.0415,0.61781895,0.661948875,7.46286065,-338500,404000,-1212500,98544.25964,31.805,32.5,232.5246887,-330.9812012,146,7.336523056,2.163952351,-55.86619186,0,0
07:57.8,0.33975,0.102,0.03425,0.65704555,0.659497213,7.546217175,-341250,404500,-1205750,98542.43622,31.8025,32.44999949,231.1993968,-330.6542765,146.3333333,6.637985388,2.082100272,-56.46110407,0,0
07:57.9,0.377,0.107,0.027,0.69627215,0.65704555,7.6295737,-344000,405000,-1199000,98540.61279,31.8,32.39999898,229.8741048,-330.3273519,146.6666667,5.939447721,2.000248194,-57.05601629,0,0
07:57.9,0.2925,0.0995,0.021,0.534462425,0.79433865,8.18855275,-295500,343500,-1144500,98539.64234,31.8,32.34999847,228.5488129,-330.0004272,147,5.240910053,1.918396115,-57.6509285,0,0
07:58.0,0.208,0.092,0.015,0.3726527,0.93163175,8.7475318,-247000,282000,-1090000,98538.67188,31.8,32.21999741,228.5488129,-329.0283508,148,5.240910053,1.918396115,-57.6509285,0,0
07:58.0,0.091,0.071,-0.001,0.5099458,0.89240515,9.5320638,-247000,282000,-1090000,98538.67188,31.8,32.21999741,228.5488129,-329.0283508,148,5.240910053,1.918396115,-57.6509285,0,0
07:58.0,0.014666667,0.075,-0.005,0.46091255,0.859716317,9.744541217,-259333.3333,291333.3333,-1096000,98538.42977,31.8,32.11000061,232.0632935,-328.04776,150,5.240910053,1.918396115,-57.6509285,0,0
07:58.1,-0.061666667,0.079,-0.009,0.4118793,0.827027483,9.957018633,-271666.6667,300666.6667,-1102000,98538.18767,31.8,32.11000061,232.0632935,-328.04776,150,5.240910053,1.918396115,-57.6509285,0,0
07:58.1,-0.138,0.083,-0.013,0.36284605,0.79433865,10.16949605,-284000,310000,-1108000,98537.94556,31.8,32.05500031,232.0632935,-327.5574494,150.5,5.240910053,1.918396115,-57.6509285,0,0
07:58.2,-0.128,0.079,-0.0215,0.46091255,0.6276256,10.6892485,-283000,311000,-1194000,98535.18982,31.8,32,232.0632935,-327.0671387,151,5.240910053,1.918396115,-57.6509285,0,0
07:58.2,-0.118,0.075,-0.03,0.55897905,0.46091255,11.20900095,-282000,312000,-1280000,98532.43408,31.8,32,232.0632935,-327.0671387,151,5.240910053,1.918396115,-57.6509285,0,0
07:58.2,-0.134,0.081333333,-0.025333333,0.51975245,0.464181433,10.6107953,-280666.6667,314000,-1274333.333,98532.99764,31.79666667,31.87999916,243.4009552,-326.0865784,152,5.240910053,1.918396115,-57.6509285,0,0
07:58.3,-0.15,0.087666667,-0.020666667,0.48052585,0.467450317,10.01258965,-279333.3333,316000,-1268666.667,98533.5612,31.79333333,31.87999916,243.4009552,-326.0865784,152,5.240910053,1.918396115,-57.6509285,0,0
07:58.3,-0.166,0.094,-0.016,0.44129925,0.4707192,9.414384,-278000,318000,-1263000,98534.12476,31.79,31.8199997,243.4009552,-325.5962677,153,4.062535048,2.082004368,-57.5867424,0,0
07:58.4,-0.107,0.1125,-0.0095,0.485429175,0.3726527,8.237586,-273500,316000,-1187000,98529.30603,31.79,31.76000023,243.4009552,-325.105957,154,2.884160042,2.245612621,-57.5225563,0,0
07:58.4,-0.048,0.131,-0.003,0.5295591,0.2745862,7.060788,-269000,314000,-1111000,98524.4873,31.79,31.76000023,243.4009552,-325.105957,154,2.884160042,2.245612621,-57.5225563,0,0
07:58.4,-0.060333333,0.121333333,0.006666667,0.50013915,0.277855083,7.047712467,-265333.3333,318333.3333,-1115333.333,98524.4873,31.79,31.72333336,246.3011424,-324.7791036,154.3333333,2.884160042,2.245612621,-57.5225563,0,0
07:58.5,-0.072666667,0.111666667,0.016333333,0.4707192,0.281123967,7.034636933,-261666.6667,322666.6667,-1119666.667,98524.4873,31.79,31.68666649,249.2013295,-324.4522501,154.6666667,2.884160042,2.245612621,-57.5225563,0,0
07:58.5,-0.085,0.102,0.026,0.44129925,0.28439285,7.0215614,-258000,327000,-1124000,98524.4873,31.79,31.64999962,252.1015167,-324.1253967,155,2.884160042,2.245612621,-57.5225563,0,0
07:58.6,-0.053,0.0675,0.0385,0.51975245,0.152003075,7.163757825,-250000,309500,-1096000,98523.67249,31.785,31.54999924,252.1015167,-323.1447144,156,2.884160042,2.245612621,-57.5225563,0,0
07:58.6,-0.021,0.033,0.051,0.59820565,0.0196133,7.30595425,-242000,292000,-1068000,98522.85767,31.78,31.51999951,245.7158127,-322.6544495,157,2.884160042,2.245612621,-57.5225563,0,0
07:58.6,-0.012333333,0.028666667,0.052,0.601474533,0.035957717,7.48247395,-245666.6667,296666.6667,-1075333.333,98523.03264,31.78,31.48999977,239.3301086,-322.1641846,158,2.884160042,2.245612621,-57.5225563,0,0
07:58.7,-0.003666667,0.024333333,0.053,0.604743417,0.052302133,7.65899365,-249333.3333,301333.3333,-1082666.667,98523.2076,31.78,31.48999977,239.3301086,-322.1641846,158,2.884160042,2.245612621,-57.5225563,0,0
07:58.7,0.005,0.02,0.054,0.6080123,0.06864655,7.83551335,-253000,306000,-1090000,98523.38257,31.78,31.48999977,239.3301086,-322.1641846,158,0.955533087,1.141592026,-58.00249863,0,0
07:58.8,0.025333333,0.027333333,0.057666667,0.506676917,0.1569064,8.008764167,-249333.3333,312000,-1094666.667,98522.30428,31.78,31.43999863,239.3301086,-321.1751709,159,0.955533087,1.141592026,-58.00249863,0,0
07:58.8,0.045666667,0.034666667,0.061333333,0.405341533,0.24516625,8.182014983,-245666.6667,318000,-1099333.333,98521.226,31.78,31.43999863,239.3301086,-321.1751709,159,0.955533087,1.141592026,-58.00249863,0,0
07:58.8,0.066,0.042,0.065,0.30400615,0.3334261,8.3552658,-242000,324000,-1104000,98520.14771,31.78,31.43999863,239.3301086,-321.1751709,159,0.955533087,1.141592026,-58.00249863,0,0
07:58.9,0.081,0.028,0.066333333,0.336694983,0.356308283,8.54159215,-239666.6667,316000,-1099666.667,98519.88729,31.78,31.42000008,243.8087463,-320.1860657,160,0.955533087,1.141592026,-58.00249863,0,0
07:58.9,0.096,0.014,0.067666667,0.369383817,0.379190467,8.7279185,-237333.3333,308000,-1095333.333,98519.62688,31.78,31.41666667,243.8087463,-319.8563945,160.6666667,0.955533087,1.141592026,-58.00249863,0,0
07:59.0,0.111,8.45E-18,0.069,0.40207265,0.40207265,8.91424485,-235000,300000,-1091000,98519.36646,31.78,31.41333326,243.8087463,-319.5267232,161.3333333,0.955533087,1.141592026,-58.00249863,0,0
07:59.0,0.049,-0.0055,0.072,0.48052585,0.426589275,9.095667875,-235000,300000,-1091000,98522.31446,31.775,31.40999985,243.8087463,-319.197052,162,0.955533087,1.141592026,-58.00249863,0,0
07:59.0,-0.013,-0.011,0.075,0.55897905,0.4511059,9.2770909,-235000,300000,-1091000,98525.26245,31.77,31.40999985,243.8087463,-319.197052,162,0.955533087,1.141592026,-58.00249863,0,0
07:59.1,-0.0995,-0.0115,0.0665,0.588399,0.3726527,9.340834125,-233000,306000,-1096000,98525.26245,31.77,31.42000008,225.8605957,-318.2078857,163,0.586396635,2.586416721,-59.16835022,0,0
07:59.1,-0.186,-0.012,0.058,0.61781895,0.2941995,9.40457735,-231000,312000,-1101000,98525.26245,31.77,31.42000008,225.8605957,-318.2078857,163,0.586396635,2.586416721,-59.16835022,0,0
07:59.2,-0.101,0.0005,0.0565,0.63743225,0.34323275,9.218251,-253500,332000,-1196500,98523.37952,31.77,31.4299984,225.8605957,-317.2104187,164,0.586396635,2.586416721,-59.16835022,0,0
07:59.2,-0.016,0.013,0.055,0.65704555,0.392266,9.03192465,-276000,352000,-1292000,98521.49658,31.77,31.4299984,225.8605957,-317.2104187,164,0.586396635,2.586416721,-59.16835022,0,0
07:59.2,0.032333333,0.016,0.046,0.5687857,0.516483567,8.858673833,-275000,345000,-1237333.333,98521.81193,31.77,31.44999886,233.7778015,-316.2129517,166,0.586396635,2.586416721,-59.16835022,0,0
07:59.3,0.080666667,0.019,0.037,0.48052585,0.640701133,8.685423017,-274000,338000,-1182666.667,98522.12728,31.77,31.44999886,233.7778015,-316.2129517,166,0.586396635,2.586416721,-59.16835022,0,0
07:59.3,0.129,0.022,0.028,0.392266,0.7649187,8.5121722,-273000,331000,-1128000,98522.44263,31.77,31.44999886,233.7778015,-316.2129517,166,0.586396635,2.586416721,-59.16835022,0,0
07:59.4,0.135,0.021,0.019666667,0.369383817,0.709347683,8.518709967,-267000,322000,-1126666.667,98522.32259,31.76666667,31.4649992,233.7778015,-315.7099915,166.5,0.586396635,2.586416721,-59.16835022,0,0
07:59.4,0.141,0.02,0.011333333,0.346501633,0.653776667,8.525247733,-261000,313000,-1125333.333,98522.20256,31.76333333,31.47999954,233.7778015,-315.2070313,167,0.586396635,2.586416721,-59.16835022,0,0
07:59.4,0.147,0.019,0.003,0.32361945,0.59820565,8.5317855,-255000,304000,-1124000,98522.08252,31.76,31.49999905,229.1279755,-314.7040711,167.5,0.404302285,2.764786005,-59.60184288,0,0
