time,field.angular_velocity.x,field.angular_velocity.y,field.angular_velocity.z,field.linear_acceleration.x,field.linear_acceleration.y,field.linear_acceleration.z,field.magnetic_field.x,field.magnetic_field.y,field.magnetic_field.z,field.fluid_pressure,field.temperature,field.alt_error,field.aspd_error,field.xtrack_error,field.wp_dist,field.measured.pitch,field.measured.roll,field.measured.yaw,fault_state,field.airspeed
55:44.7,1.113,0.023,-0.03,-0.40207265,0.12748645,8.46313895,-648000,57000,-626000,97497.88818,41.89,-0.299999982,-681.6484375,-40.07807541,4,0.79783088,-11.96167564,-70.15618896,0,0
55:44.8,1.15,0.0075,-0.039,-0.612915625,0.053936575,8.9044382,-648000,57000,-626000,97497.88818,41.89,-0.299999982,-681.6484375,-40.07807541,4,0.79783088,-11.96167564,-70.15618896,0,0
55:44.8,1.187,-0.008,-0.048,-0.8237586,-0.0196133,9.34573745,-648000,57000,-626000,97497.88818,41.89,-0.429999977,-684.8121338,-37.93643188,6,0.18381533,2.863091469,-71.01429749,0,0
55:44.8,1.145333333,-0.005,-0.037,-0.9218251,-0.071915433,9.911254267,-551000,6000,-599000,97493.88021,41.88666667,-0.429999977,-684.8121338,-37.93643188,6,0.18381533,2.863091469,-71.01429749,0,0
55:44.9,1.103666667,-0.002,-0.026,-1.0198916,-0.124217567,10.47677108,-454000,-45000,-572000,97489.87223,41.88333333,-0.429999977,-684.8121338,-37.93643188,6,0.18381533,2.863091469,-71.01429749,0,0
55:44.9,1.062,0.001,-0.015,-1.1179581,-0.1765197,11.0422879,-357000,-96000,-545000,97485.86426,41.88,-0.499999985,-684.8121338,-120.2367706,7,0.18381533,2.863091469,-71.01429749,0,0
55:45.0,1.0175,0.011,-0.003,-1.20621795,-0.053936575,10.6696352,-357000,-96000,-545000,97482.83081,41.875,-0.569999993,-684.8121338,-202.5371094,8,0.18381533,2.863091469,-71.01429749,0,0
55:45.0,0.973,0.021,0.009,-1.2944778,0.06864655,10.2969825,-357000,-96000,-545000,97479.79736,41.87,-0.569999993,-684.8121338,-202.5371094,8,0.18381533,2.863091469,-71.01429749,0,0
55:45.0,0.914,0.041666667,0.012666667,-1.320628867,0.163444167,9.721659033,-357333.3333,-111333.3333,-536000,97479.79736,41.87,-0.699999988,-571.9165649,-200.5252533,10,0.18381533,2.863091469,-71.01429749,0,0
55:45.1,0.855,0.062333333,0.016333333,-1.346779933,0.258241783,9.146335567,-357666.6667,-126666.6667,-527000,97479.79736,41.87,-0.699999988,-571.9165649,-200.5252533,10,0.18381533,2.863091469,-71.01429749,0,0
55:45.1,0.796,0.083,0.02,-1.372931,0.3530394,8.5710121,-358000,-142000,-518000,97479.79736,41.87,-0.829999983,-571.9165649,-198.496521,12,0.18381533,2.863091469,-71.01429749,0,0
55:45.2,0.690666667,0.086333333,-0.006666667,-1.366393233,0.415148183,8.338921383,-330666.6667,-166666.6667,-496666.6667,97478.74145,41.86666667,-0.829999983,-571.9165649,-198.496521,12,0.18381533,2.863091469,-71.01429749,0,0
55:45.2,0.585333333,0.089666667,-0.033333333,-1.359855467,0.477256967,8.106830667,-303333.3333,-191333.3333,-475333.3333,97477.68555,41.86333333,-0.829999983,-571.9165649,-198.496521,12,0.18381533,2.863091469,-71.01429749,0,0
55:45.2,0.48,0.093,-0.06,-1.3533177,0.53936575,7.87473995,-276000,-216000,-454000,97476.62964,41.86,-0.889999986,-557.5217285,-197.520134,13,0.18381533,2.863091469,-71.01429749,0,0
55:45.3,0.3625,0.085,-0.0795,-1.368027675,0.583495675,7.8257067,-276000,-216000,-454000,97476.62964,41.86,-0.949999988,-543.1268921,-196.5437469,14,0.18381533,2.863091469,-71.01429749,0,0
55:45.3,0.245,0.077,-0.099,-1.38273765,0.6276256,7.77667345,-276000,-216000,-454000,97476.62964,41.86,-1.069999933,-543.1268921,-194.5826111,16,-1.267190814,27.10757828,-71.1456604,0,0
55:45.4,0.248,0.103,-0.184,-1.4513842,0.5295591,5.7663102,-236000,-240000,-435000,97469.68384,41.85,-1.069999933,-543.1268921,-194.5826111,16,-1.267190814,27.10757828,-71.1456604,0,0
55:45.4,0.2125,0.1115,-0.202,-1.48080415,0.436395925,5.271074375,-210500,-249500,-427500,97469.00025,41.85,-1.139999986,-507.4989319,-192.655304,18,-1.267190814,27.10757828,-71.1456604,0,0
55:45.5,0.177,0.12,-0.22,-1.5102241,0.34323275,4.77583855,-185000,-259000,-420000,97468.31665,41.85,-1.139999986,-507.4989319,-192.655304,18,-1.267190814,27.10757828,-71.1456604,0,0
55:45.5,0.174333333,0.113666667,-0.228333333,-1.552719583,0.388997117,4.563361133,-147000,-268333.3333,-409000,97468.03385,41.84666667,-1.179999948,-507.4989319,-190.7533417,20,-1.267190814,27.10757828,-71.1456604,0,0
55:45.6,0.171666667,0.107333333,-0.236666667,-1.595215067,0.434761483,4.350883717,-109000,-277666.6667,-398000,97467.75106,41.84333333,-1.179999948,-507.4989319,-190.7533417,20,-1.267190814,27.10757828,-71.1456604,0,0
55:45.6,0.169,0.101,-0.245,-1.63771055,0.48052585,4.1384063,-71000,-287000,-387000,97467.46826,41.84,-1.179999948,-507.4989319,-190.7533417,20,-1.267190814,27.10757828,-71.1456604,0,0
55:45.6,0.1995,0.113,-0.272,-1.81423025,0.446202575,4.751321925,-71000,-287000,-387000,97467.46826,41.84,-1.159999967,-479.901123,-188.8936615,22,-1.267190814,27.10757828,-71.1456604,0,0
55:45.7,0.23,0.125,-0.299,-1.99074995,0.4118793,5.36423755,-71000,-287000,-387000,97467.46826,41.84,-1.159999967,-479.901123,-188.8936615,22,-1.267190814,27.10757828,-71.1456604,0,0
55:45.7,0.228,0.125,-0.298333333,-1.987481067,0.444568133,5.573446083,-57000,-290000,-384333.3333,97468.03182,41.83666667,-1.129999996,-479.901123,-187.9638138,23,-3.454263151,29.40652657,-69.81742478,0,0
55:45.8,0.226,0.125,-0.297666667,-1.984212183,0.477256967,5.782654617,-43000,-293000,-381666.6667,97468.59538,41.83333333,-1.100000024,-479.901123,-187.0339661,24,-5.641335487,31.70547485,-68.48918915,0,0
55:45.8,0.224,0.125,-0.297,-1.9809433,0.5099458,5.99186315,-29000,-296000,-379000,97469.15894,41.83,-1.034999997,-466.6925354,-186.1125412,25,-5.641335487,31.70547485,-68.48918915,0,0
55:45.8,0.224,0.12,-0.2835,-1.95152335,0.4314926,5.8251501,-8000,-300000,-369500,97469.11622,41.83,-0.969999969,-453.4839478,-185.1911163,26,-5.641335487,31.70547485,-68.48918915,0,0
55:45.9,0.224,0.115,-0.27,-1.9221034,0.3530394,5.65843705,13000,-304000,-360000,97469.07349,41.83,-0.884999961,-453.4839478,-184.2993164,27,-5.641335487,31.70547485,-68.48918915,0,0
55:45.9,0.155666667,0.106333333,-0.262,-1.9417167,0.4511059,5.7270836,23333.33333,-306666.6667,-357333.3333,97470.0114,41.82666667,-0.799999952,-453.4839478,-183.4075165,28,-5.641335487,31.70547485,-68.48918915,0,0
55:46.0,0.087333333,0.097666667,-0.254,-1.96133,0.5491724,5.79573015,33666.66667,-309333.3333,-354666.6667,97470.9493,41.82333333,-0.799999952,-453.4839478,-183.4075165,28,-5.641335487,31.70547485,-68.48918915,0,0
55:46.0,0.019,0.089,-0.246,-1.9809433,0.6472389,5.8643767,44000,-312000,-352000,97471.88721,41.82,-0.689999967,-437.7918091,-182.5157013,29,-6.933647393,32.62090301,-67.6661892,0,0
55:46.0,-0.015,0.084333333,-0.244333333,-2.04958985,0.709347683,6.080123,59333.33333,-313000,-346666.6667,97471.90349,41.81666667,-0.579999983,-422.0996704,-181.6238861,30,-8.225959299,33.53633118,-66.84318924,0,0
55:46.1,-0.049,0.079666667,-0.242666667,-2.1182364,0.771456467,6.2958693,74666.66667,-314000,-341333.3333,97471.91976,41.81333333,-0.489999989,-422.0996704,-181.0406189,30.66666667,-9.087500569,34.14661662,-66.2945226,0,0
55:46.1,-0.083,0.075,-0.241,-2.18688295,0.83356525,6.5116156,90000,-315000,-336000,97471.93604,41.81,-0.399999996,-422.0996704,-180.4573517,31.33333333,-9.94904184,34.75690206,-65.74585597,0,0
55:46.2,-0.081,0.064666667,-0.247333333,-2.150925233,0.487063617,7.34518085,97333.33333,-313333.3333,-334666.6667,97473.16488,41.80666667,-0.310000002,-422.0996704,-179.8740845,32,-10.81058311,35.3671875,-65.19718933,0,0
55:46.2,-0.079,0.054333333,-0.253666667,-2.114967517,0.140561983,8.1787461,104666.6667,-311666.6667,-333333.3333,97474.39372,41.80333333,-0.150000001,-408.192627,-179.0118714,33,-10.81058311,35.3671875,-65.19718933,0,0
55:46.2,-0.077,0.044,-0.26,-2.0790098,-0.20593965,9.01231135,112000,-310000,-332000,97475.62256,41.8,0.01,-394.2855835,-178.1496582,34,-10.81058311,35.3671875,-65.19718933,0,0
55:46.3,-0.019,0.056,-0.239,-2.162366325,-0.1176798,8.517075525,121500,-309000,-332000,97478.93982,41.8,0.01,-394.2855835,-178.1496582,34,-10.81058311,35.3671875,-65.19718933,0,0
55:46.3,0.039,0.068,-0.218,-2.24572285,-0.02941995,8.0218397,131000,-308000,-332000,97482.25708,41.8,0.01,-394.2855835,-178.1496582,34,-10.81058311,35.3671875,-65.19718933,0,0
55:46.4,0.0395,0.057,-0.1995,-2.231012875,0.4511059,7.889449925,131000,-308000,-332000,97482.25708,41.8,0.340000004,-394.2855835,-176.5011749,36,-10.81058311,35.3671875,-65.19718933,0,0
55:46.4,0.04,0.046,-0.181,-2.2163029,0.93163175,7.75706015,131000,-308000,-332000,97482.25708,41.8,0.699999988,-370.4715576,-174.8443604,38,-10.81058311,35.3671875,-65.19718933,0,0
55:46.4,-0.0185,0.029,-0.181,-2.2359162,1.06892485,8.0806796,137500,-306500,-329500,97483.34961,41.795,0.699999988,-370.4715576,-174.8443604,38,-14.94083595,34.36810303,-61.70885849,0,0
55:46.5,-0.077,0.012,-0.181,-2.2555295,1.20621795,8.40429905,144000,-305000,-327000,97484.44214,41.79,0.699999988,-370.4715576,-174.8443604,38,-14.94083595,34.36810303,-61.70885849,0,0
55:46.5,-0.126666667,0.016,-0.191,-2.24572285,1.18660465,8.319308083,147333.3333,-304666.6667,-327000,97486.15112,41.79,0.889999956,-370.4715576,-174.0243912,39,-14.94083595,34.36810303,-61.70885849,0,0
55:46.6,-0.176333333,0.02,-0.201,-2.2359162,1.16699135,8.234317117,150666.6667,-304333.3333,-327000,97487.86011,41.79,1.079999924,-370.4715576,-173.204422,40,-14.94083595,34.36810303,-61.70885849,0,0
55:46.6,-0.226,0.024,-0.211,-2.22610955,1.14737805,8.14932615,154000,-304000,-327000,97489.56909,41.79,1.079999924,-370.4715576,-173.204422,40,-14.94083595,34.36810303,-61.70885849,0,0
55:46.6,-0.247,0.029333333,-0.222333333,-2.1966896,1.150646933,7.613229283,157666.6667,-302000,-327333.3333,97490.19368,41.78666667,1.279999972,-376.5554352,-172.3929138,41,-14.94083595,34.36810303,-61.70885849,0,0
55:46.7,-0.268,0.034666667,-0.233666667,-2.16726965,1.153915817,7.077132417,161333.3333,-300000,-327666.6667,97490.81828,41.78333333,1.480000019,-382.6393127,-171.5814056,42,-14.94083595,34.36810303,-61.70885849,0,0
55:46.7,-0.289,0.04,-0.245,-2.1378497,1.1571847,6.54103555,165000,-298000,-328000,97491.44287,41.78,1.699999988,-382.6393127,-170.7783661,42.5,-16.01103783,32.51492501,-60.43503952,0,0
55:46.8,-0.2145,0.037,-0.238,-2.221206225,1.12776475,6.8254284,176000,-286000,-332500,97497.80579,41.78,1.919999957,-382.6393127,-169.9753265,43,-17.0812397,30.66174698,-59.16122055,0,0
55:46.8,-0.14,0.034,-0.231,-2.30456275,1.0983448,7.10982125,187000,-274000,-337000,97504.1687,41.78,1.919999957,-382.6393127,-169.9753265,43,-17.0812397,30.66174698,-59.16122055,0,0
55:46.8,-0.172,0.03,-0.224333333,-2.3339827,0.915287333,7.1588545,187000,-274000,-337000,97504.1687,41.78,2.149999917,-378.6382599,-169.176506,44,-17.0812397,30.66174698,-59.16122055,0,0
55:46.9,-0.204,0.026,-0.217666667,-2.36340265,0.732229867,7.20788775,187000,-274000,-337000,97504.1687,41.78,2.379999876,-374.637207,-168.3776855,45,-17.0812397,30.66174698,-59.16122055,0,0
55:46.9,-0.236,0.022,-0.211,-2.3928226,0.5491724,7.256921,187000,-274000,-337000,97504.1687,41.78,2.624999881,-374.637207,-167.5873184,46,-17.0812397,30.66174698,-59.16122055,0,0
55:47.0,-0.206,0.016,-0.2085,-2.397725925,0.181423025,8.085582925,192000,-263500,-344000,97511.34949,41.77,2.869999886,-374.637207,-166.7969513,47,-17.0812397,30.66174698,-59.16122055,0,0
55:47.0,-0.176,0.01,-0.206,-2.40262925,-0.18632635,8.91424485,197000,-253000,-351000,97518.53027,41.76,2.869999886,-374.637207,-166.7969513,47,-17.0812397,30.66174698,-59.16122055,0,0
55:47.0,-0.177666667,0.009,-0.2,-2.386284833,0.032688833,8.976353633,197000,-253000,-351000,97518.53027,41.76,3.399999857,-363.0073547,-165.2415009,49,-17.0812397,30.66174698,-59.16122055,0,0
55:47.1,-0.179333333,0.008,-0.194,-2.369940417,0.251704017,9.038462417,197000,-253000,-351000,97518.53027,41.76,3.399999857,-363.0073547,-165.2415009,49,-17.0812397,30.66174698,-59.16122055,0,0
55:47.1,-0.181,0.007,-0.188,-2.353596,0.4707192,9.1005712,197000,-253000,-351000,97518.53027,41.76,3.399999857,-363.0073547,-165.2415009,49,-17.0812397,30.66174698,-59.16122055,0,0
55:47.2,-0.172,0,-0.174,-2.329079375,0.593302325,9.03192465,201000,-248500,-354500,97521.48743,41.755,3.939999819,-363.0073547,-163.7114868,51,-17.0812397,30.66174698,-59.16122055,0,0
55:47.2,-0.163,-0.007,-0.16,-2.30456275,0.71588545,8.9632781,205000,-244000,-358000,97524.44458,41.75,3.939999819,-363.0073547,-163.7114868,51,-20.20022392,24.7323761,-54.26299286,0,0
55:47.2,-0.171666667,0.001333333,-0.160333333,-2.30456275,0.454374783,9.113646733,208000,-238000,-360333.3333,97528.33252,41.75,4.489999771,-368.8861694,-162.1898193,53,-20.20022392,24.7323761,-54.26299286,0,0
55:47.3,-0.180333333,0.009666667,-0.160666667,-2.30456275,0.192864117,9.264015367,211000,-232000,-362666.6667,97532.22046,41.75,4.774999857,-368.8861694,-161.4374924,54,-20.20022392,24.7323761,-54.26299286,0,0
55:47.3,-0.189,0.018,-0.161,-2.30456275,-0.06864655,9.414384,214000,-226000,-365000,97536.1084,41.75,5.059999943,-368.8861694,-160.6851654,55,-20.20022392,24.7323761,-54.26299286,0,0
55:47.4,-0.1955,0.0275,-0.159,-2.329079375,0.338329425,9.1986377,214000,-226000,-365000,97536.1084,41.75,5.059999943,-368.8861694,-160.6851654,55,-20.20022392,24.7323761,-54.26299286,0,0
55:47.4,-0.202,0.037,-0.157,-2.353596,0.7453054,8.9828914,214000,-226000,-365000,97536.1084,41.75,5.059999943,-368.8861694,-160.6851654,55,-20.20022392,24.7323761,-54.26299286,0,0
55:47.4,-0.236666667,0.028,-0.161,-2.369940417,0.5099458,9.09076455,215333.3333,-222666.6667,-365333.3333,97538.35856,41.74666667,5.639999866,-374.6641235,-159.2058716,56,-20.20022392,24.7323761,-54.26299286,0,0
55:47.5,-0.271333333,0.019,-0.165,-2.386284833,0.2745862,9.1986377,216666.6667,-219333.3333,-365666.6667,97540.60873,41.74333333,5.639999866,-374.6641235,-159.2058716,56,-20.20022392,24.7323761,-54.26299286,0,0
55:47.5,-0.306,0.01,-0.169,-2.40262925,0.0392266,9.30651085,218000,-216000,-366000,97542.85889,41.74,5.934999943,-374.6641235,-158.4662247,57,-20.94207382,22.38388443,-52.82416916,0,0
55:47.6,-0.273,0.02,-0.174,-2.387919275,0.308909475,9.3555441,218500,-211000,-370000,97545.44373,41.735,6.230000019,-374.6641235,-157.7265778,58,-21.68392372,20.03539276,-51.38534546,0,0
55:47.6,-0.24,0.03,-0.179,-2.3732093,0.57859235,9.40457735,219000,-206000,-374000,97548.02856,41.73,6.230000019,-374.6641235,-157.7265778,58,-21.68392372,20.03539276,-51.38534546,0,0
55:47.6,-0.227333333,0.030333333,-0.181,-2.3928226,0.523021333,8.564474333,220666.6667,-201666.6667,-374666.6667,97553.84725,41.73,6.829999924,-375.9666443,-156.2472839,60,-21.68392372,20.03539276,-51.38534546,0,0
55:47.7,-0.214666667,0.030666667,-0.183,-2.4124359,0.467450317,7.724371317,222333.3333,-197333.3333,-375333.3333,97559.66593,41.73,6.829999924,-375.9666443,-156.2472839,60,-21.68392372,20.03539276,-51.38534546,0,0
55:47.7,-0.202,0.031,-0.185,-2.4320492,0.4118793,6.8842683,224000,-193000,-376000,97565.48462,41.73,6.829999924,-375.9666443,-156.2472839,60,-21.68392372,20.03539276,-51.38534546,0,0
55:47.8,-0.176,0.026666667,-0.180333333,-2.448393617,0.428223717,7.1000146,226666.6667,-185000,-378000,97567.91382,41.72666667,7.429999828,-375.9666443,-154.7763824,62,-21.68392372,20.03539276,-51.38534546,0,0
55:47.8,-0.15,0.022333333,-0.175666667,-2.464738033,0.444568133,7.3157609,229333.3333,-177000,-380000,97570.34302,41.72333333,7.734999895,-383.757309,-154.0663223,63,-21.68392372,20.03539276,-51.38534546,0,0
55:47.8,-0.124,0.018,-0.171,-2.48108245,0.46091255,7.5315072,232000,-169000,-382000,97572.77222,41.72,8.039999962,-391.5479736,-153.3562622,64,-21.68392372,20.03539276,-51.38534546,0,0
55:47.9,-0.1045,0.0035,-0.152,-2.505599075,0.2353596,7.97280645,233500,-165500,-382500,97576.76392,41.715,8.039999962,-391.5479736,-153.3562622,64,-21.68392372,20.03539276,-51.38534546,0,0
55:47.9,-0.085,-0.011,-0.133,-2.5301157,0.00980665,8.4141057,235000,-162000,-383000,97580.75562,41.71,8.68999958,-391.5479736,-151.8938751,66,-21.68392372,20.03539276,-51.38534546,0,0
55:48.0,-0.1265,0,-0.1,-2.5105024,-0.171616375,8.6494653,235000,-162000,-383000,97580.75562,41.71,8.68999958,-391.5479736,-151.8938751,66,-23.40660667,14.47402096,-47.27495193,0,0
55:48.0,-0.168,0.011,-0.067,-2.4908891,-0.3530394,8.8848249,235000,-162000,-383000,97580.75562,41.71,8.68999958,-391.5479736,-151.8938751,66,-23.40660667,14.47402096,-47.27495193,0,0
55:48.0,-0.167,0.00875,-0.04875,-2.525212375,-0.210842975,9.103022863,235000,-158750,-384000,97585.45075,41.7075,9.359999657,-397.0182495,-150.4483032,68,-23.40660667,14.47402096,-47.27495193,0,0
55:48.1,-0.166,0.0065,-0.0305,-2.55953565,-0.06864655,9.321220825,235000,-155500,-385000,97590.14588,41.705,9.699999809,-397.0182495,-149.7340164,68.5,-23.40660667,14.47402096,-47.27495193,0,0
55:48.1,-0.165,0.00425,-0.01225,-2.593858925,0.073549875,9.539418788,235000,-152250,-386000,97594.841,41.7025,10.03999996,-397.0182495,-149.0197296,69,-23.40660667,14.47402096,-47.27495193,0,0
55:48.2,-0.164,0.002,0.006,-2.6281822,0.2157463,9.75761675,235000,-149000,-387000,97599.53613,41.7,10.03999996,-397.0182495,-149.0197296,69,-23.40660667,14.47402096,-47.27495193,0,0
55:48.2,-0.208,0.019,0.018,-2.5889556,-0.2941995,8.1787461,235000,-141000,-390000,97606.14624,41.7,10.03999996,-397.0182495,-149.0197296,69,-23.40660667,14.47402096,-47.27495193,0,0
55:48.2,-0.223,0.012,0.016,-2.623278875,0.2157463,8.026743025,235000,-141000,-390000,97606.14624,41.7,10.71999931,-412.7120972,-147.6080627,71,-23.40660667,14.47402096,-47.27495193,0,0
55:48.3,-0.238,0.005,0.014,-2.65760215,0.7256921,7.87473995,235000,-141000,-390000,97606.14624,41.7,10.71999931,-412.7120972,-147.6080627,71,-23.40660667,14.47402096,-47.27495193,0,0
55:48.3,-0.245,-0.00125,0.009,-2.679667113,0.625173937,8.107647888,234750,-137750,-391250,97610.47363,41.6975,11.07499933,-412.7120972,-146.889534,72,-23.569911,12.2688284,-47.07312775,0,0
55:48.4,-0.252,-0.0075,0.004,-2.701732075,0.524655775,8.340555825,234500,-134500,-392500,97614.80103,41.695,11.42999935,-412.7120972,-146.1710052,73,-23.73321533,10.06363583,-46.87130356,0,0
55:48.4,-0.259,-0.01375,-0.001,-2.723797038,0.424137613,8.573463763,234250,-131250,-393750,97619.12842,41.6925,11.42999935,-412.7120972,-146.1710052,73,-23.73321533,10.06363583,-46.87130356,0,0
55:48.4,-0.266,-0.02,-0.006,-2.745862,0.32361945,8.8063717,234000,-128000,-395000,97623.45581,41.69,12.13999939,-432.7119751,-144.7593384,75,-23.73321533,10.06363583,-46.87130356,0,0
55:48.5,-0.302,-0.022,-0.059,-2.7066354,-0.06864655,8.7279185,234000,-128000,-395000,97623.45581,41.69,12.13999939,-432.7119751,-144.7593384,75,-23.73321533,10.06363583,-46.87130356,0,0
55:48.5,-0.267666667,-0.028,-0.073,-2.719710933,0.228821833,9.048269067,232333.3333,-125000,-398000,97626.78019,41.68666667,12.50499964,-432.7119751,-144.0449982,76,-23.73321533,10.06363583,-46.87130356,0,0
55:48.6,-0.233333333,-0.034,-0.087,-2.732786467,0.526290217,9.368619633,230666.6667,-122000,-401000,97630.10458,41.68333333,12.86999989,-432.7119751,-143.330658,77,-23.73321533,10.06363583,-46.87130356,0,0
55:48.6,-0.199,-0.04,-0.101,-2.745862,0.8237586,9.6889702,229000,-119000,-404000,97633.42896,41.68,12.86999989,-432.7119751,-143.330658,77,-23.73321533,10.06363583,-46.87130356,0,0
55:48.6,-0.146666667,-0.051333333,-0.095,-2.811239667,0.859716317,9.280359783,212000,-110000,-409000,97639.5752,41.67666667,13.23999978,-435.2263489,-142.6163712,78,-23.73321533,10.06363583,-46.87130356,0,0
55:48.7,-0.094333333,-0.062666667,-0.089,-2.876617333,0.895674033,8.871749367,195000,-101000,-414000,97645.72144,41.67333333,13.60999966,-437.7407227,-141.9020844,79,-23.73321533,10.06363583,-46.87130356,0,0
55:48.7,-0.042,-0.074,-0.083,-2.941995,0.93163175,8.46313895,178000,-92000,-419000,97651.86768,41.67,14.34999943,-437.7407227,-140.4734802,81,-23.33045006,5.189941406,-45.5372963,0,0
55:48.8,-0.077333333,-0.098,-0.074,-2.870079567,0.797607533,8.5906254,164000,-87000,-421000,97655.2592,41.67,14.34999943,-437.7407227,-140.4734802,81,-23.33045006,5.189941406,-45.5372963,0,0
55:48.8,-0.112666667,-0.122,-0.065,-2.798164133,0.663583317,8.71811185,150000,-82000,-423000,97658.65072,41.67,14.34999943,-437.7407227,-140.4734802,81,-23.33045006,5.189941406,-45.5372963,0,0
55:48.8,-0.148,-0.146,-0.056,-2.7262487,0.5295591,8.8455983,136000,-77000,-425000,97662.04224,41.67,14.72999955,-447.4106904,-139.7549744,82,-23.33045006,5.189941406,-45.5372963,0,0
55:48.9,-0.1675,-0.1625,-0.0465,-2.63798885,0.20593965,9.340834125,136000,-77000,-425000,97665.20081,41.665,15.10999966,-457.080658,-139.0364685,83,-23.33045006,5.189941406,-45.5372963,0,0
55:48.9,-0.187,-0.179,-0.037,-2.549729,-0.1176798,9.83606995,136000,-77000,-425000,97668.35938,41.66,15.10999966,-457.080658,-139.0364685,83,-23.33045006,5.189941406,-45.5372963,0,0
55:49.0,-0.084,-0.185,-0.024666667,-2.55953565,-0.035957717,10.89845703,97000,-66333.33333,-434000,97672.57487,41.66,15.88000011,-457.080658,-137.5909729,85,-23.33045006,5.189941406,-45.5372963,0,0
55:49.0,0.019,-0.191,-0.012333333,-2.5693423,0.045764367,11.96084412,58000,-55666.66667,-443000,97676.79037,41.66,15.88000011,-457.080658,-137.5909729,85,-23.33045006,5.189941406,-45.5372963,0,0
55:49.0,0.122,-0.197,2.41E-17,-2.57914895,0.12748645,13.0232312,19000,-45000,-452000,97681.00586,41.66,16.26999998,-442.1727143,-136.8681946,86,-22.58874178,4.673404813,-45.21215058,0,0
55:49.1,0.186,-0.192,0.026,-2.28494945,0.2157463,12.4936721,19000,-45000,-452000,97681.00586,41.66,16.65999985,-427.2647705,-136.1454163,87,-21.8470335,4.15686822,-44.88700486,0,0
55:49.1,0.127,-0.215333333,0.038,-2.1770763,0.26477955,13.81756985,-26666.66667,-38333.33333,-462333.3333,97686.58854,41.65666667,17.39999962,-427.2647705,-134.6914825,89,-20.36361694,3.123795033,-44.23671341,0,0
55:49.2,0.068,-0.238666667,0.05,-2.06920315,0.3138128,15.1414676,-72333.33333,-31666.66667,-472666.6667,97692.17123,41.65333333,17.39999962,-427.2647705,-134.6914825,89,-20.36361694,3.123795033,-44.23671341,0,0
55:49.2,0.009,-0.262,0.062,-1.96133,0.36284605,16.46536535,-118000,-25000,-483000,97697.75391,41.65,17.63666598,-433.8250325,-134.2040202,89.33333333,-20.36361694,3.123795033,-44.23671341,0,0
55:49.2,-0.0135,-0.2655,0.0655,-1.887780125,0.4314926,16.38691215,-118000,-25000,-483000,97697.75391,41.65,17.87333234,-440.3852946,-133.7165578,89.66666667,-20.36361694,3.123795033,-44.23671341,0,0
55:49.3,-0.036,-0.269,0.069,-1.81423025,0.50013915,16.30845895,-118000,-25000,-483000,97697.75391,41.65,18.1099987,-446.9455566,-133.2290955,90,-20.36361694,3.123795033,-44.23671341,0,0
55:49.3,-0.087,-0.280666667,0.063666667,-1.690012683,0.588399,16.71380048,-151333.3333,-19333.33333,-489000,97701.80461,41.64666667,18.76000023,-446.9455566,-131.7412872,92,-20.36361694,3.123795033,-44.23671341,0,0
55:49.4,-0.138,-0.292333333,0.058333333,-1.565795117,0.67665885,17.11914202,-184666.6667,-13666.66667,-495000,97705.85531,41.64333333,18.76000023,-446.9455566,-131.7412872,92,-20.36361694,3.123795033,-44.23671341,0,0
55:49.4,-0.189,-0.304,0.053,-1.44157755,0.7649187,17.52448355,-218000,-8000,-501000,97709.90601,41.64,18.76000023,-446.9455566,-131.7412872,92,-20.36361694,3.123795033,-44.23671341,0,0
55:49.4,-0.2515,-0.293,0.0295,-1.368027675,0.71588545,17.22538073,-287500,5500,-515500,97714.51416,41.64,19.31999969,-490.9431458,-130.236618,95,-15.27530289,3.422442913,-45.00396347,0,0
55:49.5,-0.314,-0.282,0.006,-1.2944778,0.6668522,16.9262779,-357000,19000,-530000,97719.12231,41.64,19.31999969,-490.9431458,-130.236618,95,-15.27530289,3.422442913,-45.00396347,0,0
55:49.5,-0.299666667,-0.280666667,0.001666667,-1.160453583,0.67665885,16.73668267,-382666.6667,24666.66667,-536333.3333,97722.74983,41.63666667,19.56999969,-490.9431458,-129.4758377,96,-15.27530289,3.422442913,-45.00396347,0,0
55:49.6,-0.285333333,-0.279333333,-0.002666667,-1.026429367,0.6864655,16.54708743,-408333.3333,30333.33333,-542666.6667,97726.37736,41.63333333,19.81999969,-490.9431458,-128.7150574,97,-15.27530289,3.422442913,-45.00396347,0,0
55:49.6,-0.271,-0.278,-0.007,-0.89240515,0.69627215,16.3574922,-434000,36000,-549000,97730.00488,41.63,20.23999977,-560.0385742,-127.1765976,99,-15.27530289,3.422442913,-45.00396347,0,0
55:49.6,-0.314,-0.267,-0.0145,-0.89240515,0.642335575,15.43076378,-487500,54500,-564000,97732.55615,41.63,20.23999977,-560.0385742,-127.1765976,99,-15.27530289,3.422442913,-45.00396347,0,0
55:49.7,-0.357,-0.256,-0.022,-0.89240515,0.588399,14.50403535,-541000,73000,-579000,97735.10742,41.63,20.23999977,-560.0385742,-127.1765976,99,-15.27530289,3.422442913,-45.00396347,0,0
55:49.7,-0.292,-0.262666667,-0.026666667,-0.889136267,0.405341533,14.20329808,-559000,81666.66667,-585666.6667,97738.95874,41.62666667,20.6099987,-560.0385742,-125.5873261,101,-15.27530289,3.422442913,-45.00396347,0,0
55:49.8,-0.227,-0.269333333,-0.031333333,-0.885867383,0.222284067,13.90256082,-577000,90333.33333,-592333.3333,97742.81006,41.62333333,20.6099987,-560.0385742,-125.5873261,101,-15.27530289,3.422442913,-45.00396347,0,0
55:49.8,-0.162,-0.276,-0.036,-0.8825985,0.0392266,13.60182355,-595000,99000,-599000,97746.66138,41.62,20.77499867,-578.6798401,-124.7885094,102,-12.11328364,0.169850588,-44.91527939,0,0
55:49.8,-0.090666667,-0.292,-0.020333333,-0.728960983,0.18632635,14.94860348,-628333.3333,108000,-604666.6667,97749.44865,41.61666667,20.93999863,-597.321106,-123.9896927,103,-8.951264381,-3.082741737,-44.82659531,0,0
55:49.9,-0.019333333,-0.308,-0.004666667,-0.575323467,0.3334261,16.29538342,-661666.6667,117000,-610333.3333,97752.23592,41.61333333,20.93999863,-597.321106,-123.9896927,103,-8.951264381,-3.082741737,-44.82659531,0,0
55:49.9,0.052,-0.324,0.011,-0.42168595,0.48052585,17.64216335,-695000,126000,-616000,97755.02319,41.61,21.08499909,-597.321106,-123.1824265,104,-8.951264381,-3.082741737,-44.82659531,0,0
55:50.0,0.081,-0.315,0.0145,-0.406975975,0.3530394,17.78435978,-695000,126000,-616000,97750.67444,41.61,21.22999954,-597.321106,-122.3751602,105,-8.951264381,-3.082741737,-44.82659531,0,0
55:50.0,0.11,-0.306,0.018,-0.392266,0.22555295,17.9265562,-695000,126000,-616000,97746.32568,41.61,21.22999954,-597.321106,-122.3751602,105,-8.951264381,-3.082741737,-44.82659531,0,0
55:50.0,0.0745,-0.2845,0.0275,-0.397169325,0.161809725,17.4754503,-725000,130500,-621000,97746.32568,41.61,21.45999908,-623.5023193,-120.7352295,107,-8.951264381,-3.082741737,-44.82659531,0,0
55:50.1,0.039,-0.263,0.037,-0.40207265,0.0980665,17.0243444,-755000,135000,-626000,97746.32568,41.61,21.45999908,-623.5023193,-120.7352295,107,-8.951264381,-3.082741737,-44.82659531,0,0
55:50.1,0.05,-0.252,0.038666667,-0.40207265,0.130755333,16.16462808,-791666.6667,141666.6667,-635666.6667,97753.11279,41.61,21.53999901,-623.5023193,-119.9110565,108.5,-8.951264381,-3.082741737,-44.82659531,0,0
55:50.2,0.061,-0.241,0.040333333,-0.40207265,0.163444167,15.30491177,-828333.3333,148333.3333,-645333.3333,97759.8999,41.61,21.61999893,-623.5023193,-119.0868835,110,-8.951264381,-3.082741737,-44.82659531,0,0
55:50.2,0.072,-0.23,0.042,-0.40207265,0.196133,14.44519545,-865000,155000,-655000,97766.68701,41.61,21.66999912,-635.5523987,-118.2542152,111,-8.951264381,-3.082741737,-44.82659531,0,0
55:50.2,0.0275,-0.2305,0.0345,-0.279489525,0.338329425,14.89630135,-895000,156000,-659500,97762.82349,41.605,21.71999931,-647.602478,-117.4215469,112,-8.951264381,-3.082741737,-44.82659531,0,0
55:50.3,-0.017,-0.231,0.027,-0.1569064,0.48052585,15.34740725,-925000,157000,-664000,97758.95996,41.6,21.71999931,-647.602478,-117.4215469,112,-2.118620157,-2.193240404,-45.75587845,0,0
55:50.3,0.0375,-0.225,0.026,-0.0980665,0.5099458,15.70534998,-940000,158000,-664750,97762.04681,41.5975,21.77999878,-647.602478,-115.7478333,114,-2.118620157,-2.193240404,-45.75587845,0,0
55:50.4,0.092,-0.219,0.025,-0.0392266,0.53936575,16.0632927,-955000,159000,-665500,97765.13367,41.595,21.77999878,-647.602478,-115.7478333,114,-2.118620157,-2.193240404,-45.75587845,0,0
55:50.4,0.1465,-0.213,0.024,0.0196133,0.5687857,16.42123543,-970000,160000,-666250,97768.22052,41.5925,21.77999878,-647.602478,-115.7478333,114,-2.118620157,-2.193240404,-45.75587845,0,0
55:50.4,0.201,-0.207,0.023,0.0784532,0.59820565,16.77917815,-985000,161000,-667000,97771.30737,41.59,21.7849989,-645.843811,-114.9109803,115,-2.118620157,-2.193240404,-45.75587845,0,0
55:50.5,0.14,-0.189,0.035,0,0.5687857,16.6124651,-985000,161000,-667000,97771.30737,41.59,21.78999901,-644.085144,-114.0741272,116,-2.118620157,-2.193240404,-45.75587845,0,0
55:50.5,0.163666667,-0.179333333,0.033333333,-0.013075533,0.555710167,16.04694828,-1009666.667,162333.3333,-674000,97769.11214,41.59,21.73999977,-644.085144,-112.4088593,118,-2.118620157,-2.193240404,-45.75587845,0,0
55:50.6,0.187333333,-0.169666667,0.031666667,-0.026151067,0.542634633,15.48143147,-1034333.333,163666.6667,-681000,97766.91691,41.59,21.73999977,-644.085144,-112.4088593,118,-2.118620157,-2.193240404,-45.75587845,0,0
55:50.6,0.211,-0.16,0.03,-0.0392266,0.5295591,14.91591465,-1059000,165000,-688000,97764.72168,41.59,21.73999977,-644.085144,-112.4088593,118,-2.118620157,-2.193240404,-45.75587845,0,0
55:50.6,0.145,-0.166333333,0.034333333,-0.026151067,0.57859235,15.28202958,-1045333.333,161666.6667,-685666.6667,97765.52938,41.58666667,21.61999893,-624.4422607,-110.7182388,120,-2.118620157,-2.193240404,-45.75587845,0,0
55:50.7,0.079,-0.172666667,0.038666667,-0.013075533,0.6276256,15.64814452,-1031666.667,158333.3333,-683333.3333,97766.33708,41.58333333,21.61999893,-624.4422607,-110.7182388,120,2.975960732,1.120891929,-46.77119446,0,0
55:50.7,0.013,-0.179,0.043,0,0.67665885,16.01425945,-1018000,155000,-681000,97767.14478,41.58,21.54499912,-624.4422607,-109.8855744,121.5,2.975960732,1.120891929,-46.77119446,0,0
55:50.8,0.018666667,-0.159,0.027333333,-0.022882183,0.575323467,15.32779395,-1017000,148000,-679000,97763.4847,41.57666667,21.46999931,-624.4422607,-109.0529099,123,2.975960732,1.120891929,-46.77119446,0,0
55:50.8,0.024333333,-0.139,0.011666667,-0.045764367,0.473988083,14.64132845,-1016000,141000,-677000,97759.82463,41.57333333,21.35999966,-612.7843628,-108.211834,124,2.975960732,1.120891929,-46.77119446,0,0
55:50.8,0.03,-0.119,-0.004,-0.06864655,0.3726527,13.95486295,-1015000,134000,-675000,97756.16455,41.57,21.25,-601.1264648,-107.3707581,125,2.975960732,1.120891929,-46.77119446,0,0
55:50.9,0.117,-0.117,-0.024,0.08825985,0.196133,12.66038515,-1015000,134000,-675000,97756.16455,41.57,21.25,-601.1264648,-107.3707581,125,2.975960732,1.120891929,-46.77119446,0,0
55:50.9,0.134666667,-0.107,-0.015666667,0.052302133,0.2745862,12.36291677,-997000,132333.3333,-675666.6667,97755.88175,41.56666667,21.13000012,-601.1264648,-106.5423546,126,2.975960732,1.120891929,-46.77119446,0,0
55:51.0,0.152333333,-0.097,-0.007333333,0.016344417,0.3530394,12.06544838,-979000,130666.6667,-676333.3333,97755.59896,41.56333333,21.01000023,-601.1264648,-105.7139511,127,2.975960732,1.120891929,-46.77119446,0,0
55:51.0,0.17,-0.087,0.001,-0.0196133,0.4314926,11.76798,-961000,129000,-677000,97755.31616,41.56,21.01000023,-601.1264648,-105.7139511,127,2.975960732,1.120891929,-46.77119446,0,0
55:51.0,0.121,-0.094333333,0.004,-0.026151067,0.310543917,12.08506168,-972666.6667,127000,-676000,97755.31616,41.56,20.875,-588.8370361,-104.8990669,128,2.975960732,1.120891929,-46.77119446,0,0
55:51.1,0.072,-0.101666667,0.007,-0.032688833,0.189595233,12.40214337,-984333.3333,125000,-675000,97755.31616,41.56,20.73999977,-576.5476074,-104.0841827,129,2.975960732,1.120891929,-46.77119446,0,0
55:51.1,0.023,-0.109,0.01,-0.0392266,0.06864655,12.71922505,-996000,123000,-674000,97755.31616,41.56,20.73999977,-576.5476074,-104.0841827,129,5.866456032,3.401875734,-46.8926239,0,0
55:51.2,0.003333333,-0.101,0.009333333,-0.026151067,0.124217567,12.8467115,-960666.6667,110666.6667,-667000,97751.5096,41.55666667,20.44999886,-576.5476074,-102.4357452,131,5.866456032,3.401875734,-46.8926239,0,0
55:51.2,-0.016333333,-0.093,0.008666667,-0.013075533,0.179788583,12.97419795,-925333.3333,98333.33333,-660000,97747.70304,41.55333333,20.29999924,-567.1195984,-101.6847878,132,5.866456032,3.401875734,-46.8926239,0,0
55:51.2,-0.036,-0.085,0.008,0,0.2353596,13.1016844,-890000,86000,-653000,97743.89648,41.55,20.14999962,-557.6915894,-100.9338303,133,5.866456032,3.401875734,-46.8926239,0,0
55:51.3,-0.0005,-0.074,0.01,0,0.230456275,13.26349413,-890000,86000,-653000,97743.89648,41.55,20.14999962,-557.6915894,-100.9338303,133,5.866456032,3.401875734,-46.8926239,0,0
55:51.3,0.035,-0.063,0.012,0,0.22555295,13.42530385,-890000,86000,-653000,97743.89648,41.55,19.82999992,-557.6915894,-99.33116913,135,5.866456032,3.401875734,-46.8926239,0,0
55:51.4,0.08,-0.0505,0.0085,-0.0784532,0.2549729,12.55741533,-846000,79000,-648000,97740.89966,41.545,19.65999985,-542.8586121,-98.66267395,136,5.866456032,3.401875734,-46.8926239,0,0
55:51.4,0.125,-0.038,0.005,-0.1569064,0.28439285,11.6895268,-802000,72000,-643000,97737.90283,41.54,19.48999977,-528.0256348,-97.99417877,137,5.866456032,3.401875734,-46.8926239,0,0
55:51.4,0.1305,-0.0345,0.0035,-0.2157463,0.3530394,11.5914603,-802000,72000,-643000,97737.90283,41.54,19.48999977,-528.0256348,-97.99417877,137,5.866456032,3.401875734,-46.8926239,0,0
55:51.5,0.136,-0.031,0.002,-0.2745862,0.42168595,11.4933938,-802000,72000,-643000,97737.90283,41.54,19.48999977,-528.0256348,-97.99417877,137,7.154234886,4.427249908,-47.16859055,0,0
55:51.5,0.126333333,-0.017333333,0.001,-0.290930617,0.438030367,11.0030613,-785666.6667,67333.33333,-641666.6667,97736.41561,41.53666667,19.48999977,-528.0256348,-97.99417877,137,7.154234886,4.427249908,-47.16859055,0,0
55:51.6,0.116666667,-0.003666667,0,-0.307275033,0.454374783,10.5127288,-769333.3333,62666.66667,-640333.3333,97734.92838,41.53333333,19.3199997,-528.0256348,-97.2426796,138,7.154234886,4.427249908,-47.16859055,0,0
55:51.6,0.107,0.01,-0.001,-0.32361945,0.4707192,10.0223963,-753000,58000,-639000,97733.44116,41.53,19.14999962,-528.0256348,-96.49118042,139,7.154234886,4.427249908,-47.16859055,0,0
55:51.6,0.109,0.0095,-0.011,-0.357942725,0.367749375,9.821359975,-746000,51000,-633000,97729.95911,41.53,18.77999878,-486.5604248,-94.9624176,141,7.154234886,4.427249908,-47.16859055,0,0
55:51.7,0.111,0.009,-0.021,-0.392266,0.26477955,9.62032365,-739000,44000,-627000,97726.47705,41.53,18.77999878,-486.5604248,-94.9624176,141,7.154234886,4.427249908,-47.16859055,0,0
55:51.7,0.061,0.01075,-0.03375,-0.367749375,0.2745862,9.52225715,-721750,38000,-624500,97725.05188,41.5275,18.40999985,-486.5604248,-93.41661072,143,7.154234886,4.427249908,-47.16859055,0,0
55:51.8,0.011,0.0125,-0.0465,-0.34323275,0.28439285,9.42419065,-704500,32000,-622000,97723.62671,41.525,18.29333306,-474.8088074,-92.90697988,143.6666667,7.154234886,4.427249908,-47.16859055,0,0
55:51.8,-0.039,0.01425,-0.05925,-0.318716125,0.2941995,9.32612415,-687250,26000,-619500,97722.20154,41.5225,18.17666626,-463.0571899,-92.39734904,144.3333333,7.154234886,4.427249908,-47.16859055,0,0
55:51.8,-0.089,0.016,-0.072,-0.2941995,0.30400615,9.22805765,-670000,20000,-617000,97720.77637,41.52,18.05999947,-451.3055725,-91.8877182,145,7.154234886,4.427249908,-47.16859055,0,0
55:51.9,-0.031,0.0315,-0.0745,-0.308909475,0.40207265,8.948568125,-674000,22500,-617500,97714.06556,41.515,18.05999947,-451.3055725,-91.8877182,145,7.154234886,4.427249908,-47.16859055,0,0
55:51.9,0.027,0.047,-0.077,-0.32361945,0.50013915,8.6690786,-678000,25000,-618000,97707.35474,41.51,17.88499928,-451.3055725,-91.60481644,146,6.947967291,5.382583141,-46.84734917,0,0
55:52.0,0.049,0.0475,-0.082,-0.3334261,0.3334261,8.79656505,-678000,25000,-618000,97707.35474,41.51,17.70999908,-451.3055725,-91.32191467,147,6.741699696,6.337916374,-46.52610779,0,0
55:52.0,0.071,0.048,-0.087,-0.34323275,0.16671305,8.9240515,-678000,25000,-618000,97707.35474,41.51,17.70999908,-451.3055725,-91.32191467,147,6.741699696,6.337916374,-46.52610779,0,0
55:52.0,0.1305,0.0555,-0.0845,-0.357942725,0.073549875,8.67888525,-674000,26000,-616500,97703.20435,41.51,17.70999908,-451.3055725,-91.32191467,147,6.741699696,6.337916374,-46.52610779,0,0
55:52.1,0.19,0.063,-0.082,-0.3726527,-0.0196133,8.433719,-670000,27000,-615000,97699.05396,41.51,17.38999939,-426.0753784,-89.76737976,149,6.741699696,6.337916374,-46.52610779,0,0
55:52.1,0.199666667,0.067,-0.076333333,-0.38245935,-0.026151067,8.2768126,-627000,14666.66667,-607333.3333,97697.86377,41.50666667,17.23499966,-426.0753784,-89.17557526,150,6.741699696,6.337916374,-46.52610779,0,0
55:52.2,0.209333333,0.071,-0.070666667,-0.392266,-0.032688833,8.1199062,-584000,2333.333333,-599666.6667,97696.67359,41.50333333,17.07999992,-426.0753784,-88.58377075,151,6.741699696,6.337916374,-46.52610779,0,0
55:52.2,0.219,0.075,-0.065,-0.40207265,-0.0392266,7.9629998,-541000,-10000,-592000,97695.4834,41.5,16.77999878,-392.1298828,-87.03477478,153,6.741699696,6.337916374,-46.52610779,0,0
55:52.2,0.189333333,0.078333333,-0.059,-0.428223717,0.003268883,7.6884136,-541000,-10000,-592000,97693.37362,41.49666667,16.77999878,-392.1298828,-87.03477478,153,6.741699696,6.337916374,-46.52610779,0,0
55:52.3,0.159666667,0.081666667,-0.053,-0.454374783,0.045764367,7.4138274,-541000,-10000,-592000,97691.26383,41.49333333,16.77999878,-392.1298828,-87.03477478,153,6.741699696,6.337916374,-46.52610779,0,0
55:52.3,0.13,0.085,-0.047,-0.48052585,0.08825985,7.1392412,-541000,-10000,-592000,97689.15405,41.49,16.63999939,-392.1298828,-86.45877457,154,5.807817698,8.271649362,-45.8075428,0,0
55:52.4,0.1305,0.08,-0.0365,-0.44129925,0.1569064,7.281437625,-537000,-17000,-588500,97687.75635,41.49,16.5,-392.1298828,-85.88277435,155,4.873935699,10.20538235,-45.08897781,0,0
55:52.4,0.131,0.075,-0.026,-0.40207265,0.22555295,7.42363405,-533000,-24000,-585000,97686.35864,41.49,16.5,-392.1298828,-85.88277435,155,4.873935699,10.20538235,-45.08897781,0,0
55:52.4,0.124333333,0.078666667,-0.029666667,-0.398803767,0.196133,7.479205067,-533000,-24000,-585000,97686.35864,41.49,16.38000012,-381.9037323,-85.11856461,156,4.873935699,10.20538235,-45.08897781,0,0
55:52.5,0.117666667,0.082333333,-0.033333333,-0.395534883,0.16671305,7.534776083,-533000,-24000,-585000,97686.35864,41.49,16.26000023,-371.6775818,-84.35435486,157,4.873935699,10.20538235,-45.08897781,0,0
55:52.5,0.111,0.086,-0.037,-0.392266,0.1372931,7.5903471,-533000,-24000,-585000,97686.35864,41.49,16.04999924,-371.6775818,-82.82292938,159,4.873935699,10.20538235,-45.08897781,0,0
55:52.6,0.084,0.097,-0.0395,-0.495235825,0.06864655,6.594972125,-511500,-32500,-581000,97682.89795,41.485,16.04999924,-371.6775818,-82.82292938,159,4.873935699,10.20538235,-45.08897781,0,0
55:52.6,0.057,0.108,-0.042,-0.59820565,6.86E-16,5.59959715,-490000,-41000,-577000,97679.43726,41.48,16.04999924,-371.6775818,-82.82292938,159,4.873935699,10.20538235,-45.08897781,0,0
55:52.6,0.103666667,0.099666667,-0.036333333,-0.555710167,-0.0196133,5.57998385,-489333.3333,-41000,-576333.3333,97677.43124,41.47666667,15.86999989,-341.3467407,-82.43808746,161,4.873935699,10.20538235,-45.08897781,0,0
55:52.7,0.150333333,0.091333333,-0.030666667,-0.513214683,-0.0392266,5.56037055,-488666.6667,-41000,-575666.6667,97675.42521,41.47333333,15.86999989,-341.3467407,-82.43808746,161,2.73141861,12.59490108,-44.7254982,0,0
55:52.7,0.197,0.083,-0.025,-0.4707192,-0.0588399,5.54075725,-488000,-41000,-575000,97673.41919,41.47,15.79999972,-341.3467407,-81.65778732,161.5,2.73141861,12.59490108,-44.7254982,0,0
55:52.8,0.162,0.065,-0.016,-0.57859235,0.06864655,6.4135491,-461000,-47000,-570000,97673.41919,41.47,15.72999954,-341.3467407,-80.87748718,162,2.73141861,12.59490108,-44.7254982,0,0
55:52.8,0.127,0.047,-0.007,-0.6864655,0.196133,7.28634095,-434000,-53000,-565000,97673.41919,41.47,15.72999954,-341.3467407,-80.87748718,162,2.73141861,12.59490108,-44.7254982,0,0
55:52.8,0.0645,0.0475,-0.0085,-0.57859235,0.2549729,7.408924075,-439500,-55500,-561500,97673.48633,41.47,15.63000011,-322.796051,-79.66105652,164,2.73141861,12.59490108,-44.7254982,0,0
55:52.9,0.002,0.048,-0.01,-0.4707192,0.3138128,7.5315072,-445000,-58000,-558000,97673.55347,41.47,15.63000011,-322.796051,-79.66105652,164,2.73141861,12.59490108,-44.7254982,0,0
55:52.9,0.021,0.0475,-0.0195,-0.453557563,0.30400615,7.754608488,-448500,-59500,-557500,97673.28797,41.4675,15.59499979,-322.796051,-78.87281799,165,2.73141861,12.59490108,-44.7254982,0,0
55:53.0,0.04,0.047,-0.029,-0.436395925,0.2941995,7.977709775,-452000,-61000,-557000,97673.02247,41.465,15.55999947,-322.796051,-78.08457947,166,2.73141861,12.59490108,-44.7254982,0,0
55:53.0,0.059,0.0465,-0.0385,-0.419234287,0.28439285,8.200811063,-455500,-62500,-556500,97672.75696,41.4625,15.53499938,-314.3311463,-77.31707764,167,2.73141861,12.59490108,-44.7254982,0,0
55:53.0,0.078,0.046,-0.048,-0.40207265,0.2745862,8.42391235,-459000,-64000,-556000,97672.49146,41.46,15.50999928,-305.8662415,-76.54957581,168,2.73141861,12.59490108,-44.7254982,0,0
55:53.1,0.123,0.066,-0.059,-0.38245935,0.2157463,7.89435325,-459000,-64000,-556000,97672.49146,41.46,15.50999928,-305.8662415,-76.54957581,168,2.73141861,12.59490108,-44.7254982,0,0
55:53.1,0.124666667,0.060666667,-0.064,-0.36284605,0.287661733,8.067604067,-459000,-64333.33333,-555666.6667,97672.62574,41.45666667,15.49499941,-305.8662415,-76.13154603,169,1.851178915,14.02278376,-44.58365059,0,0
55:53.2,0.126333333,0.055333333,-0.069,-0.34323275,0.359577167,8.240854883,-459000,-64666.66667,-555333.3333,97672.76001,41.45333333,15.47999954,-305.8662415,-75.71351624,170,0.970939219,15.45066643,-44.44180298,0,0
55:53.2,0.128,0.05,-0.074,-0.32361945,0.4314926,8.4141057,-459000,-65000,-555000,97672.89429,41.45,15.47666613,-299.0741069,-75.17006175,170.6666667,0.970939219,15.45066643,-44.44180298,0,0
55:53.2,0.165333333,0.048666667,-0.076666667,-0.3530394,0.4511059,8.446794533,-464000,-65666.66667,-553333.3333,97671.45996,41.44666667,15.47333272,-292.2819722,-74.62660726,171.3333333,0.970939219,15.45066643,-44.44180298,0,0
55:53.3,0.202666667,0.047333333,-0.079333333,-0.38245935,0.4707192,8.479483367,-469000,-66333.33333,-551666.6667,97670.02564,41.44333333,15.46999931,-285.4898376,-74.08315277,172,0.970939219,15.45066643,-44.44180298,0,0
55:53.3,0.24,0.046,-0.082,-0.4118793,0.4903325,8.5121722,-474000,-67000,-550000,97668.59131,41.44,15.47499943,-285.4898376,-73.38409043,172.5,0.970939219,15.45066643,-44.44180298,0,0
55:53.4,0.248,0.038,-0.085,-0.397169325,0.4903325,8.526882175,-474000,-67000,-550000,97668.59131,41.44,15.47999954,-285.4898376,-72.68502808,173,0.970939219,15.45066643,-44.44180298,0,0
55:53.4,0.256,0.03,-0.088,-0.38245935,0.4903325,8.54159215,-474000,-67000,-550000,97668.59131,41.44,15.47999954,-285.4898376,-72.68502808,173,0.970939219,15.45066643,-44.44180298,0,0
55:53.4,0.248333333,0.027333333,-0.098,-0.392266,0.48052585,8.593894283,-491000,-70000,-550666.6667,97668.00334,41.43666667,15.48999977,-279.1802368,-71.8621521,174,0.970939219,15.45066643,-44.44180298,0,0
55:53.5,0.240666667,0.024666667,-0.108,-0.40207265,0.4707192,8.646196417,-508000,-73000,-551333.3333,97667.41536,41.43333333,15.5,-272.870636,-71.03927612,175,0.970939219,15.45066643,-44.44180298,0,0
55:53.5,0.233,0.022,-0.118,-0.4118793,0.46091255,8.69849855,-525000,-76000,-552000,97666.82739,41.43,15.5,-272.870636,-71.03927612,175,0.970939219,15.45066643,-44.44180298,0,0
55:53.6,0.223,0.0125,-0.1275,-0.397169325,0.524655775,8.664175275,-525000,-76000,-552000,97666.82739,41.43,15.52999973,-272.870636,-69.40533447,177,-0.637024343,20.8181591,-42.64986038,0,0
55:53.6,0.213,0.003,-0.137,-0.38245935,0.588399,8.629852,-525000,-76000,-552000,97666.82739,41.43,15.52999973,-272.870636,-69.40533447,177,-0.637024343,20.8181591,-42.64986038,0,0
55:53.6,0.212333333,-0.004666667,-0.145333333,-0.310543917,0.493601383,8.832522767,-541333.3333,-79000,-550333.3333,97669.94425,41.42666667,15.57999992,-263.5776367,-67.59275818,179,-0.637024343,20.8181591,-42.64986038,0,0
55:53.7,0.211666667,-0.012333333,-0.153666667,-0.238628483,0.398803767,9.035193533,-557666.6667,-82000,-548666.6667,97673.06112,41.42333333,15.60999966,-264.077652,-66.75085068,180,-0.637024343,20.8181591,-42.64986038,0,0
55:53.7,0.211,-0.02,-0.162,-0.16671305,0.30400615,9.2378643,-574000,-85000,-547000,97676.17798,41.42,15.63999939,-264.5776672,-65.90894318,181,-0.637024343,20.8181591,-42.64986038,0,0
55:53.8,0.217,-0.020666667,-0.163,-0.173250817,0.297468383,9.293435317,-552000,-90666.66667,-543333.3333,97674.6521,41.41666667,15.63999939,-264.5776672,-65.90894318,181,-0.637024343,20.8181591,-42.64986038,0,0
55:53.8,0.223,-0.021333333,-0.164,-0.179788583,0.290930617,9.349006333,-530000,-96333.33333,-539666.6667,97673.12622,41.41333333,15.63999939,-264.5776672,-65.90894318,181,-0.637024343,20.8181591,-42.64986038,0,0
55:53.8,0.229,-0.022,-0.165,-0.18632635,0.28439285,9.40457735,-508000,-102000,-536000,97671.60034,41.41,15.71000004,-262.0502319,-64.25772858,182,-0.637024343,20.8181591,-42.64986038,0,0
55:53.9,0.214,-0.029,-0.163,-0.0980665,0.5687857,9.20844435,-508000,-102000,-536000,97671.60034,41.41,15.71000004,-262.0502319,-64.25772858,182,-0.637024343,20.8181591,-42.64986038,0,0
55:53.9,0.215666667,-0.04,-0.17,-0.094797617,0.506676917,9.332661917,-524666.6667,-98333.33333,-537333.3333,97670.95744,41.41,15.75499964,-262.0502319,-63.23640061,183,-1.1813564,23.30522347,-41.03287697,0,0
55:54.0,0.217333333,-0.051,-0.177,-0.091528733,0.444568133,9.456879483,-541333.3333,-94666.66667,-538666.6667,97670.31453,41.41,15.79999924,-262.0502319,-62.21507263,184,-1.725688457,25.79228783,-39.41589355,0,0
55:54.0,0.219,-0.062,-0.184,-0.08825985,0.38245935,9.58109705,-558000,-91000,-540000,97669.67163,41.41,15.79999924,-262.0502319,-62.21507263,184,-1.725688457,25.79228783,-39.41589355,0,0
55:54.0,0.2195,-0.0485,-0.185,-0.053936575,0.465815875,9.5320638,-538500,-95000,-537500,97671.67969,41.41,15.89999962,-254.8774719,-60.53840256,186,-1.725688457,25.79228783,-39.41589355,0,0
55:54.1,0.22,-0.035,-0.186,-0.0196133,0.5491724,9.48303055,-519000,-99000,-535000,97673.68774,41.41,15.89999962,-254.8774719,-60.53840256,186,-1.725688457,25.79228783,-39.41589355,0,0
55:54.1,0.211333333,-0.044666667,-0.186333333,0.016344417,0.604743417,9.505912733,-548333.3333,-95666.66667,-533333.3333,97675.35604,41.40666667,16.01000023,-254.8774719,-46.24184799,188,-1.725688457,25.79228783,-39.41589355,0,0
55:54.2,0.202666667,-0.054333333,-0.186666667,0.052302133,0.660314433,9.528794917,-577666.6667,-92333.33333,-531666.6667,97677.02433,41.40333333,16.01000023,-254.8774719,-46.24184799,188,-1.725688457,25.79228783,-39.41589355,0,0
55:54.2,0.194,-0.064,-0.187,0.08825985,0.71588545,9.5516771,-607000,-89000,-530000,97678.69263,41.4,16.01000023,-254.8774719,-46.24184799,188,-1.725688457,25.79228783,-39.41589355,0,0
55:54.2,0.254333333,-0.083,-0.195333333,0.0980665,0.71588545,9.724927917,-603333.3333,-91333.33333,-529666.6667,97679.84823,41.39666667,16.12999916,-257.4319763,-44.75017548,189,-1.725688457,25.79228783,-39.41589355,0,0
55:54.3,0.314666667,-0.102,-0.203666667,0.10787315,0.71588545,9.898178733,-599666.6667,-93666.66667,-529333.3333,97681.00382,41.39333333,16.12999916,-257.4319763,-44.75017548,189,-1.725688457,25.79228783,-39.41589355,0,0
55:54.3,0.375,-0.121,-0.212,0.1176798,0.71588545,10.07142955,-596000,-96000,-529000,97682.15942,41.39,16.12999916,-257.4319763,-44.75017548,189,-1.725688457,25.79228783,-39.41589355,0,0
55:54.4,0.347,-0.1285,-0.219,0.122583125,0.61781895,10.0420096,-596000,-96000,-529000,97682.15942,41.39,16.26000023,-257.4319763,-43.23624039,191,-1.725688457,25.79228783,-39.41589355,0,0
55:54.4,0.319,-0.136,-0.226,0.12748645,0.51975245,10.01258965,-596000,-96000,-529000,97682.15942,41.39,16.33500004,-262.5519715,-42.46813965,192,-2.146798968,29.34123135,-36.68608665,0,0
55:54.4,0.286,-0.1465,-0.22,0.2157463,0.661948875,10.3165958,-627500,-96500,-527000,97680.23377,41.39,16.40999985,-267.6719666,-41.70003891,193,-2.567909479,32.89017487,-33.95627975,0,0
55:54.5,0.253,-0.157,-0.214,0.30400615,0.8041453,10.62060195,-659000,-97000,-525000,97678.30811,41.39,16.48999977,-267.6719666,-40.9096756,193.5,-2.567909479,32.89017487,-33.95627975,0,0
55:54.5,0.225666667,-0.158,-0.221,0.326888333,0.784532,10.78077723,-673333.3333,-95333.33333,-525666.6667,97682.16553,41.38666667,16.56999969,-267.6719666,-40.11931229,194,-2.567909479,32.89017487,-33.95627975,0,0
55:54.6,0.198333333,-0.159,-0.228,0.349770517,0.7649187,10.94095252,-687666.6667,-93666.66667,-526333.3333,97686.02295,41.38333333,16.56999969,-267.6719666,-40.11931229,194,-2.567909479,32.89017487,-33.95627975,0,0
55:54.6,0.171,-0.16,-0.235,0.3726527,0.7453054,11.1011278,-702000,-92000,-527000,97689.88037,41.38,16.72999954,-270.4294128,-38.52745056,196,-2.567909479,32.89017487,-33.95627975,0,0
55:54.6,0.163,-0.1585,-0.2425,0.3726527,0.779628675,10.8657682,-719000,-94500,-527000,97689.88037,41.38,16.72999954,-270.4294128,-38.52745056,196,-2.567909479,32.89017487,-33.95627975,0,0
55:54.7,0.155,-0.157,-0.25,0.3726527,0.81395195,10.6304086,-736000,-97000,-527000,97689.88037,41.38,16.81499958,-270.4294128,-37.70369148,197,-2.567909479,32.89017487,-33.95627975,0,0
55:54.7,0.1665,-0.1735,-0.2535,0.44129925,0.81395195,10.78241168,-783250,-86750,-533500,97691.22467,41.3775,16.89999962,-270.4294128,-36.8799324,198,-2.567909479,32.89017487,-33.95627975,0,0
55:54.8,0.178,-0.19,-0.257,0.5099458,0.81395195,10.93441475,-830500,-76500,-540000,97692.56897,41.375,16.89999962,-270.4294128,-36.8799324,198,-2.640901804,35.2286129,-30.84974861,0,0
55:54.8,0.1895,-0.2065,-0.2605,0.57859235,0.81395195,11.08641783,-877750,-66250,-546500,97693.91327,41.3725,16.89999962,-270.4294128,-36.8799324,198,-2.713894129,37.56705093,-27.74321747,0,0
55:54.8,0.201,-0.223,-0.264,0.6472389,0.81395195,11.2384209,-925000,-56000,-553000,97695.25757,41.37,16.98999977,-283.9817963,-36.0394764,198.5,-2.713894129,37.56705093,-27.74321747,0,0
55:54.9,0.189,-0.24,-0.27,0.8041453,0.61781895,12.160246,-925000,-56000,-553000,97695.25757,41.37,17.07999992,-297.5341797,-35.19902039,199,-2.713894129,37.56705093,-27.74321747,0,0
55:54.9,0.17975,-0.24775,-0.26775,0.81395195,0.718337113,12.42257389,-952250,-51750,-555000,97697.25189,41.3675,17.17500019,-297.5341797,-34.34743119,200,-2.713894129,37.56705093,-27.74321747,0,0
55:55.0,0.1705,-0.2555,-0.2655,0.8237586,0.818855275,12.68490178,-979500,-47500,-557000,97699.24622,41.365,17.27000046,-297.5341797,-33.49584198,201,-2.713894129,37.56705093,-27.74321747,0,0
55:55.0,0.16125,-0.26325,-0.26325,0.83356525,0.919373438,12.94722966,-1006750,-43250,-559000,97701.24054,41.3625,17.36499977,-312.5347138,-32.6219883,202,-2.713894129,37.56705093,-27.74321747,0,0
55:55.0,0.152,-0.271,-0.261,0.8433719,1.0198916,13.20955755,-1034000,-39000,-561000,97703.23486,41.36,17.45999908,-327.5352478,-31.74813461,203,-2.713894129,37.56705093,-27.74321747,0,0
55:55.1,0.108,-0.2715,-0.2635,1.0002783,0.8629852,13.2193642,-1066500,-34500,-569000,97704.10156,41.355,17.45999908,-327.5352478,-31.74813461,203,-2.713894129,37.56705093,-27.74321747,0,0
55:55.1,0.064,-0.272,-0.266,1.1571847,0.7060788,13.22917085,-1099000,-30000,-577000,97704.96826,41.35,17.55499935,-327.5352478,-30.86314964,203.5,-2.713894129,37.56705093,-27.74321747,0,0
55:55.2,0.0705,-0.2755,-0.2675,1.113054775,0.8433719,13.11149105,-1099000,-30000,-577000,97704.96826,41.35,17.64999962,-327.5352478,-29.97816467,204,-2.713894129,37.56705093,-27.74321747,0,0
55:55.2,0.077,-0.279,-0.269,1.06892485,0.980665,12.99381125,-1099000,-30000,-577000,97704.96826,41.35,17.64999962,-327.5352478,-29.97816467,204,-2.713894129,37.56705093,-27.74321747,0,0
55:55.2,0.096,-0.2915,-0.2805,1.08853815,0.965955025,13.1605243,-1147500,-15500,-587000,97704.28467,41.345,17.74499989,-332.9342804,-29.05421829,205,-2.355459869,39.50192642,-23.0603199,0,0
55:55.3,0.115,-0.304,-0.292,1.10815145,0.95124505,13.32723735,-1196000,-1000,-597000,97703.60107,41.34,17.84000015,-338.333313,-28.13027191,206,-1.997025609,41.43680191,-18.37742233,0,0
55:55.3,0.137,-0.312,-0.290666667,1.238906783,0.87279185,13.47760598,-1209666.667,2000,-598666.6667,97705.24699,41.34,17.93000031,-338.333313,-27.21189118,206.5,-1.997025609,41.43680191,-18.37742233,0,0
55:55.4,0.159,-0.32,-0.289333333,1.369662117,0.79433865,13.62797462,-1223333.333,5000,-600333.3333,97706.8929,41.34,18.02000046,-338.333313,-26.29351044,207,-1.997025609,41.43680191,-18.37742233,0,0
55:55.4,0.181,-0.328,-0.288,1.50041745,0.71588545,13.77834325,-1237000,8000,-602000,97708.53882,41.34,18.02000046,-338.333313,-26.29351044,207,-1.997025609,41.43680191,-18.37742233,0,0
55:55.4,0.194,-0.3395,-0.279,1.524934075,0.750208725,14.05783278,-1241500,16000,-608500,97710.96497,41.335,18.19999886,-373.5119019,-24.37882805,209,-1.997025609,41.43680191,-18.37742233,0,0
55:55.5,0.207,-0.351,-0.27,1.5494507,0.784532,14.3373223,-1246000,24000,-615000,97713.39111,41.33,18.19999886,-373.5119019,-24.37882805,209,-1.997025609,41.43680191,-18.37742233,0,0
55:55.5,0.208666667,-0.358666667,-0.259666667,1.53964405,0.8237586,14.7295883,-1150000,24000,-616666.6667,97713.55591,41.33,18.27999878,-373.5119019,-23.42705155,209.5,-1.997025609,41.43680191,-18.37742233,0,0
55:55.6,0.210333333,-0.366333333,-0.249333333,1.5298374,0.8629852,15.1218543,-1054000,24000,-618333.3333,97713.7207,41.33,18.3599987,-373.5119019,-22.47527504,210,-1.997025609,41.43680191,-18.37742233,0,0
55:55.6,0.212,-0.374,-0.239,1.52003075,0.9022118,15.5141203,-958000,24000,-620000,97713.8855,41.33,18.3599987,-373.5119019,-22.47527504,210,-1.997025609,41.43680191,-18.37742233,0,0
55:55.6,0.15,-0.372,-0.2335,1.603387275,1.064021525,15.38663385,-998000,31500,-618000,97714.19983,41.325,18.51000023,-404.5524597,-20.52719498,212,-1.997025609,41.43680191,-18.37742233,0,0
55:55.7,0.088,-0.37,-0.228,1.6867438,1.22583125,15.2591474,-1038000,39000,-616000,97714.51416,41.32,18.51000023,-404.5524597,-20.52719498,212,-1.997025609,41.43680191,-18.37742233,0,0
55:55.7,0.087333333,-0.371666667,-0.239666667,1.732508167,1.163722467,15.22645857,-1128666.667,43000,-628666.6667,97719.36849,41.32,18.64999962,-404.5524597,-18.57911491,213,-0.119394056,46.2936058,-5.9646101,0,0
55:55.8,0.086666667,-0.373333333,-0.251333333,1.778272533,1.101613683,15.19376973,-1219333.333,47000,-641333.3333,97724.22282,41.32,18.64999962,-404.5524597,-18.57911491,213,-0.119394056,46.2936058,-5.9646101,0,0
55:55.8,0.086,-0.375,-0.263,1.8240369,1.0395049,15.1610809,-1310000,51000,-654000,97729.07715,41.32,18.64999962,-404.5524597,-18.57911491,213,-0.119394056,46.2936058,-5.9646101,0,0
55:55.8,0.057333333,-0.376666667,-0.264666667,1.889414567,1.062387083,15.45854928,-1385000,61666.66667,-660000,97729.07715,41.32,18.76000023,-427.4044189,-16.56424332,215,-0.119394056,46.2936058,-5.9646101,0,0
55:55.9,0.028666667,-0.378333333,-0.266333333,1.954792233,1.085269267,15.75601767,-1460000,72333.33333,-666000,97729.07715,41.32,18.76000023,-427.4044189,-16.56424332,215,-0.119394056,46.2936058,-5.9646101,0,0
55:55.9,0,-0.38,-0.268,2.0201699,1.10815145,16.05348605,-1535000,83000,-672000,97729.07715,41.32,18.76000023,-427.4044189,-16.56424332,215,-0.119394056,46.2936058,-5.9646101,0,0
55:56.0,-0.0035,-0.371,-0.2735,1.9417167,1.230734575,16.1025193,-1333000,88000,-673000,97729.17176,41.315,18.86999893,-427.4044189,-14.56050491,216,-0.119394056,46.2936058,-5.9646101,0,0
55:56.0,-0.007,-0.362,-0.279,1.8632635,1.3533177,16.15155255,-1131000,93000,-674000,97729.26636,41.31,18.86999893,-427.4044189,-14.56050491,216,-0.119394056,46.2936058,-5.9646101,0,0
55:56.0,-0.01875,-0.36025,-0.28375,1.868166825,1.3533177,15.96767786,-1000000,97750,-676250,97729.03748,41.3075,18.91499901,-451.1114197,-13.56420136,216.5,-0.119394056,46.2936058,-5.9646101,0,0
55:56.1,-0.0305,-0.3585,-0.2885,1.87307015,1.3533177,15.78380318,-869000,102500,-678500,97728.8086,41.305,18.95999908,-474.8184204,-12.5678978,217,-0.119394056,46.2936058,-5.9646101,0,0
55:56.1,-0.04225,-0.35675,-0.29325,1.877973475,1.3533177,15.59992849,-738000,107250,-680750,97728.57971,41.3025,18.98666572,-474.8184204,-11.88885276,217.3333333,-0.119394056,46.2936058,-5.9646101,0,0
55:56.2,-0.054,-0.355,-0.298,1.8828768,1.3533177,15.4160538,-607000,112000,-683000,97728.35083,41.3,19.01333237,-474.8184204,-11.20980771,217.6666667,-0.119394056,46.2936058,-5.9646101,0,0
55:56.2,-0.0705,-0.352,-0.303,1.858360175,1.38273765,15.34250393,-869500,115000,-693500,97730.16663,41.3,19.03999901,-474.8184204,-10.53076267,218,-0.119394056,46.2936058,-5.9646101,0,0
55:56.2,-0.087,-0.349,-0.308,1.83384355,1.4121576,15.26895405,-1132000,118000,-704000,97731.98242,41.3,19.09000015,-519.1413574,-8.538155556,219,-0.119394056,46.2936058,-5.9646101,0,0
55:56.3,-0.102,-0.3495,-0.319,2.0005566,1.250347875,15.07282105,-1657000,136000,-721000,97729.5044,41.295,19.09000015,-519.1413574,-8.538155556,219,1.387239218,47.26695633,9.697495461,0,0
55:56.3,-0.117,-0.35,-0.33,2.16726965,1.08853815,14.87668805,-2182000,154000,-738000,97727.02637,41.29,19.11499977,-519.1413574,-7.530719996,219.5,1.387239218,47.26695633,9.697495461,0,0
55:56.4,-0.097666667,-0.351333333,-0.336666667,2.0790098,1.072193733,14.94206572,-2121000,155666.6667,-738666.6667,97730.05371,41.29,19.13999939,-519.1413574,-6.523284435,220,1.387239218,47.26695633,9.697495461,0,0
55:56.4,-0.078333333,-0.352666667,-0.343333333,1.99074995,1.055849317,15.00744338,-2060000,157333.3333,-739333.3333,97733.08106,41.29,19.15499974,-533.404419,-5.515848875,220.5,1.387239218,47.26695633,9.697495461,0,0
55:56.4,-0.059,-0.354,-0.35,1.9024901,1.0395049,15.07282105,-1999000,159000,-740000,97736.1084,41.29,19.17000008,-547.6674805,-4.508413315,221,1.387239218,47.26695633,9.697495461,0,0
55:56.5,-0.061,-0.3655,-0.338,1.8044236,0.980665,15.298374,-1517500,154500,-731000,97732.34558,41.285,19.17000008,-547.6674805,-4.508413315,221,1.387239218,47.26695633,9.697495461,0,0
55:56.5,-0.063,-0.377,-0.326,1.7063571,0.9218251,15.52392695,-1036000,150000,-722000,97728.58276,41.28,19.17333349,-547.6674805,-3.851632118,221.3333333,1.387239218,47.26695633,9.697495461,0,0
55:56.6,-0.060666667,-0.38,-0.313666667,1.699819333,0.928362867,15.49123812,-931333.3333,142333.3333,-719333.3333,97728.90014,41.28,19.1766669,-547.6674805,-3.194850922,221.6666667,1.387239218,47.26695633,9.697495461,0,0
55:56.6,-0.058333333,-0.383,-0.301333333,1.693281567,0.934900633,15.45854928,-826666.6667,134666.6667,-716666.6667,97729.21753,41.28,19.18000031,-547.6674805,-2.538069725,222,1.387239218,47.26695633,9.697495461,0,0
55:56.6,-0.056,-0.386,-0.289,1.6867438,0.9414384,15.42586045,-722000,127000,-714000,97729.53491,41.28,19.18000031,-568.6943055,-1.575161696,222.5,1.387239218,47.26695633,9.697495461,0,0
55:56.7,-0.061,-0.387,-0.289,1.779906975,0.8433719,15.50921698,-722000,127000,-714000,97729.53491,41.28,19.18000031,-589.7211304,-0.612253666,223,1.387239218,47.26695633,9.697495461,0,0
55:56.7,-0.066,-0.388,-0.289,1.87307015,0.7453054,15.5925735,-722000,127000,-714000,97729.53491,41.28,19.1750002,-589.7211304,0.294994951,223,1.645684779,46.7797699,15.78972674,0,0
55:56.8,-0.1075,-0.3955,-0.2695,1.730873725,0.838468575,16.1025193,-257500,133000,-714000,97732.85523,41.275,19.17000008,-589.7211304,1.202243567,223,1.90413034,46.29258347,21.88195801,0,0
55:56.8,-0.149,-0.403,-0.25,1.5886773,0.93163175,16.6124651,207000,139000,-714000,97736.17554,41.27,19.13999939,-604.5778198,3.016740799,224,1.90413034,46.29258347,21.88195801,0,0
55:56.8,-0.167,-0.4135,-0.252,1.5886773,0.83356525,16.90176128,207000,139000,-714000,97736.17554,41.27,19.13999939,-604.5778198,3.016740799,224,1.90413034,46.29258347,21.88195801,0,0
55:56.9,-0.185,-0.424,-0.254,1.5886773,0.73549875,17.19105745,207000,139000,-714000,97736.17554,41.27,19.13999939,-604.5778198,3.016740799,224,1.90413034,46.29258347,21.88195801,0,0
55:56.9,-0.141333333,-0.413666667,-0.241666667,1.640979433,0.79433865,16.89032018,-36000,141333.3333,-718666.6667,97732.69654,41.26666667,19.11499977,-604.5778198,3.935121298,224.5,1.90413034,46.29258347,21.88195801,0,0
