time,field.angular_velocity.x,field.angular_velocity.y,field.angular_velocity.z,field.linear_acceleration.x,field.linear_acceleration.y,field.linear_acceleration.z,field.magnetic_field.x,field.magnetic_field.y,field.magnetic_field.z,field.fluid_pressure,field.temperature,field.alt_error,field.aspd_error,field.xtrack_error,field.wp_dist,field.measured.pitch,field.measured.roll,field.measured.yaw,fault_state,field.airspeed
2018-09-11 22:05:28.960,0.653,-0.004,-0.206,-0.196133,0.1372931,7.8257067,316000.0,-369000.0,-332000.0,97876.70898,37.9,0.0949999985,-466.7238159,-39.8939886075,3.5,-2.802027464,-1.174986959,-78.98274231,0.0,0.0
2018-09-11 22:05:29.000,0.7110000000000001,-0.045,-0.181,-0.2745862,0.0392266,8.4533323,296000.0,-356000.0,-336000.0,97875.482175,37.9,0.109999999,-466.7238159,-39.41511154,4.0,-2.802027464,-1.174986959,-78.98274231,0.0,0.0
2018-09-11 22:05:29.040,0.769,-0.086,-0.156,-0.3530394,-0.0588399,9.0809579,276000.0,-343000.0,-340000.0,97874.25537,37.9,0.209999993,-478.5396729,-37.50795746,6.0,-3.947096825,5.603793144,-76.25088501,0.0,0.0
2018-09-11 22:05:29.080,0.7805,-0.0995,-0.12,-0.3530394,-0.053936575,9.7085835,290000.0,-371500.0,-328000.0,97871.975705,37.9,0.237499993,-478.5396729,-75.58598899500001,6.5,-3.947096825,5.603793144,-76.25088501,0.0,0.0
2018-09-11 22:05:29.120,0.792,-0.113,-0.084,-0.3530394,-0.04903325,10.3362091,304000.0,-400000.0,-316000.0,97869.69604,37.9,0.264999993,-478.5396729,-113.66402053,7.0,-3.947096825,5.603793144,-76.25088501,0.0,0.0
2018-09-11 22:05:29.160,0.8026666666666666,-0.1043333333333333,-0.0613333333333333,-0.3530394,-0.0751843166666666,10.54214875,309666.6666666667,-416666.6666666667,-304000.0,97871.25447333332,37.9,0.2924999929999999,-478.5396729,-151.742052065,7.5,-3.947096825,5.603793144,-76.25088501,0.0,0.0
2018-09-11 22:05:29.200,0.8133333333333334,-0.0956666666666666,-0.0386666666666666,-0.3530394,-0.1013353833333333,10.7480884,315333.3333333333,-433333.3333333333,-292000.0,97872.81290666666,37.9,0.319999993,-478.5396729,-189.8200836,8.0,-3.947096825,5.603793144,-76.25088501,0.0,0.0
2018-09-11 22:05:29.240,0.824,-0.087,-0.016,-0.3530394,-0.12748645,10.95402805,321000.0,-450000.0,-280000.0,97874.37134,37.9,0.429999977,-371.2286072,-187.9389496,9.0,-3.947096825,5.603793144,-76.25088501,0.0,0.0
2018-09-11 22:05:29.280,0.7916666666666666,-0.1013333333333333,0.0033333333333333,-0.3301572166666666,0.0555710166666666,11.07170785,326000.0,-463333.3333333333,-274000.0,97873.05705,37.9,0.429999977,-371.2286072,-187.9389496,9.0,-3.947096825,5.603793144,-76.25088501,0.0,0.0
2018-09-11 22:05:29.320,0.7593333333333333,-0.1156666666666666,0.0226666666666666,-0.3072750333333333,0.2386284833333333,11.18938765,331000.0,-476666.6666666667,-268000.0,97871.74276,37.9,0.519999981,-371.2286072,-186.0521088,11.0,-2.522883654,20.31264496,-74.63201904,0.0,0.0
2018-09-11 22:05:29.360,0.727,-0.13,0.042,-0.28439285,0.42168595,11.30706745,336000.0,-490000.0,-262000.0,97870.42847,37.9,0.519999981,-371.2286072,-186.0521088,11.0,-2.522883654,20.31264496,-74.63201904,0.0,0.0
2018-09-11 22:05:29.400,0.599,-0.176,0.032,-0.181423025,0.5982056499999999,11.821916575,364000.0,-523500.0,-227000.0,97872.665405,37.895,0.519999981,-371.2286072,-186.0521088,11.0,-2.522883654,20.31264496,-74.63201904,0.0,0.0
2018-09-11 22:05:29.440,0.471,-0.222,0.022,-0.0784532,0.77472535,12.3367657,392000.0,-557000.0,-192000.0,97874.90234,37.89,0.610000014,-377.8379517,-184.1710358,13.0,-2.522883654,20.31264496,-74.63201904,0.0,0.0
2018-09-11 22:05:29.480,0.432,-0.2423333333333333,-0.0026666666666666,0.0163444166666666,0.83356525,12.552512,417000.0,-582333.3333333334,-168000.0,97875.56152,37.89,0.610000014,-377.8379517,-184.1710358,13.0,-2.522883654,20.31264496,-74.63201904,0.0,0.0
2018-09-11 22:05:29.520,0.3929999999999999,-0.2626666666666666,-0.0273333333333333,0.1111420333333333,0.89240515,12.7682583,442000.0,-607666.6666666666,-144000.0,97876.2207,37.89,0.6399999855,-377.8379517,-183.2396927,14.0,-2.522883654,20.31264496,-74.63201904,0.0,0.0
2018-09-11 22:05:29.560,0.354,-0.283,-0.052,0.20593965,0.95124505,12.9840046,467000.0,-633000.0,-120000.0,97876.87988,37.89,0.669999957,-377.8379517,-182.3083496,15.0,-2.522883654,20.31264496,-74.63201904,0.0,0.0
2018-09-11 22:05:29.600,0.3555,-0.2555,-0.1025,0.30400615,1.0983448,12.930068025,508500.0,-691500.0,-69500.0,97881.52771,37.895,0.689999968,-381.60906985,-181.3603897,16.0,-2.522883654,20.31264496,-74.63201904,0.0,0.0
2018-09-11 22:05:29.640,0.357,-0.228,-0.153,0.40207265,1.24544455,12.87613145,550000.0,-750000.0,-19000.0,97886.17554,37.9,0.709999979,-385.380188,-180.4124298,17.0,-2.522883654,20.31264496,-74.63201904,0.0,0.0
2018-09-11 22:05:29.680,0.3359999999999999,-0.2375,-0.17475,0.5687857,1.18660465,12.9643913,587500.0,-779500.0,11750.0,97885.691835,37.8975,0.709999979,-385.380188,-180.4124298,17.0,-2.522883654,20.31264496,-74.63201904,0.0,0.0
2018-09-11 22:05:29.720,0.315,-0.247,-0.1965,0.7354987499999999,1.12776475,13.05265115,625000.0,-809000.0,42500.0,97885.20813,37.895,0.716666639,-385.380188,-179.7919515,17.666666666666668,-1.2564616603333334,23.8329347,-73.71258799,0.0,0.0
2018-09-11 22:05:29.760,0.294,-0.2565,-0.21825,0.9022118,1.06892485,13.140911,662500.0,-838500.0,73250.0,97884.724425,37.8925,0.723333299,-385.380188,-179.1714732,18.33333333333333,0.0099603333333333,27.35322444,-72.79315694,0.0,0.0
2018-09-11 22:05:29.800,0.273,-0.266,-0.24,1.06892485,1.01008495,13.22917085,700000.0,-868000.0,104000.0,97884.24072,37.89,0.729999959,-385.380188,-178.5509949,19.0,1.276382327,30.87351418,-71.87372589,0.0,0.0
2018-09-11 22:05:29.840,0.254,-0.217,-0.245,1.22583125,0.9022118,13.72931,758000.0,-968000.0,148000.0,97892.13867,37.89,0.729999959,-396.2572021,-176.6735382,21.0,1.276382327,30.87351418,-71.87372589,0.0,0.0
2018-09-11 22:05:29.880,0.2655,-0.253,-0.245,1.3778343249999998,0.818855275,13.577306925,799000.0,-991000.0,195000.0,97894.55261,37.89,0.729999959,-396.2572021,-176.6735382,21.0,1.276382327,30.87351418,-71.87372589,0.0,0.0
2018-09-11 22:05:29.920,0.277,-0.289,-0.245,1.5298374,0.73549875,13.42530385,840000.0,-1014000.0,242000.0,97896.96655,37.89,0.709999979,-396.2572021,-174.7984009,23.0,1.276382327,30.87351418,-71.87372589,0.0,0.0
2018-09-11 22:05:29.960,0.235,-0.3063333333333333,-0.2323333333333333,1.6017528333333333,0.8401030166666666,13.4351105,876000.0,-1031666.6666666666,265666.6666666667,97895.98999,37.89,0.709999979,-396.2572021,-174.7984009,23.0,1.276382327,30.87351418,-71.87372589,0.0,0.0
2018-09-11 22:05:30.000,0.193,-0.3236666666666666,-0.2196666666666666,1.673668266666667,0.9447072833333334,13.44491715,912000.0,-1049333.3333333333,289333.3333333333,97895.01343,37.89,0.709999979,-396.2572021,-174.7984009,23.0,1.276382327,30.87351418,-71.87372589,0.0,0.0
2018-09-11 22:05:30.040,0.151,-0.341,-0.207,1.7455837,1.04931155,13.4547238,948000.0,-1067000.0,313000.0,97894.03687,37.89,0.680000007,-333.9718018,-172.9038239,24.0,2.801634789,36.1944313,-66.09069824,0.0,0.0
2018-09-11 22:05:30.080,0.155,-0.33875,-0.22,1.8019719375,1.0272465875,13.97447625,969000.0,-1087750.0,332250.0,97896.29517,37.89,0.680000007,-333.9718018,-172.9038239,24.0,2.801634789,36.1944313,-66.09069824,0.0,0.0
2018-09-11 22:05:30.120,0.159,-0.3365,-0.2329999999999999,1.858360175,1.005181625,14.4942287,990000.0,-1108500.0,351500.0,97898.55347,37.89,0.6666666666666666,-333.9718018,-172.2853292,24.666666666666668,2.801634789,36.1944313,-66.09069824,0.0,0.0
2018-09-11 22:05:30.160,0.163,-0.33425,-0.246,1.9147484125,0.9831166625,15.01398115,1011000.0,-1129250.0,370750.0,97900.81177,37.89,0.6533333263333333,-333.9718018,-171.6668345,25.33333333333333,2.801634789,36.1944313,-66.09069824,0.0,0.0
2018-09-11 22:05:30.200,0.167,-0.332,-0.259,1.97113665,0.9610517,15.5337336,1032000.0,-1150000.0,390000.0,97903.07007,37.89,0.639999986,-333.9718018,-171.0483398,26.0,2.801634789,36.1944313,-66.09069824,0.0,0.0
2018-09-11 22:05:30.240,0.136,-0.261,-0.24,1.9221034,0.99047165,15.26895405,984000.0,-1114000.0,358000.0,97898.97461,37.88,0.569999993,-361.7107544,-169.1894836,28.0,2.801634789,36.1944313,-66.09069824,0.0,0.0
2018-09-11 22:05:30.280,0.1,-0.2573333333333333,-0.2339999999999999,1.87307015,1.0329671333333337,14.66094175,980666.6666666666,-1114666.6666666667,353333.3333333333,97899.63786,37.88,0.569999993,-361.7107544,-169.1894836,28.0,2.801634789,36.1944313,-66.09069824,0.0,0.0
2018-09-11 22:05:30.320,0.064,-0.2536666666666666,-0.228,1.8240369,1.0754626166666668,14.05292945,977333.3333333334,-1115333.3333333333,348666.6666666667,97900.30111,37.88,0.48999998,-361.7107544,-167.3306885,30.0,2.801634789,36.1944313,-66.09069824,0.0,0.0
2018-09-11 22:05:30.360,0.028,-0.25,-0.222,1.77500365,1.1179581,13.44491715,974000.0,-1116000.0,344000.0,97900.96436,37.88,0.48999998,-361.7107544,-167.3306885,30.0,2.801634789,36.1944313,-66.09069824,0.0,0.0
2018-09-11 22:05:30.400,-0.0145,-0.304,-0.2385,1.701453775,1.132668075,13.3958839,970000.0,-1117500.0,348000.0,97903.62854,37.88,0.48999998,-361.7107544,-167.3306885,30.0,2.801634789,36.1944313,-66.09069824,0.0,0.0
2018-09-11 22:05:30.440,-0.057,-0.358,-0.255,1.6279039,1.14737805,13.34685065,966000.0,-1119000.0,352000.0,97906.29272,37.88,0.389999986,-404.5793457,-165.5040894,32.0,2.801634789,36.1944313,-66.09069824,0.0,0.0
2018-09-11 22:05:30.480,-0.0516666666666666,-0.3573333333333333,-0.2676666666666666,1.69655045,1.1212269833333333,13.634512383333334,968666.6666666666,-1114666.6666666667,346333.3333333333,97905.11677666666,37.88,0.389999986,-404.5793457,-165.5040894,32.0,5.5898633,40.25359344,-55.5820694,0.0,0.0
2018-09-11 22:05:30.520,-0.0463333333333333,-0.3566666666666666,-0.2803333333333333,1.765197,1.0950759166666666,13.922174116666666,971333.3333333334,-1110333.3333333333,340666.6666666667,97903.94083333334,37.88,0.3349999935,-404.5793457,-164.5925522,33.0,5.5898633,40.25359344,-55.5820694,0.0,0.0
2018-09-11 22:05:30.560,-0.041,-0.356,-0.293,1.83384355,1.06892485,14.20983585,974000.0,-1106000.0,335000.0,97902.76489,37.88,0.280000001,-404.5793457,-163.681015,34.0,5.5898633,40.25359344,-55.5820694,0.0,0.0
2018-09-11 22:05:30.600,-0.0083333333333333,-0.323,-0.2983333333333333,1.8371124333333333,0.9839338833333332,14.157533716666666,973000.0,-1105000.0,338000.0,97901.87174333334,37.88,0.2399999993333333,-404.0637919,-163.09057106666666,34.333333333333336,5.5898633,40.25359344,-55.5820694,0.0,0.0
2018-09-11 22:05:30.640,0.0243333333333333,-0.29,-0.3036666666666666,1.8403813166666667,0.8989429166666666,14.105231583333332,972000.0,-1104000.0,341000.0,97900.97859666668,37.88,0.1999999976666666,-403.5482381,-162.50012713333334,34.666666666666664,5.5898633,40.25359344,-55.5820694,0.0,0.0
2018-09-11 22:05:30.680,0.057,-0.257,-0.309,1.8436502,0.81395195,14.05292945,971000.0,-1103000.0,344000.0,97900.08545,37.88,0.159999996,-403.0326843,-161.9096832,35.0,5.5898633,40.25359344,-55.5820694,0.0,0.0
2018-09-11 22:05:30.720,0.044,-0.3145,-0.3,1.83384355,0.828661925,14.09215605,968000.0,-1102500.0,341000.0,97896.33484,37.88,0.029999999,-403.0326843,-160.1533051,37.0,5.5898633,40.25359344,-55.5820694,0.0,0.0
2018-09-11 22:05:30.760,0.031,-0.372,-0.291,1.8240369,0.8433719,14.13138265,965000.0,-1102000.0,338000.0,97892.58423,37.88,0.029999999,-403.0326843,-160.1533051,37.0,5.5898633,40.25359344,-55.5820694,0.0,0.0
2018-09-11 22:05:30.800,-0.0665,-0.402,-0.261,1.93191005,0.89240515,14.9453346,971500.0,-1101000.0,339500.0,97893.29834,37.88,0.029999999,-403.0326843,-160.1533051,37.0,5.5898633,40.25359344,-55.5820694,0.0,0.0
2018-09-11 22:05:30.840,-0.164,-0.432,-0.231,2.0397832,0.9414384,15.75928655,978000.0,-1100000.0,341000.0,97894.01245,37.88,-0.119999997,-431.6253662,-158.460144,39.0,6.7407794,41.8167305,-47.01669693,0.0,0.0
2018-09-11 22:05:30.880,-0.186,-0.4255,-0.2175,2.0005566,0.97085835,15.872063025,977000.0,-1098000.0,334500.0,97893.273925,37.88,-0.119999997,-431.6253662,-158.460144,39.0,6.7407794,41.8167305,-47.01669693,0.0,0.0
2018-09-11 22:05:30.920,-0.208,-0.419,-0.204,1.96133,1.0002783,15.9848395,976000.0,-1096000.0,328000.0,97892.5354,37.88,-0.280000001,-431.6253662,-156.7865753,41.0,6.7407794,41.8167305,-47.01669693,0.0,0.0
2018-09-11 22:05:30.960,-0.238,-0.4163333333333333,-0.1953333333333333,1.9155656333333333,1.06892485,16.223467983333332,972333.3333333334,-1096000.0,322000.0,97891.84773666666,37.876666666666665,-0.280000001,-431.6253662,-156.7865753,41.0,6.7407794,41.8167305,-47.01669693,0.0,0.0
2018-09-11 22:05:31.000,-0.268,-0.4136666666666666,-0.1866666666666666,1.8698012666666668,1.1375714,16.46209646666667,968666.6666666666,-1096000.0,316000.0,97891.16007333332,37.873333333333335,-0.280000001,-431.6253662,-156.7865753,41.0,6.7407794,41.8167305,-47.01669693,0.0,0.0
2018-09-11 22:05:31.040,-0.298,-0.411,-0.178,1.8240369,1.20621795,16.70072495,965000.0,-1096000.0,310000.0,97890.47241,37.87,-0.48999998,-448.1252747,-155.1923065,42.0,6.7407794,41.8167305,-47.01669693,0.0,0.0
2018-09-11 22:05:31.080,-0.3246666666666666,-0.4023333333333333,-0.1926666666666666,1.8763390333333327,1.2585200833333334,16.821673633333333,960666.6666666666,-1091000.0,307666.6666666667,97890.85286333332,37.873333333333335,-0.54749997725,-448.1252747,-154.80551144999998,42.5,6.7407794,41.8167305,-47.01669693,0.0,0.0
2018-09-11 22:05:31.120,-0.3513333333333333,-0.3936666666666666,-0.2073333333333333,1.9286411666666667,1.3108222166666668,16.942622316666668,956333.3333333334,-1086000.0,305333.3333333333,97891.23331666666,37.876666666666665,-0.6049999745,-448.1252747,-154.4187164,43.0,6.7407794,41.8167305,-47.01669693,0.0,0.0
2018-09-11 22:05:31.160,-0.378,-0.385,-0.222,1.9809433,1.36312435,17.063571,952000.0,-1081000.0,303000.0,97891.61377,37.88,-0.73749997475,-448.753555325,-153.666683175,43.75,8.770485165,40.105812075,-42.479146955,0.0,0.0
2018-09-11 22:05:31.200,-0.418,-0.3375,-0.2365,1.995653275,1.20621795,16.77917815,950500.0,-1072500.0,297500.0,97887.07886,37.875,-0.869999975,-449.38183595,-152.91464995,44.5,10.80019093,38.39489365,-37.94159698,0.0,0.0
2018-09-11 22:05:31.240,-0.458,-0.29,-0.251,2.01036325,1.04931155,16.4947853,949000.0,-1064000.0,292000.0,97882.54395,37.87,-0.944999978,-450.010116575,-152.549411775,44.75,10.80019093,38.39489365,-37.94159698,0.0,0.0
2018-09-11 22:05:31.280,-0.4616666666666666,-0.2643333333333333,-0.247,1.96133,0.9283628666666668,16.145014783333334,943000.0,-1061666.6666666667,288000.0,97879.52881333334,37.87,-1.019999981,-450.6383972,-152.1841736,45.0,10.80019093,38.39489365,-37.94159698,0.0,0.0
2018-09-11 22:05:31.320,-0.4653333333333333,-0.2386666666666666,-0.243,1.91229675,0.8074141833333334,15.795244266666666,937000.0,-1059333.3333333333,284000.0,97876.51367666668,37.87,-1.1799999475,-450.6383972,-151.47725680000002,46.0,10.80019093,38.39489365,-37.94159698,0.0,0.0
2018-09-11 22:05:31.360,-0.469,-0.213,-0.239,1.8632635,0.6864655,15.44547375,931000.0,-1057000.0,280000.0,97873.49854,37.87,-1.339999914,-450.6383972,-150.77034,47.0,10.80019093,38.39489365,-37.94159698,0.0,0.0
2018-09-11 22:05:31.400,-0.4855,-0.151,-0.2279999999999999,1.75539035,0.6423355749999999,14.048026125,934000.0,-1044500.0,273000.0,97873.29407,37.87,-1.339999914,-450.6383972,-150.77034,47.0,10.80019093,38.39489365,-37.94159698,0.0,0.0
2018-09-11 22:05:31.440,-0.502,-0.089,-0.217,1.6475172,0.59820565,12.6505785,937000.0,-1032000.0,266000.0,97873.0896,37.87,-1.730000019,-445.4259949,-149.4529877,49.0,10.80019093,38.39489365,-37.94159698,0.0,0.0
2018-09-11 22:05:31.480,-0.5246666666666666,-0.13,-0.1876666666666666,1.6409794333333334,0.6014745333333333,12.26811915,936333.3333333334,-1026666.6666666666,257666.66666666663,97869.54345666668,37.87,-1.730000019,-445.4259949,-149.4529877,49.0,11.68094921,31.85048294,-32.05438995,0.0,0.0
2018-09-11 22:05:31.520,-0.5473333333333333,-0.1709999999999999,-0.1583333333333333,1.6344416666666666,0.6047434166666666,11.8856598,935666.6666666666,-1021333.3333333334,249333.3333333333,97865.99731333334,37.87,-1.9249999525,-445.4259949,-148.8092499,49.5,11.68094921,31.85048294,-32.05438995,0.0,0.0
2018-09-11 22:05:31.560,-0.57,-0.212,-0.129,1.6279039,0.6080123,11.50320045,935000.0,-1016000.0,241000.0,97862.45117,37.87,-2.119999886,-445.4259949,-148.1655121,50.0,11.68094921,31.85048294,-32.05438995,0.0,0.0
2018-09-11 22:05:31.600,-0.6565,-0.1475,-0.115,1.662227175,0.809048625,12.0033396,927000.0,-1006000.0,237000.0,97861.80725,37.87,-2.329999924,-436.65924075,-147.56139374999998,50.5,11.68094921,31.85048294,-32.05438995,0.0,0.0
2018-09-11 22:05:31.640,-0.743,-0.083,-0.101,1.69655045,1.01008495,12.50347875,919000.0,-996000.0,233000.0,97861.16333,37.87,-2.539999962,-427.8924866,-146.9572754,51.0,11.68094921,31.85048294,-32.05438995,0.0,0.0
2018-09-11 22:05:31.680,-0.7413333333333333,-0.0863333333333333,-0.1143333333333333,1.6867438,0.91201845,12.055641733333331,917000.0,-986000.0,225000.0,97860.21321666669,37.87,-2.539999962,-427.8924866,-146.9572754,51.0,11.68094921,31.85048294,-32.05438995,0.0,0.0
2018-09-11 22:05:31.720,-0.7396666666666667,-0.0896666666666666,-0.1276666666666666,1.67693715,0.81395195,11.607804716666664,915000.0,-976000.0,217000.0,97859.26310333332,37.87,-2.7549999955,-427.8924866,-146.35775754999997,52.0,11.68094921,31.85048294,-32.05438995,0.0,0.0
2018-09-11 22:05:31.760,-0.738,-0.093,-0.141,1.6671305,0.71588545,11.1599677,913000.0,-966000.0,209000.0,97858.31299,37.87,-2.970000029,-427.8924866,-145.7582397,53.0,11.68094921,31.85048294,-32.05438995,0.0,0.0
2018-09-11 22:05:31.800,-0.7045,-0.107,-0.142,1.691647125,0.8237586,11.792496625,913000.0,-949000.0,197000.0,97856.607055,37.87,-2.970000029,-427.8924866,-145.7582397,53.0,11.68094921,31.85048294,-32.05438995,0.0,0.0
2018-09-11 22:05:31.840,-0.671,-0.121,-0.143,1.71616375,0.93163175,12.42502555,913000.0,-932000.0,185000.0,97854.90112,37.87,-3.429999828,-427.2092896,-144.609726,54.0,11.68094921,31.85048294,-32.05438995,0.0,0.0
2018-09-11 22:05:31.880,-0.6543333333333333,-0.069,-0.1396666666666666,1.6802060333333333,0.8172208333333333,11.951037466666667,907000.0,-927000.0,181666.66666666663,97852.20743666666,37.86666666666667,-3.659999847,-427.2092896,-144.0417862,55.0,11.68094921,31.85048294,-32.05438995,0.0,0.0
2018-09-11 22:05:31.920,-0.6376666666666667,-0.017,-0.1363333333333333,1.6442483166666666,0.7028099166666667,11.477049383333334,901000.0,-922000.0,178333.33333333334,97849.51375333332,37.86333333333333,-3.889999866,-427.2092896,-143.4738464,56.0,11.68094921,31.85048294,-32.05438995,0.0,0.0
2018-09-11 22:05:31.960,-0.621,0.035,-0.133,1.6082906,0.588399,11.0030613,895000.0,-917000.0,175000.0,97846.82007,37.86,-3.889999866,-427.2092896,-143.4738464,56.0,13.22400665,15.75348949,-27.16483307,0.0,0.0
2018-09-11 22:05:32.000,-0.6194999999999999,0.023,-0.118,1.632807225,0.55897905,10.4931155,899500.0,-897500.0,172000.0,97843.22815,37.86,-3.889999866,-427.2092896,-143.4738464,56.0,13.22400665,15.75348949,-27.16483307,0.0,0.0
2018-09-11 22:05:32.040,-0.618,0.011,-0.103,1.65732385,0.5295591,9.9831697,904000.0,-878000.0,169000.0,97839.63623,37.86,-4.389999866,-404.4023438,-142.3678131,57.0,13.22400665,15.75348949,-27.16483307,0.0,0.0
2018-09-11 22:05:32.080,-0.5775,-0.0414999999999999,-0.0849999999999999,1.711260425,0.5197524499999999,10.380339025,900500.0,-859000.0,164000.0,97839.175415,37.86,-4.389999866,-404.4023438,-142.3678131,57.0,13.22400665,15.75348949,-27.16483307,0.0,0.0
2018-09-11 22:05:32.120,-0.537,-0.094,-0.067,1.765197,0.5099458,10.77750835,897000.0,-840000.0,159000.0,97838.7146,37.86,-4.389999866,-404.4023438,-142.3678131,57.0,13.22400665,15.75348949,-27.16483307,0.0,0.0
2018-09-11 22:05:32.160,-0.5173333333333333,-0.082,-0.0563333333333333,1.7848103,0.4674503166666666,10.555224283333333,896000.0,-831666.6666666666,158333.33333333334,97835.80932666668,37.86,-4.889999866,-404.4023438,-141.2629242,59.0,13.22400665,15.75348949,-27.16483307,0.0,0.0
2018-09-11 22:05:32.200,-0.4976666666666666,-0.07,-0.0456666666666666,1.8044236,0.4249548333333333,10.332940216666668,895000.0,-823333.3333333334,157666.66666666666,97832.90405333332,37.86,-5.1499998565,-393.9559937,-140.71736145,59.5,13.22400665,15.75348949,-27.16483307,0.0,0.0
2018-09-11 22:05:32.240,-0.478,-0.058,-0.035,1.8240369,0.38245935,10.11065615,894000.0,-815000.0,157000.0,97829.99878,37.86,-5.409999847,-383.5096436,-140.1717987,60.0,13.22400665,15.75348949,-27.16483307,0.0,0.0
2018-09-11 22:05:32.280,-0.4406666666666666,-0.0706666666666666,-0.0266666666666666,1.8501879666666667,0.5132146833333333,10.852692666666668,896000.0,-809666.6666666666,152666.66666666666,97828.2959,37.86,-5.409999847,-383.5096436,-140.1717987,60.0,13.22400665,15.75348949,-27.16483307,0.0,0.0
2018-09-11 22:05:32.320,-0.4033333333333333,-0.0833333333333333,-0.0183333333333333,1.8763390333333327,0.6439700166666666,11.594729183333332,898000.0,-804333.3333333334,148333.33333333334,97826.59302,37.86,-5.920000076,-383.5096436,-139.1001892,61.0,13.22400665,15.75348949,-27.16483307,0.0,0.0
2018-09-11 22:05:32.360,-0.366,-0.096,-0.01,1.9024901,0.77472535,12.3367657,900000.0,-799000.0,144000.0,97824.89014,37.86,-5.920000076,-383.5096436,-139.1001892,61.0,13.758804795,9.6345329265,-26.2603426,0.0,0.0
2018-09-11 22:05:32.400,-0.3606666666666666,-0.1216666666666666,-0.0133333333333333,1.8992212166666669,0.7126165666666666,12.186397066666668,893000.0,-794333.3333333334,145666.66666666666,97823.64909,37.86,-5.920000076,-383.5096436,-139.1001892,61.0,14.29360294,3.515576363,-25.35585213,0.0,0.0
2018-09-11 22:05:32.440,-0.3553333333333333,-0.1473333333333333,-0.0166666666666666,1.8959523333333328,0.6505077833333334,12.036028433333334,886000.0,-789666.6666666666,147333.33333333334,97822.40804,37.86,-6.46999979,-366.0119934,-138.0079041,63.0,14.29360294,3.515576363,-25.35585213,0.0,0.0
2018-09-11 22:05:32.480,-0.35,-0.173,-0.02,1.89268345,0.588399,11.8856598,879000.0,-785000.0,149000.0,97821.16699,37.86,-6.60749983775,-366.0119934,-137.737697625,63.25,14.29360294,3.515576363,-25.35585213,0.0,0.0
2018-09-11 22:05:32.520,-0.3169999999999999,-0.121,-0.0065,1.907393425,0.55897905,11.792496625,876000.0,-778500.0,144500.0,97814.608765,37.855,-6.7449998855,-366.0119934,-137.46749115,63.5,14.29360294,3.515576363,-25.35585213,0.0,0.0
2018-09-11 22:05:32.560,-0.284,-0.069,0.007,1.9221034,0.5295591,11.69933345,873000.0,-772000.0,140000.0,97808.05054,37.85,-6.88249993325,-366.0119934,-137.197284675,63.75,14.29360294,3.515576363,-25.35585213,0.0,0.0
2018-09-11 22:05:32.600,-0.2594999999999999,-0.0675,0.0095,1.887780125,0.544269075,11.1599677,868500.0,-760000.0,144500.0,97807.11365,37.85,-7.019999981,-366.0119934,-136.9270782,64.0,14.29360294,3.515576363,-25.35585213,0.0,0.0
2018-09-11 22:05:32.640,-0.235,-0.066,0.012,1.85345685,0.55897905,10.62060195,864000.0,-748000.0,149000.0,97806.17676,37.85,-7.609999657,-342.5109863,-135.8588409,66.0,14.29360294,3.515576363,-25.35585213,0.0,0.0
2018-09-11 22:05:32.680,-0.2055,-0.0445,0.015,1.87307015,0.51975245,10.34601575,865500.0,-745500.0,145000.0,97801.571655,37.85,-7.609999657,-342.5109863,-135.8588409,66.0,16.33680534,-1.353520274,-25.21889305,0.0,0.0
2018-09-11 22:05:32.720,-0.176,-0.023,0.018,1.89268345,0.48052585,10.07142955,867000.0,-743000.0,141000.0,97796.96655,37.85,-8.199999809,-342.5109863,-134.7722473,67.0,16.33680534,-1.353520274,-25.21889305,0.0,0.0
2018-09-11 22:05:32.760,-0.1536666666666666,-0.0366666666666666,0.0273333333333333,1.8959523333333328,0.4674503166666666,10.025665183333333,862333.3333333334,-741000.0,144666.66666666666,97794.99715,37.85,-8.199999809,-342.5109863,-134.7722473,67.0,16.33680534,-1.353520274,-25.21889305,0.0,0.0
2018-09-11 22:05:32.800,-0.1313333333333333,-0.0503333333333333,0.0366666666666666,1.8992212166666669,0.4543747833333333,9.979900816666667,857666.6666666666,-739000.0,148333.33333333334,97793.02775,37.85,-8.5049996375,-319.16275025000004,-134.2335205,68.0,16.33680534,-1.353520274,-25.21889305,0.0,0.0
2018-09-11 22:05:32.840,-0.109,-0.064,0.046,1.9024901,0.44129925,9.93413645,853000.0,-737000.0,152000.0,97791.05835,37.85,-8.809999466,-295.8145142,-133.6947937,69.0,16.33680534,-1.353520274,-25.21889305,0.0,0.0
2018-09-11 22:05:32.880,-0.0835,-0.0975,0.0505,1.868166825,0.4903324999999999,10.066526225,861500.0,-728500.0,147500.0,97786.14197,37.85,-8.959999561250001,-295.8145142,-133.423423775,69.25,16.33680534,-1.353520274,-25.21889305,0.0,0.0
2018-09-11 22:05:32.920,-0.058,-0.131,0.055,1.83384355,0.53936575,10.198916,870000.0,-720000.0,143000.0,97781.22559,37.85,-9.1099996565,-295.8145142,-133.15205385000002,69.5,16.33680534,-1.353520274,-25.21889305,0.0,0.0
2018-09-11 22:05:32.960,-0.0593333333333333,-0.1023333333333333,0.047,1.8828768,0.4347614833333333,10.0616229,862666.6666666666,-725666.6666666666,144333.33333333334,97778.31014333334,37.85,-9.25999975175,-295.8145142,-132.88068392500003,69.75,16.33680534,-1.353520274,-25.21889305,0.0,0.0
2018-09-11 22:05:33.000,-0.0606666666666666,-0.0736666666666666,0.039,1.93191005,0.3301572166666666,9.9243298,855333.3333333334,-731333.3333333334,145666.66666666666,97775.39469666668,37.85,-9.409999847,-295.8145142,-132.609314,70.0,16.33680534,-1.353520274,-25.21889305,0.0,0.0
2018-09-11 22:05:33.040,-0.062,-0.045,0.031,1.9809433,0.22555295,9.7870367,848000.0,-737000.0,147000.0,97772.47925,37.85,-10.01000023,-273.1533203,-131.5180664,71.0,16.33680534,-1.353520274,-25.21889305,0.0,0.0
2018-09-11 22:05:33.080,-0.1316666666666666,-0.0683333333333333,0.0536666666666666,2.043052083333333,0.30400615,10.391780116666666,849333.3333333334,-730333.3333333334,145333.33333333334,97772.09269333334,37.85,-10.01000023,-273.1533203,-131.5180664,71.0,16.33680534,-1.353520274,-25.21889305,0.0,0.0
2018-09-11 22:05:33.120,-0.2013333333333333,-0.0916666666666666,0.0763333333333333,2.105160866666667,0.38245935,10.996523533333333,850666.6666666666,-723666.6666666666,143666.66666666666,97771.70613666666,37.85,-10.31500006,-273.1533203,-130.97243500000002,72.0,17.113555905,-2.903413236,-25.81622219,0.0,0.0
2018-09-11 22:05:33.160,-0.271,-0.115,0.099,2.16726965,0.46091255,11.60126695,852000.0,-717000.0,142000.0,97771.31958,37.85,-10.61999989,-273.1533203,-130.4268036,73.0,17.89030647,-4.453306198,-26.41355133,0.0,0.0
2018-09-11 22:05:33.200,-0.309,-0.1265,0.119,2.280046125,0.61781895,12.341669025,850000.0,-716000.0,141000.0,97764.630125,37.845,-10.92999983,-253.24049375,-129.8840332,73.5,17.89030647,-4.453306198,-26.41355133,0.0,0.0
2018-09-11 22:05:33.240,-0.347,-0.138,0.139,2.3928226,0.77472535,13.0820711,848000.0,-715000.0,140000.0,97757.94067,37.84,-11.23999977,-233.3276672,-129.3412628,74.0,17.89030647,-4.453306198,-26.41355133,0.0,0.0
2018-09-11 22:05:33.280,-0.244,-0.102,0.1085,2.3339827,0.8629852,12.9055514,839500.0,-713500.0,144000.0,97755.673215,37.84,-11.23999977,-233.3276672,-129.3412628,74.0,17.89030647,-4.453306198,-26.41355133,0.0,0.0
2018-09-11 22:05:33.320,-0.141,-0.066,0.078,2.2751428,0.95124505,12.7290317,831000.0,-712000.0,148000.0,97753.40576,37.84,-11.88000011,-233.3276672,-128.2511139,76.0,17.89030647,-4.453306198,-26.41355133,0.0,0.0
2018-09-11 22:05:33.360,-0.094,-0.0446666666666666,0.0536666666666666,2.258798383333333,0.9643205833333334,12.114481633333334,832333.3333333334,-705333.3333333334,147000.0,97750.77921333331,37.84,-11.88000011,-233.3276672,-128.2511139,76.0,17.89030647,-4.453306198,-26.41355133,0.0,0.0
2018-09-11 22:05:33.400,-0.047,-0.0233333333333333,0.0293333333333333,2.2424539666666665,0.9773961166666668,11.499931566666666,833666.6666666666,-698666.6666666666,146000.0,97748.15266666666,37.84,-11.88000011,-233.3276672,-128.2511139,76.0,17.89030647,-4.453306198,-26.41355133,0.0,0.0
2018-09-11 22:05:33.440,0.0,-0.002,0.005,2.22610955,0.99047165,10.8853815,835000.0,-692000.0,145000.0,97745.52612,37.84,-12.53999996,-205.7989197,-127.1505966,77.0,17.89030647,-4.453306198,-26.41355133,0.0,0.0
2018-09-11 22:05:33.480,0.003,-0.01,-0.032,2.2359162,0.7256921000000001,11.007964625,833500.0,-695000.0,145000.0,97743.89343,37.84,-12.53999996,-205.7989197,-127.1505966,77.0,19.27742577,-8.614905357,-28.3991394,0.0,0.0
2018-09-11 22:05:33.520,0.006,-0.018,-0.069,2.24572285,0.46091255,11.13054775,832000.0,-698000.0,145000.0,97742.26074,37.84,-12.53999996,-205.7989197,-127.1505966,77.0,19.27742577,-8.614905357,-28.3991394,0.0,0.0
2018-09-11 22:05:33.560,0.0813333333333333,-0.0206666666666666,-0.0553333333333333,2.2555295,0.3661149333333333,10.71866845,835000.0,-697333.3333333334,145666.66666666666,97737.37589333332,37.836666666666666,-13.21000004,-205.7989197,-126.0408783,78.0,19.27742577,-8.614905357,-28.3991394,0.0,0.0
2018-09-11 22:05:33.600,0.1566666666666666,-0.0233333333333333,-0.0416666666666666,2.26533615,0.2713173166666667,10.30678915,838000.0,-696666.6666666666,146333.33333333334,97732.49104666666,37.833333333333336,-13.21000004,-205.7989197,-126.0408783,78.0,19.27742577,-8.614905357,-28.3991394,0.0,0.0
2018-09-11 22:05:33.640,0.232,-0.026,-0.028,2.2751428,0.1765197,9.89490985,841000.0,-696000.0,147000.0,97727.6062,37.83,-13.559999945,-178.19729615,-125.484848,79.0,19.27742577,-8.614905357,-28.3991394,0.0,0.0
2018-09-11 22:05:33.680,0.2866666666666667,-0.032,-0.0183333333333333,2.2686050333333334,0.1372931,9.741272333333333,835333.3333333334,-699000.0,147666.66666666666,97726.24715,37.83,-13.90999985,-150.5956726,-124.9288177,80.0,19.27742577,-8.614905357,-28.3991394,0.0,0.0
2018-09-11 22:05:33.720,0.3413333333333334,-0.038,-0.0086666666666666,2.2620672666666666,0.0980665,9.587634816666666,829666.6666666666,-702000.0,148333.33333333334,97724.8881,37.83,-14.25499964,-150.5956726,-124.3687706,80.5,19.27742577,-8.614905357,-28.3991394,0.0,0.0
2018-09-11 22:05:33.760,0.396,-0.044,0.001,2.2555295,0.0588399,9.4339973,824000.0,-705000.0,149000.0,97723.52905,37.83,-14.59999943,-150.5956726,-123.8087235,81.0,19.27742577,-8.614905357,-28.3991394,0.0,0.0
2018-09-11 22:05:33.800,0.3715,-0.057,0.045,2.309466075,0.152003075,9.95374975,830000.0,-710000.0,152000.0,97720.26672,37.83,-14.59999943,-150.5956726,-123.8087235,81.0,19.27742577,-8.614905357,-28.3991394,0.0,0.0
2018-09-11 22:05:33.840,0.347,-0.07,0.089,2.36340265,0.24516625,10.4735022,836000.0,-715000.0,155000.0,97717.00439,37.83,-15.27999973,-108.4102631,-122.6863022,83.0,19.27742577,-8.614905357,-28.3991394,0.0,0.0
2018-09-11 22:05:33.880,0.347,-0.0225,0.097,2.18688295,0.279489525,9.821359975,802500.0,-709500.0,126500.0,97711.404415,37.83,-15.27999973,-108.4102631,-122.6863022,83.0,19.27742577,-8.614905357,-28.3991394,0.0,0.0
2018-09-11 22:05:33.920,0.347,0.025,0.105,2.01036325,0.3138128,9.16921775,769000.0,-704000.0,98000.0,97705.80444,37.83,-15.96999931,-108.4102631,-121.5684662,84.0,20.23395538,-2.795488834,-28.86755943,0.0,0.0
2018-09-11 22:05:33.960,0.3409999999999999,0.0419999999999999,0.102,1.9221034,0.30400615,8.731187383333333,718000.0,-660666.6666666666,56333.333333333336,97704.66511666669,37.83,-15.96999931,-108.4102631,-121.5684662,84.0,20.23395538,-2.795488834,-28.86755943,0.0,0.0
2018-09-11 22:05:34.000,0.335,0.059,0.099,1.83384355,0.2941995,8.293157016666667,667000.0,-617333.3333333334,14666.666666666672,97703.52579333332,37.83,-15.96999931,-108.4102631,-121.5684662,84.0,20.23395538,-2.795488834,-28.86755943,0.0,0.0
2018-09-11 22:05:34.040,0.329,0.076,0.096,1.7455837,0.28439285,7.85512665,616000.0,-574000.0,-27000.0,97702.38647,37.83,-16.64999962,-86.89041138,-120.4609451,85.0,20.23395538,-2.795488834,-28.86755943,0.0,0.0
2018-09-11 22:05:34.080,0.2645,0.077,0.0875,1.59848395,0.210842975,8.497462225,564000.0,-544000.0,-53000.0,97691.16821,37.83,-16.64999962,-86.89041138,-120.4609451,85.0,20.23395538,-2.795488834,-28.86755943,0.0,0.0
2018-09-11 22:05:34.120,0.2,0.078,0.079,1.4513842,0.1372931,9.1397978,512000.0,-514000.0,-79000.0,97679.94995,37.83,-17.29999924,-86.89041138,-119.3614883,87.0,20.23395538,-2.795488834,-28.86755943,0.0,0.0
2018-09-11 22:05:34.160,0.21675,0.0965,0.081,1.328801075,0.2770378625,8.585722075,491500.0,-484750.0,-102250.0,97678.23944,37.83,-17.29999924,-86.89041138,-119.3614883,87.0,20.23395538,-2.795488834,-28.86755943,0.0,0.0
2018-09-11 22:05:34.200,0.2335,0.1149999999999999,0.0829999999999999,1.20621795,0.416782625,8.031646349999999,471000.0,-455500.0,-125500.0,97676.52893,37.83,-17.51666578,-75.68702698,-118.99996436666667,87.33333333333333,20.23395538,-2.795488834,-28.86755943,0.0,0.0
2018-09-11 22:05:34.240,0.25025,0.1335,0.0849999999999999,1.083634825,0.5565273875000001,7.477570625,450500.0,-426250.0,-148750.0,97674.81842,37.83,-17.73333232,-64.48364258,-118.63844043333332,87.66666666666667,20.23395538,-2.795488834,-28.86755943,0.0,0.0
2018-09-11 22:05:34.280,0.267,0.152,0.087,0.9610517,0.69627215,6.9234949,430000.0,-397000.0,-172000.0,97673.10791,37.83,-17.94999886,-53.28025818,-118.2769165,88.0,20.23395538,-2.795488834,-28.86755943,0.0,0.0
2018-09-11 22:05:34.320,0.233,0.1679999999999999,0.0564999999999999,0.907115125,0.740402075,6.276256,387000.0,-397500.0,-192000.0,97668.569945,37.83,-18.56999969,-53.28025818,-117.2038422,89.0,20.23395538,-2.795488834,-28.86755943,0.0,0.0
2018-09-11 22:05:34.360,0.199,0.184,0.026,0.85317855,0.784532,5.6290171,344000.0,-398000.0,-212000.0,97664.03198,37.83,-18.56999969,-53.28025818,-117.2038422,89.0,18.809560775,0.4224510194999999,-30.293878555,0.0,0.0
2018-09-11 22:05:34.400,0.129,0.206,0.0045,0.838468575,0.740402075,5.682953675,333000.0,-385000.0,-235000.0,97657.89795,37.825,-18.56999969,-53.28025818,-117.2038422,89.0,17.38516617,3.640390873,-31.72019768,0.0,0.0
2018-09-11 22:05:34.440,0.059,0.228,-0.017,0.8237586,0.69627215,5.73689025,322000.0,-372000.0,-258000.0,97651.76392,37.82,-19.15999985,-30.88760376,-116.1422272,90.0,17.38516617,3.640390873,-31.72019768,0.0,0.0
2018-09-11 22:05:34.480,0.0365,0.209,-0.04,0.7649187,0.65704555,5.56037055,304000.0,-366000.0,-277500.0,97646.789555,37.82,-19.43999958,-30.88760376,-115.6114273,91.0,17.38516617,3.640390873,-31.72019768,0.0,0.0
2018-09-11 22:05:34.520,0.014,0.19,-0.063,0.7060788,0.61781895,5.38385085,286000.0,-360000.0,-297000.0,97641.81519,37.82,-19.71999931,-30.88760376,-115.0806274,92.0,17.38516617,3.640390873,-31.72019768,0.0,0.0
2018-09-11 22:05:34.560,0.0433333333333333,0.203,-0.0713333333333333,0.6505077833333334,0.588399,5.838225633333333,282666.6666666667,-347000.0,-302000.0,97638.22428666666,37.82,-19.71999931,-30.88760376,-115.0806274,92.0,17.38516617,3.640390873,-31.72019768,0.0,0.0
2018-09-11 22:05:34.600,0.0726666666666666,0.216,-0.0796666666666666,0.5949367666666666,0.5589790499999999,6.292600416666667,279333.3333333333,-334000.0,-307000.0,97634.63338333332,37.82,-19.96999931,-14.7148609165,-114.0719528,92.5,17.38516617,3.640390873,-31.72019768,0.0,0.0
2018-09-11 22:05:34.640,0.102,0.229,-0.088,0.53936575,0.5295591,6.7469752,276000.0,-321000.0,-312000.0,97631.04248,37.82,-20.21999931,1.457881927,-113.0632782,93.0,17.38516617,3.640390873,-31.72019768,0.0,0.0
2018-09-11 22:05:34.680,0.074,0.2443333333333333,-0.0976666666666666,0.5066769166666667,0.4151481833333333,6.308944833333333,276666.6666666667,-319666.6666666667,-320333.3333333333,97627.28881666668,37.82,-20.21999931,1.457881927,-113.0632782,93.0,17.38516617,3.640390873,-31.72019768,0.0,0.0
2018-09-11 22:05:34.720,0.046,0.2596666666666667,-0.1073333333333333,0.4739880833333333,0.3007372666666666,5.870914466666666,277333.3333333333,-318333.3333333333,-328666.6666666667,97623.53515333332,37.82,-20.70999908,0.457859039,-111.9654236,94.0,17.38516617,3.640390873,-31.72019768,0.0,0.0
2018-09-11 22:05:34.760,0.018,0.275,-0.117,0.44129925,0.18632635,5.4328841,278000.0,-317000.0,-337000.0,97619.78149,37.82,-20.70999908,0.457859039,-111.9654236,94.0,17.38516617,3.640390873,-31.72019768,0.0,0.0
2018-09-11 22:05:34.800,0.065,0.2685,-0.109,0.426589275,0.1765197,5.967346525,270000.0,-305500.0,-343500.0,97618.91174,37.82,-20.70999908,0.457859039,-111.9654236,94.0,17.38516617,3.640390873,-31.72019768,0.0,0.0
2018-09-11 22:05:34.840,0.112,0.262,-0.101,0.4118793,0.16671305,6.50180895,262000.0,-294000.0,-350000.0,97618.04199,37.82,-21.13999939,16.76111221,-109.4891663,96.0,17.38516617,3.640390873,-31.72019768,0.0,0.0
2018-09-11 22:05:34.880,0.1516666666666666,0.274,-0.0816666666666666,0.3791904666666666,0.1601752833333333,6.488733416666666,259000.0,-291000.0,-352333.3333333333,97615.07975,37.82,-21.13999939,16.76111221,-109.4891663,96.0,10.55970001,6.001145363,-30.27137375,0.0,0.0
2018-09-11 22:05:34.920,0.1913333333333333,0.286,-0.0623333333333333,0.3465016333333333,0.1536375166666666,6.475657883333334,256000.0,-288000.0,-354666.6666666667,97612.11751,37.82,-21.344999315,17.26117134,-108.92499165,96.5,10.55970001,6.001145363,-30.27137375,0.0,0.0
2018-09-11 22:05:34.960,0.231,0.298,-0.043,0.3138128,0.14709975,6.46258235,253000.0,-285000.0,-357000.0,97609.15527,37.82,-21.54999924,17.76123047,-108.360817,97.0,10.55970001,6.001145363,-30.27137375,0.0,0.0
2018-09-11 22:05:35.000,0.235,0.3105,-0.0349999999999999,0.3138128,0.18632635,5.486820675000001,258500.0,-286500.0,-364000.0,97606.280515,37.815,-21.54999924,17.76123047,-108.360817,97.0,10.55970001,6.001145363,-30.27137375,0.0,0.0
2018-09-11 22:05:35.040,0.239,0.323,-0.027,0.3138128,0.22555295,4.511059,264000.0,-288000.0,-371000.0,97603.40576,37.81,-21.93000031,34.91230011,-107.2525558,98.0,10.55970001,6.001145363,-30.27137375,0.0,0.0
2018-09-11 22:05:35.080,0.2453333333333333,0.3116666666666666,-0.0263333333333333,0.2484351333333333,0.2320907166666666,4.615663266666667,261666.66666666663,-284000.0,-371666.6666666667,97602.23795333332,37.81,-21.93000031,34.91230011,-107.2525558,98.0,10.55970001,6.001145363,-30.27137375,0.0,0.0
2018-09-11 22:05:35.120,0.2516666666666666,0.3003333333333333,-0.0256666666666666,0.1830574666666666,0.2386284833333333,4.720267533333334,259333.3333333333,-280000.0,-372333.3333333333,97601.07014666668,37.81,-22.09999943,34.91230011,-61.559823015,98.5,10.55970001,6.001145363,-30.27137375,0.0,0.0
2018-09-11 22:05:35.160,0.258,0.289,-0.025,0.1176798,0.24516625,4.8248718,257000.0,-276000.0,-373000.0,97599.90234,37.81,-22.26999855,34.91230011,-15.86709023,99.0,10.55970001,6.001145363,-30.27137375,0.0,0.0
2018-09-11 22:05:35.200,0.455,0.3085,-0.0545,0.112776475,0.30400615,4.692482025,259500.0,-279500.0,-376000.0,97596.313475,37.81,-22.409998895,41.239261625,-15.61157656,100.0,10.55970001,6.001145363,-30.27137375,0.0,0.0
2018-09-11 22:05:35.240,0.652,0.328,-0.084,0.10787315,0.36284605,4.56009225,262000.0,-283000.0,-379000.0,97592.72461,37.81,-22.5366656,43.34824879666667,-15.35606289,100.66666666666669,8.047067084333333,8.661279042,-30.35007032,0.0,0.0
2018-09-11 22:05:35.280,0.7086666666666667,0.3106666666666667,-0.0993333333333333,0.10787315,0.3791904666666666,4.6418143333333335,261666.66666666663,-285666.6666666667,-380666.6666666667,97591.7216,37.81,-22.663332305,45.45723596833333,-15.10054922,101.33333333333331,5.5344341586666665,11.321412721,-30.42876689,0.0,0.0
2018-09-11 22:05:35.320,0.7653333333333333,0.2933333333333333,-0.1146666666666666,0.10787315,0.3955348833333333,4.723536416666667,261333.3333333333,-288333.3333333333,-382333.3333333333,97590.71859,37.81,-22.78999901,47.56622314,-14.84503555,102.0,3.021801233,13.9815464,-30.50746346,0.0,0.0
2018-09-11 22:05:35.360,0.822,0.276,-0.13,0.10787315,0.4118793,4.8052585,261000.0,-291000.0,-384000.0,97589.71558,37.81,-22.78999901,47.56622314,-14.84503555,102.0,3.021801233,13.9815464,-30.50746346,0.0,0.0
2018-09-11 22:05:35.400,0.828,0.2505,-0.144,0.0392266,0.38245935,5.0013915,268500.0,-303500.0,-375000.0,97589.828495,37.81,-22.78999901,47.56622314,-14.84503555,102.0,3.021801233,13.9815464,-30.50746346,0.0,0.0
2018-09-11 22:05:35.440,0.834,0.225,-0.158,-0.02941995,0.3530394,5.1975245,276000.0,-316000.0,-366000.0,97589.94141,37.81,-22.96999931,54.49733734,-14.32504749,103.0,3.021801233,13.9815464,-30.50746346,0.0,0.0
2018-09-11 22:05:35.480,0.8079999999999999,0.2223333333333333,-0.166,-0.0424954833333333,0.4151481833333333,5.3544309,279666.6666666667,-324333.3333333333,-361333.3333333333,97588.53149666666,37.81,-22.96999931,54.49733734,-14.32504749,103.0,3.021801233,13.9815464,-30.50746346,0.0,0.0
2018-09-11 22:05:35.520,0.782,0.2196666666666666,-0.174,-0.0555710166666666,0.4772569666666666,5.5113373,283333.3333333333,-332666.6666666667,-356666.6666666667,97587.12158333334,37.81,-23.1099987,54.49733734,-13.78170109,104.0,3.021801233,13.9815464,-30.50746346,0.0,0.0
2018-09-11 22:05:35.560,0.756,0.217,-0.182,-0.06864655,0.53936575,5.6682437,287000.0,-341000.0,-352000.0,97585.71167,37.81,-23.1099987,54.49733734,-13.78170109,104.0,3.021801233,13.9815464,-30.50746346,0.0,0.0
2018-09-11 22:05:35.600,0.6779999999999999,0.2324999999999999,-0.192,-0.034323275,0.612915625,5.810440125,294500.0,-359000.0,-340000.0,97583.7677,37.805,-23.1099987,54.49733734,-13.78170109,104.0,3.021801233,13.9815464,-30.50746346,0.0,0.0
2018-09-11 22:05:35.640,0.6,0.248,-0.202,0.0,0.6864655,5.95263655,302000.0,-377000.0,-328000.0,97581.82373,37.8,-23.19999886,59.85574722,-13.22043514,106.0,3.021801233,13.9815464,-30.50746346,0.0,0.0
2018-09-11 22:05:35.680,0.523,0.2075,-0.217,-0.044129925,0.603108975,6.026186425000001,317000.0,-389500.0,-319000.0,97581.427,37.8,-23.19999886,59.85574722,-13.22043514,106.0,-3.031882524,31.09957886,-29.27020454,0.0,0.0
2018-09-11 22:05:35.720,0.446,0.167,-0.232,-0.08825985,0.51975245,6.0997363,332000.0,-402000.0,-310000.0,97581.03027,37.8,-23.25,59.85574722,-12.64524746,107.0,-3.031882524,31.09957886,-29.27020454,0.0,0.0
2018-09-11 22:05:35.760,0.4276666666666667,0.1463333333333333,-0.233,-0.0849909666666666,0.5949367666666667,6.0735852333333336,336333.3333333333,-406333.3333333333,-301333.3333333333,97582.37914666667,37.8,-23.25,59.85574722,-12.64524746,107.0,-3.031882524,31.09957886,-29.27020454,0.0,0.0
2018-09-11 22:05:35.800,0.4093333333333333,0.1256666666666666,-0.2339999999999999,-0.0817220833333333,0.6701210833333333,6.047434166666666,340666.6666666667,-410666.6666666667,-292666.6666666667,97583.72802333331,37.8,-23.25,59.85574722,-12.64524746,107.0,-3.031882524,31.09957886,-29.27020454,0.0,0.0
2018-09-11 22:05:35.840,0.391,0.105,-0.235,-0.0784532,0.7453054,6.0212831,345000.0,-415000.0,-284000.0,97585.0769,37.8,-23.25,63.00611496,-12.03822041,108.0,-3.031882524,31.09957886,-29.27020454,0.0,0.0
2018-09-11 22:05:35.880,0.3375,0.0955,-0.251,-0.0588399,0.8335652499999999,5.859473375,357000.0,-425000.0,-274500.0,97585.424805,37.8,-23.25,63.00611496,-12.03822041,108.0,-3.031882524,31.09957886,-29.27020454,0.0,0.0
2018-09-11 22:05:35.920,0.284,0.086,-0.267,-0.0392266,0.9218251,5.69766365,369000.0,-435000.0,-265000.0,97585.77271,37.8,-23.20999908,63.00611496,-11.39343262,109.0,-3.031882524,31.09957886,-29.27020454,0.0,0.0
2018-09-11 22:05:35.960,0.26,0.0519999999999999,-0.292,-0.0465815875,0.9242767625,5.9599915375,372500.0,-437250.0,-262750.0,97585.47974,37.8,-23.20999908,63.00611496,-11.39343262,109.0,-3.031882524,31.09957886,-29.27020454,0.0,0.0
2018-09-11 22:05:36.000,0.236,0.0179999999999999,-0.317,-0.053936575,0.926728425,6.222319425,376000.0,-439500.0,-260500.0,97585.18677,37.8,-23.11999893,53.70922089,-10.73120689,110.0,-3.031882524,31.09957886,-29.27020454,0.0,0.0
2018-09-11 22:05:36.040,0.212,-0.016,-0.3419999999999999,-0.0612915625,0.9291800875,6.4846473125,379500.0,-441750.0,-258250.0,97584.8938,37.8,-23.076665876666667,53.70922089,-10.499531106666666,110.66666666666669,-3.031882524,31.09957886,-29.27020454,0.0,0.0
2018-09-11 22:05:36.080,0.188,-0.05,-0.367,-0.06864655,0.93163175,6.7469752,383000.0,-444000.0,-256000.0,97584.60083,37.8,-23.03333282333333,53.70922089,-10.267855323333333,111.33333333333331,-3.031882524,31.09957886,-29.27020454,0.0,0.0
2018-09-11 22:05:36.120,0.113,-0.093,-0.405,-0.0588399,0.85317855,6.8842683,408000.0,-450000.0,-234000.0,97587.22534,37.8,-22.98999977,53.70922089,-10.03617954,112.0,-3.031882524,31.09957886,-29.27020454,0.0,0.0
2018-09-11 22:05:36.160,0.0953333333333333,-0.1093333333333333,-0.4096666666666667,-0.08825985,0.7779942333333333,6.995410333333333,415666.6666666667,-451333.3333333333,-231666.66666666663,97588.58235666668,37.8,-22.98999977,53.70922089,-10.03617954,112.0,-6.2433191535,35.50761032,-26.58684158,0.0,0.0
2018-09-11 22:05:36.200,0.0776666666666666,-0.1256666666666666,-0.4143333333333333,-0.1176798,0.7028099166666667,7.106552366666667,423333.3333333333,-452666.6666666667,-229333.3333333333,97589.93937333334,37.8,-22.98999977,53.70922089,-10.03617954,112.0,-9.454755783,39.91564178,-23.90347862,0.0,0.0
2018-09-11 22:05:36.240,0.06,-0.142,-0.419,-0.14709975,0.6276256,7.2176944,431000.0,-454000.0,-227000.0,97591.29639,37.8,-22.80999947,40.10829926,-9.304831505,113.0,-9.454755783,39.91564178,-23.90347862,0.0,0.0
2018-09-11 22:05:36.280,0.0846666666666666,-0.159,-0.4173333333333333,-0.0751843166666666,0.6799277333333333,7.6295737,434333.3333333333,-455000.0,-226000.0,97592.09595,37.8,-22.704999925000003,40.10829926,-8.920519829,113.5,-9.454755783,39.91564178,-23.90347862,0.0,0.0
2018-09-11 22:05:36.320,0.1093333333333333,-0.176,-0.4156666666666666,-0.0032688833333333,0.7322298666666667,8.041453,437666.6666666667,-456000.0,-225000.0,97592.89551,37.8,-22.60000038,40.10829926,-8.536208153,114.0,-9.454755783,39.91564178,-23.90347862,0.0,0.0
2018-09-11 22:05:36.360,0.134,-0.193,-0.414,0.06864655,0.784532,8.4533323,441000.0,-457000.0,-224000.0,97593.69507,37.8,-22.60000038,40.10829926,-8.536208153,114.0,-9.454755783,39.91564178,-23.90347862,0.0,0.0
2018-09-11 22:05:36.400,0.1585,-0.214,-0.4175,0.083356525,0.6668522,9.036827975,454500.0,-457000.0,-217500.0,97596.74988,37.795,-22.60000038,40.10829926,-8.536208153,114.0,-9.454755783,39.91564178,-23.90347862,0.0,0.0
2018-09-11 22:05:36.440,0.183,-0.235,-0.421,0.0980665,0.5491724,9.62032365,468000.0,-457000.0,-211000.0,97599.80469,37.79,-22.3599987,19.21577454,-7.707898617,115.0,-9.454755783,39.91564178,-23.90347862,0.0,0.0
2018-09-11 22:05:36.480,0.15,-0.253,-0.395,0.142196425,0.583495675,10.20872265,473000.0,-458500.0,-208500.0,97601.73645,37.79,-22.3599987,19.21577454,-7.707898617,115.0,-9.454755783,39.91564178,-23.90347862,0.0,0.0
2018-09-11 22:05:36.520,0.117,-0.271,-0.369,0.18632635,0.61781895,10.79712165,478000.0,-460000.0,-206000.0,97603.66821,37.79,-22.09000015,19.21577454,-6.838309288,116.0,-9.454755783,39.91564178,-23.90347862,0.0,0.0
2018-09-11 22:05:36.560,0.0973333333333333,-0.2663333333333333,-0.3553333333333333,0.1765197,0.63743225,10.721937333333331,481666.6666666667,-462333.3333333333,-204333.3333333333,97603.82283333334,37.79,-22.09000015,19.21577454,-6.838309288,116.0,-11.72047615,41.51628876,-14.77382183,0.0,0.0
2018-09-11 22:05:36.600,0.0776666666666666,-0.2616666666666666,-0.3416666666666667,0.16671305,0.65704555,10.646753016666668,485333.3333333333,-464666.6666666667,-202666.66666666663,97603.97745666666,37.79,-22.09000015,19.21577454,-6.838309288,116.0,-11.72047615,41.51628876,-14.77382183,0.0,0.0
2018-09-11 22:05:36.640,0.058,-0.257,-0.328,0.1569064,0.67665885,10.5715687,489000.0,-467000.0,-201000.0,97604.13208,37.79,-21.944999695,16.0130024,-6.3667173385,117.0,-11.72047615,41.51628876,-14.77382183,0.0,0.0
2018-09-11 22:05:36.680,0.039,-0.2525,-0.3195,0.1569064,0.7060788,10.684345175,491000.0,-467000.0,-196000.0,97608.233645,37.79,-21.79999924,12.81023026,-5.895125389,118.0,-11.72047615,41.51628876,-14.77382183,0.0,0.0
2018-09-11 22:05:36.720,0.02,-0.248,-0.311,0.1569064,0.73549875,10.79712165,493000.0,-467000.0,-191000.0,97612.33521,37.79,-21.5,12.81023026,-4.915616512,119.0,-11.72047615,41.51628876,-14.77382183,0.0,0.0
2018-09-11 22:05:36.760,0.0136666666666666,-0.2203333333333333,-0.3123333333333333,0.1830574666666666,0.77472535,10.6696352,498666.6666666667,-467000.0,-189000.0,97613.79395,37.79,-21.5,12.81023026,-4.915616512,119.0,-11.72047615,41.51628876,-14.77382183,0.0,0.0
2018-09-11 22:05:36.800,0.0073333333333333,-0.1926666666666666,-0.3136666666666666,0.2092085333333333,0.81395195,10.54214875,504333.3333333333,-467000.0,-187000.0,97615.25269,37.79,-21.5,12.81023026,-4.915616512,119.0,-11.72047615,41.51628876,-14.77382183,0.0,0.0
2018-09-11 22:05:36.840,0.001,-0.165,-0.315,0.2353596,0.85317855,10.4146623,510000.0,-467000.0,-185000.0,97616.71143,37.79,-21.340000155,-14.365291595,-4.382343292,119.5,-11.72047615,41.51628876,-14.77382183,0.0,0.0
2018-09-11 22:05:36.880,-0.0176666666666666,-0.174,-0.317,0.2190151833333333,0.7976075333333333,10.538879866666669,513000.0,-468666.6666666667,-186000.0,97617.71240666666,37.79,-21.18000031,-41.54081345,-3.849070072,120.0,-11.72047615,41.51628876,-14.77382183,0.0,0.0
2018-09-11 22:05:36.920,-0.0363333333333333,-0.183,-0.319,0.2026707666666666,0.7420365166666666,10.663097433333332,516000.0,-470333.3333333333,-187000.0,97618.71338333334,37.79,-20.85000038,-41.54081345,-2.741242647,121.0,-11.72047615,41.51628876,-14.77382183,0.0,0.0
2018-09-11 22:05:36.960,-0.055,-0.192,-0.321,0.18632635,0.6864655,10.787315,519000.0,-472000.0,-188000.0,97619.71436,37.79,-20.85000038,-41.54081345,-2.741242647,121.0,-11.72047615,41.51628876,-14.77382183,0.0,0.0
2018-09-11 22:05:37.000,-0.0185,-0.222,-0.323,0.18632635,0.784532,10.949124725,520500.0,-476000.0,-185500.0,97624.66736,37.79,-20.85000038,-41.54081345,-2.741242647,121.0,-11.72047615,41.51628876,-14.77382183,0.0,0.0
2018-09-11 22:05:37.040,0.018,-0.252,-0.325,0.18632635,0.8825985,11.11093445,522000.0,-480000.0,-183000.0,97629.62036,37.79,-20.5,-83.97817993,-1.565255284,122.0,-13.1513195,40.70705795,-4.131330013,0.0,0.0
2018-09-11 22:05:37.080,-0.012,-0.288,-0.326,0.26477955,0.975761675,12.0033396,528500.0,-471500.0,-181500.0,97632.13806,37.785,-20.319999695,-83.97817993,-0.951901525,122.5,-13.1513195,40.70705795,-4.131330013,0.0,0.0
2018-09-11 22:05:37.120,-0.042,-0.324,-0.327,0.34323275,1.06892485,12.89574475,535000.0,-463000.0,-180000.0,97634.65576,37.78,-20.13999939,-83.97817993,-0.338547766,123.0,-13.1513195,40.70705795,-4.131330013,0.0,0.0
2018-09-11 22:05:37.160,-0.03925,-0.31925,-0.333,0.3702010375,1.0787315,13.037941175,536750.0,-464250.0,-180750.0,97635.6567375,37.78,-20.13999939,-83.97817993,-0.338547766,123.0,-13.1513195,40.70705795,-4.131330013,0.0,0.0
2018-09-11 22:05:37.200,-0.0365,-0.3145,-0.3389999999999999,0.397169325,1.08853815,13.1801376,538500.0,-465500.0,-181500.0,97636.657715,37.78,-20.13999939,-83.97817993,-0.338547766,123.0,-13.1513195,40.70705795,-4.131330013,0.0,0.0
2018-09-11 22:05:37.240,-0.03375,-0.3097499999999999,-0.345,0.4241376125,1.0983448,13.322334025,540250.0,-466750.0,-182250.0,97637.6586925,37.78,-19.954999925,-96.989631665,0.3041665855,123.5,-13.1513195,40.70705795,-4.131330013,0.0,0.0
2018-09-11 22:05:37.280,-0.031,-0.305,-0.351,0.4511059,1.10815145,13.46453045,542000.0,-468000.0,-183000.0,97638.65967,37.78,-19.77000046,-110.0010834,0.946880937,124.0,-13.1513195,40.70705795,-4.131330013,0.0,0.0
2018-09-11 22:05:37.320,-0.026,-0.321,-0.3535,0.3726527,0.897308475,13.0036179,549500.0,-473500.0,-183500.0,97642.211915,37.78,-19.40999985,-110.0010834,2.291990042,125.0,-13.1513195,40.70705795,-4.131330013,0.0,0.0
2018-09-11 22:05:37.360,-0.021,-0.337,-0.356,0.2941995,0.6864655,12.54270535,557000.0,-479000.0,-184000.0,97645.76416,37.78,-19.40999985,-110.0010834,2.291990042,125.0,-12.805294035,39.800336835,0.7203805450000003,0.0,0.0
2018-09-11 22:05:37.400,0.0215,-0.3675,-0.354,0.32361945,0.740402075,13.0036179,562000.0,-477000.0,-181000.0,97646.90552,37.78,-19.40999985,-110.0010834,2.291990042,125.0,-12.45926857,38.89361572,5.572091103,0.0,0.0
2018-09-11 22:05:37.440,0.064,-0.398,-0.352,0.3530394,0.79433865,13.46453045,567000.0,-475000.0,-178000.0,97648.04688,37.78,-19.04999924,-163.312439,3.700297117,126.0,-12.45926857,38.89361572,5.572091103,0.0,0.0
2018-09-11 22:05:37.480,0.0743333333333333,-0.407,-0.3416666666666667,0.3955348833333333,0.8074141833333334,14.121576,566333.3333333334,-475333.3333333333,-178666.66666666666,97650.46590666666,37.77666666666667,-19.04999924,-163.312439,3.700297117,126.0,-12.45926857,38.89361572,5.572091103,0.0,0.0
2018-09-11 22:05:37.520,0.0846666666666666,-0.416,-0.3313333333333333,0.4380303666666666,0.8204897166666667,14.77862155,565666.6666666666,-475666.6666666667,-179333.33333333334,97652.88493333332,37.77333333333333,-18.69999886,-163.312439,5.153888226,127.0,-12.45926857,38.89361572,5.572091103,0.0,0.0
2018-09-11 22:05:37.560,0.095,-0.425,-0.321,0.48052585,0.83356525,15.4356671,565000.0,-476000.0,-180000.0,97655.30396,37.77,-18.69999886,-163.312439,5.153888226,127.0,-12.45926857,38.89361572,5.572091103,0.0,0.0
2018-09-11 22:05:37.600,0.11,-0.437,-0.302,0.465815875,0.8629852,15.11204765,565500.0,-481000.0,-182000.0,97657.94678,37.775000000000006,-18.534998895,-187.1993103,5.907562256,127.5,-12.45926857,38.89361572,5.572091103,0.0,0.0
2018-09-11 22:05:37.640,0.125,-0.449,-0.283,0.4511059,0.89240515,14.7884282,566000.0,-486000.0,-184000.0,97660.5896,37.78,-18.36999893,-211.0861816,6.661236286,128.0,-12.45926857,38.89361572,5.572091103,0.0,0.0
2018-09-11 22:05:37.680,0.008,-0.4659999999999999,-0.2634999999999999,0.485429175,0.8433719,14.950237925,568000.0,-492500.0,-184000.0,97663.726805,37.775000000000006,-18.36999893,-211.0861816,6.661236286,128.0,-12.45926857,38.89361572,5.572091103,0.0,0.0
2018-09-11 22:05:37.720,-0.109,-0.483,-0.244,0.51975245,0.79433865,15.11204765,570000.0,-499000.0,-184000.0,97666.86401,37.77,-18.04999924,-211.0861816,8.20890522,129.0,-9.825349808,39.13822174,15.65044785,0.0,0.0
2018-09-11 22:05:37.760,-0.12275,-0.49775,-0.23725,0.6055606375,0.877695175,15.6391550875,568500.0,-499250.0,-180000.0,97668.084715,37.77,-18.04999924,-211.0861816,8.20890522,129.0,-9.825349808,39.13822174,15.65044785,0.0,0.0
2018-09-11 22:05:37.800,-0.1365,-0.5125,-0.2304999999999999,0.6913688250000001,0.9610517,16.166262525,567000.0,-499500.0,-176000.0,97669.30542,37.77,-18.04999924,-211.0861816,8.20890522,129.0,-9.825349808,39.13822174,15.65044785,0.0,0.0
2018-09-11 22:05:37.840,-0.15025,-0.52725,-0.22375,0.7771770125,1.0444082250000002,16.6933699625,565500.0,-499750.0,-172000.0,97670.526125,37.77,-17.904999734999997,-218.2664871,9.0024204255,129.5,-9.825349808,39.13822174,15.65044785,0.0,0.0
2018-09-11 22:05:37.880,-0.164,-0.542,-0.217,0.8629852,1.12776475,17.2204774,564000.0,-500000.0,-168000.0,97671.74683,37.77,-17.76000023,-225.4467926,9.795935631,130.0,-9.825349808,39.13822174,15.65044785,0.0,0.0
2018-09-11 22:05:37.920,-0.083,-0.5135000000000001,-0.2324999999999999,0.985568325,1.181701325,17.490160275,570000.0,-498500.0,-160500.0,97673.95325,37.77,-17.48999977,-225.4467926,11.42776871,131.0,-9.825349808,39.13822174,15.65044785,0.0,0.0
2018-09-11 22:05:37.960,-0.002,-0.485,-0.248,1.10815145,1.2356379,17.75984315,576000.0,-497000.0,-153000.0,97676.15967,37.77,-17.48999977,-225.4467926,11.42776871,131.0,-9.825349808,39.13822174,15.65044785,0.0,0.0
2018-09-11 22:05:38.000,0.0289999999999999,-0.475,-0.259,1.08853815,1.14737805,17.7108099,575000.0,-507500.0,-157000.0,97679.083255,37.77,-17.384999275,-244.68746185,12.258644105,131.0,-9.825349808,39.13822174,15.65044785,0.0,0.0
2018-09-11 22:05:38.040,0.06,-0.465,-0.27,1.06892485,1.0591182,17.66177665,574000.0,-518000.0,-161000.0,97682.00684,37.77,-17.27999878,-263.9281311,13.0895195,131.0,-9.825349808,39.13822174,15.65044785,0.0,0.0
2018-09-11 22:05:38.080,0.0645,-0.413,-0.286,0.9022118,1.14737805,17.23028405,561000.0,-509500.0,-169500.0,97681.68335,37.77,-17.27999878,-263.9281311,13.0895195,131.0,-9.825349808,39.13822174,15.65044785,0.0,0.0
2018-09-11 22:05:38.120,0.069,-0.361,-0.302,0.73549875,1.2356379,16.79879145,548000.0,-501000.0,-178000.0,97681.35986,37.77,-17.10000038,-263.9281311,14.7727108,132.0,-4.149164677,37.38523102,27.11753082,0.0,0.0
2018-09-11 22:05:38.160,0.075,-0.359,-0.3053333333333333,0.75511205,1.1539158166666668,16.520936366666668,546333.3333333334,-500666.6666666667,-177333.33333333334,97682.60701333333,37.77,-17.10000038,-263.9281311,14.7727108,132.0,-4.149164677,37.38523102,27.11753082,0.0,0.0
2018-09-11 22:05:38.200,0.081,-0.357,-0.3086666666666666,0.77472535,1.0721937333333331,16.243081283333332,544666.6666666666,-500333.3333333333,-176666.66666666666,97683.85416666669,37.77,-17.10000038,-263.9281311,14.7727108,132.0,-4.149164677,37.38523102,27.11753082,0.0,0.0
2018-09-11 22:05:38.240,0.087,-0.355,-0.312,0.79433865,0.99047165,15.9652262,543000.0,-500000.0,-176000.0,97685.10132,37.77,-16.97999954,-279.4152222,16.46246147,133.0,-4.149164677,37.38523102,27.11753082,0.0,0.0
2018-09-11 22:05:38.280,0.0936666666666666,-0.3396666666666667,-0.319,0.7060788,1.0068160666666668,15.301642883333331,542000.0,-505666.6666666667,-173333.33333333334,97686.56413,37.77,-16.97999954,-279.4152222,16.46246147,133.0,-4.149164677,37.38523102,27.11753082,0.0,0.0
2018-09-11 22:05:38.320,0.1003333333333333,-0.3243333333333333,-0.326,0.61781895,1.0231604833333334,14.638059566666668,541000.0,-511333.3333333333,-170666.66666666666,97688.02694,37.77,-16.929999350000003,-279.4152222,17.313339235,133.0,-4.149164677,37.38523102,27.11753082,0.0,0.0
2018-09-11 22:05:38.360,0.107,-0.309,-0.333,0.5295591,1.0395049,13.97447625,540000.0,-517000.0,-168000.0,97689.48975,37.77,-16.87999916,-279.4152222,18.164217,133.0,-4.149164677,37.38523102,27.11753082,0.0,0.0
2018-09-11 22:05:38.400,0.129,-0.272,-0.3425,0.534462425,0.867888525,13.15071765,526000.0,-511500.0,-179000.0,97690.563965,37.77,-16.87999916,-279.4152222,18.164217,133.0,-4.149164677,37.38523102,27.11753082,0.0,0.0
2018-09-11 22:05:38.440,0.151,-0.235,-0.352,0.53936575,0.69627215,12.32695905,512000.0,-506000.0,-190000.0,97691.63818,37.77,-16.81999969,-309.5198669,19.84965324,134.0,-4.149164677,37.38523102,27.11753082,0.0,0.0
2018-09-11 22:05:38.480,0.1573333333333333,-0.2746666666666666,-0.3363333333333333,0.6276256,0.67665885,13.281472983333332,522666.6666666667,-516666.6666666667,-180333.3333333333,97690.04719666668,37.77,-16.78999996,-309.5198669,20.69165039,134.0,-4.149164677,37.38523102,27.11753082,0.0,0.0
2018-09-11 22:05:38.520,0.1636666666666666,-0.3143333333333333,-0.3206666666666666,0.7158854499999999,0.65704555,14.235986916666668,533333.3333333334,-527333.3333333334,-170666.66666666666,97688.45621333332,37.77,-16.76000023,-309.5198669,21.53364754,134.0,-4.149164677,37.38523102,27.11753082,0.0,0.0
2018-09-11 22:05:38.560,0.17,-0.354,-0.305,0.8041453,0.63743225,15.19050085,544000.0,-538000.0,-161000.0,97686.86523,37.77,-16.76000023,-309.5198669,21.53364754,134.0,-3.428970814,38.609077455,32.713857649999994,0.0,0.0
2018-09-11 22:05:38.600,0.16,-0.3289999999999999,-0.295,0.7207887749999999,0.79433865,14.744298274999998,544000.0,-534500.0,-162000.0,97687.997435,37.77,-16.76000023,-309.5198669,21.53364754,134.0,-2.708776951,39.83292389,38.31018448,0.0,0.0
2018-09-11 22:05:38.640,0.15,-0.304,-0.285,0.63743225,0.95124505,14.2980957,544000.0,-531000.0,-163000.0,97689.12964,37.77,-16.71999931,-317.0447388,23.19684601,134.0,-2.708776951,39.83292389,38.31018448,0.0,0.0
2018-09-11 22:05:38.680,0.0504999999999999,-0.3369999999999999,-0.2754999999999999,0.750208725,0.93163175,14.347128949999998,553500.0,-543000.0,-148000.0,97689.837645,37.77,-16.69999981,-317.0447388,24.025244715,134.5,-2.708776951,39.83292389,38.31018448,0.0,0.0
2018-09-11 22:05:38.720,-0.049,-0.37,-0.266,0.8629852,0.91201845,14.3961622,563000.0,-555000.0,-133000.0,97690.54565,37.77,-16.68000031,-317.0447388,24.85364342,135.0,-2.708776951,39.83292389,38.31018448,0.0,0.0
2018-09-11 22:05:38.760,-0.016,-0.3596666666666667,-0.268,0.8302963666666666,0.8662540833333333,14.320977883333333,574333.3333333334,-567000.0,-128666.66666666669,97690.92610333332,37.766666666666666,-16.68000031,-317.0447388,24.85364342,135.0,-2.3951963485,40.131941795,39.9611816425,0.0,0.0
2018-09-11 22:05:38.800,0.017,-0.3493333333333333,-0.27,0.7976075333333333,0.8204897166666667,14.245793566666666,585666.6666666666,-579000.0,-124333.33333333331,97691.30655666666,37.763333333333335,-16.68000031,-317.0447388,24.85364342,135.0,-2.081615746,40.4309597,41.612178805,0.0,0.0
