time,field.angular_velocity.x,field.angular_velocity.y,field.angular_velocity.z,field.linear_acceleration.x,field.linear_acceleration.y,field.linear_acceleration.z,field.magnetic_field.x,field.magnetic_field.y,field.magnetic_field.z,field.fluid_pressure,field.temperature,field.alt_error,field.aspd_error,field.xtrack_error,field.wp_dist,field.measured.pitch,field.measured.roll,field.measured.yaw,fault_state,field.airspeed
07:58.9,0.819,0.116,-0.211,-0.83356525,-0.1765197,7.7864801,310000,-378000,-352000,98201.67847,30.28,-1.350000024,-416.5128784,-31.9817543,9,-1.412966132,2.25458169,-77.23874664,0,0
07:58.9,0.819,0.116,-0.211,-0.83356525,-0.1765197,7.7864801,310000,-378000,-352000,98201.67847,30.28,-1.350000024,-416.5128784,-31.9817543,9,-1.412966132,2.25458169,-77.23874664,0,0
07:59.0,0.756666667,0.115666667,-0.174,-0.810683067,-0.035957717,7.07059465,314333.3333,-390000,-340000,98199.64193,30.27666667,-1.350000024,-416.5128784,-31.9817543,9,-1.412966132,2.25458169,-77.23874664,0,0
07:59.0,0.694333333,0.115333333,-0.137,-0.787800883,0.104604267,6.3547092,318666.6667,-402000,-328000,98197.60539,30.27333333,-1.559999943,-412.5482483,-30.30820084,11,-1.412966132,2.25458169,-77.23874664,0,0
07:59.0,0.632,0.115,-0.1,-0.7649187,0.24516625,5.63882375,323000,-414000,-316000,98195.56885,30.27,-1.559999943,-412.5482483,-30.30820084,11,-1.412966132,2.25458169,-77.23874664,0,0
07:59.1,0.5905,0.094,-0.104,-0.83356525,0.28439285,6.08992965,337000,-436500,-299500,98196.04187,30.27,-1.730000019,-412.5482483,-28.64075089,12,-4.020919323,18.40514183,-74.86309814,0,0
07:59.1,0.549,0.073,-0.108,-0.9022118,0.32361945,6.54103555,351000,-459000,-283000,98196.51489,30.27,-1.795000017,-403.6273041,-180.5607166,13,-4.020919323,18.40514183,-74.86309814,0,0
07:59.2,0.6555,0.054,-0.1305,-0.7649187,0.3138128,7.585443775,353000,-473000,-276500,98194.94629,30.265,-1.860000014,-394.7063599,-332.4806824,14,-4.020919323,18.40514183,-74.86309814,0,0
07:59.2,0.762,0.035,-0.153,-0.6276256,0.30400615,8.629852,355000,-487000,-270000,98193.37769,30.26,-1.860000014,-394.7063599,-332.4806824,14,-4.020919323,18.40514183,-74.86309814,0,0
07:59.2,0.6885,0.0175,-0.1465,-0.524655775,0.3726527,9.3947707,358500,-500500,-255500,98193.44483,30.26,-1.914999962,-344.7063599,-331.6776123,15,-4.020919323,18.40514183,-74.86309814,0,0
07:59.3,0.615,-1.71E-17,-0.14,-0.42168595,0.44129925,10.1596894,362000,-514000,-241000,98193.51196,30.26,-1.969999909,-294.7063599,-330.8745422,16,-4.020919323,18.40514183,-74.86309814,0,0
07:59.3,0.576666667,-0.009666667,-0.141333333,-0.444568133,0.51975245,10.60752642,370000,-523333.3333,-232000,98192.25464,30.26,-1.969999909,-294.7063599,-330.8745422,16,-4.020919323,18.40514183,-74.86309814,0,0
07:59.4,0.538333333,-0.019333333,-0.142666667,-0.467450317,0.59820565,11.05536343,378000,-532666.6667,-223000,98190.99731,30.26,-1.969999909,-294.7063599,-330.8745422,16,-4.020919323,18.40514183,-74.86309814,0,0
07:59.4,0.5,-0.029,-0.144,-0.4903325,0.67665885,11.50320045,386000,-542000,-214000,98189.73999,30.26,-2.059999943,-282.5881958,-329.2769165,17,-5.174681664,29.40755272,-73.03495026,0,0
07:59.4,0.469,0.002,-0.151333333,-0.428223717,0.555710167,10.87884373,376666.6667,-542666.6667,-214333.3333,98189.60978,30.25666667,-2.059999943,-282.5881958,-329.2769165,17,-5.174681664,29.40755272,-73.03495026,0,0
07:59.5,0.438,0.033,-0.158666667,-0.366114933,0.434761483,10.25448702,367333.3333,-543333.3333,-214666.6667,98189.47958,30.25333333,-2.149999857,-282.5881958,-327.7046204,19,-5.174681664,29.40755272,-73.03495026,0,0
07:59.5,0.407,0.064,-0.166,-0.30400615,0.3138128,9.6301303,358000,-544000,-215000,98189.34937,30.25,-2.149999857,-282.5881958,-327.7046204,19,-5.174681664,29.40755272,-73.03495026,0,0
07:59.6,0.4185,0.044,-0.147,-0.40207265,0.269682875,9.517353825,347000,-535000,-214000,98189.24256,30.25,-2.149999857,-282.5881958,-327.7046204,19,-5.174681664,29.40755272,-73.03495026,0,0
07:59.6,0.43,0.024,-0.128,-0.50013915,0.22555295,9.40457735,336000,-526000,-213000,98189.13574,30.25,-2.230000019,-287.2568054,-326.1407776,21,-5.174681664,29.40755272,-73.03495026,0,0
07:59.6,0.305,0.021666667,-0.113666667,-0.650507783,0.2549729,9.479761667,330333.3333,-524666.6667,-213666.6667,98188.82446,30.24666667,-2.230000019,-287.2568054,-326.1407776,21,-5.174681664,29.40755272,-73.03495026,0,0
07:59.7,0.18,0.019333333,-0.099333333,-0.800876417,0.28439285,9.554945983,324666.6667,-523333.3333,-214333.3333,98188.51318,30.24333333,-2.264999986,-287.2568054,-325.3672486,21.5,-5.174681664,29.40755272,-73.03495026,0,0
07:59.7,0.055,0.017,-0.085,-0.95124505,0.3138128,9.6301303,319000,-522000,-215000,98188.2019,30.24,-2.299999952,-287.2568054,-324.5937195,22,-5.174681664,29.40755272,-73.03495026,0,0
07:59.8,-0.0745,0.0165,-0.099,-1.122861425,0.132389775,8.629852,302500,-515000,-216000,98187.59155,30.24,-2.319999933,-287.2386933,-323.8371582,23,-5.174681664,29.40755272,-73.03495026,0,0
07:59.8,-0.204,0.016,-0.113,-1.2944778,-0.04903325,7.6295737,286000,-508000,-217000,98186.9812,30.24,-2.339999914,-287.2205811,-323.0805969,24,-5.174681664,29.40755272,-73.03495026,0,0
07:59.8,-0.16,0.007333333,-0.105333333,-1.281402267,-0.00980665,8.041453,282333.3333,-496333.3333,-226000,98185.46549,30.24,-2.339999914,-287.2205811,-323.0805969,24,-7.405406475,35.29732132,-70.48937225,0,0
07:59.9,-0.116,-0.001333333,-0.097666667,-1.268326733,0.02941995,8.4533323,278666.6667,-484666.6667,-235000,98183.94979,30.24,-2.34499991,-287.2205811,-322.3282623,24.5,-7.405406475,35.29732132,-70.48937225,0,0
07:59.9,-0.072,-0.01,-0.09,-1.2552512,0.06864655,8.8652116,275000,-473000,-244000,98182.43408,30.24,-2.349999905,-287.2205811,-321.5759277,25,-7.405406475,35.29732132,-70.48937225,0,0
08:00.0,-0.1345,0.028,-0.0915,-1.24544455,0.48052585,7.742350175,260500,-463500,-253000,98184.24988,30.235,-2.339999915,-290.9940796,-320.8404999,26,-7.405406475,35.29732132,-70.48937225,0,0
08:00.0,-0.197,0.066,-0.093,-1.2356379,0.89240515,6.61948875,246000,-454000,-262000,98186.06567,30.23,-2.329999924,-294.7675781,-320.105072,27,-7.405406475,35.29732132,-70.48937225,0,0
08:00.0,-0.175,0.074,-0.11,-1.397447625,0.897308475,6.251739375,236500,-439500,-272500,98184.90295,30.23,-2.329999924,-294.7675781,-320.105072,27,-7.405406475,35.29732132,-70.48937225,0,0
08:00.1,-0.153,0.082,-0.127,-1.55925735,0.9022118,5.88399,227000,-425000,-283000,98183.74023,30.23,-2.289999962,-294.7675781,-318.651123,29,-7.405406475,35.29732132,-70.48937225,0,0
08:00.1,-0.197666667,0.087333333,-0.142,-1.6671305,0.934900633,5.926485483,222000,-418000,-287333.3333,98185.70149,30.22666667,-2.289999962,-294.7675781,-318.651123,29,-7.405406475,35.29732132,-70.48937225,0,0
08:00.2,-0.242333333,0.092666667,-0.157,-1.77500365,0.967589467,5.968980967,217000,-411000,-291666.6667,98187.66276,30.22333333,-2.289999962,-294.7675781,-318.651123,29,-7.405406475,35.29732132,-70.48937225,0,0
08:00.2,-0.287,0.098,-0.172,-1.8828768,1.0002783,6.01147645,212000,-404000,-296000,98189.62402,30.22,-2.190000057,-287.0942993,-317.2224731,30,-7.405406475,35.29732132,-70.48937225,0,0
08:00.2,-0.287,0.113666667,-0.216333333,-1.876339033,0.87279185,4.811796267,207666.6667,-398000,-301333.3333,98189.49381,30.22,-2.190000057,-287.0942993,-317.2224731,30,-7.405406475,35.29732132,-70.48937225,0,0
08:00.3,-0.287,0.129333333,-0.260666667,-1.869801267,0.7453054,3.612116083,203333.3333,-392000,-306666.6667,98189.36361,30.22,-2.125,-287.0942993,-316.5166321,31,-7.405406475,35.29732132,-70.48937225,0,0
08:00.3,-0.287,0.145,-0.305,-1.8632635,0.61781895,2.4124359,199000,-386000,-312000,98189.2334,30.22,-2.059999943,-287.0942993,-315.810791,32,-7.405406475,35.29732132,-70.48937225,0,0
08:00.4,-0.271,0.1235,-0.323,-1.8632635,0.61781895,2.79489525,204000,-374000,-318000,98188.26905,30.22,-2.059999943,-287.0942993,-315.810791,32,-11.64151192,29.91648102,-68.25047302,0,0
08:00.4,-0.255,0.102,-0.341,-1.8632635,0.61781895,3.1773546,209000,-362000,-324000,98187.30469,30.22,-1.849999905,-272.6135254,-314.4243164,34,-11.64151192,29.91648102,-68.25047302,0,0
08:00.4,-0.218,0.081666667,-0.341,-1.95152335,0.379190467,3.9814999,210333.3333,-357333.3333,-327666.6667,98188.18156,30.21666667,-1.714999915,-272.6135254,-313.7311707,34.5,-11.64151192,29.91648102,-68.25047302,0,0
08:00.5,-0.181,0.061333333,-0.341,-2.0397832,0.140561983,4.7856452,211666.6667,-352666.6667,-331333.3333,98189.05843,30.21333333,-1.579999924,-272.6135254,-313.0380249,35,-11.64151192,29.91648102,-68.25047302,0,0
08:00.5,-0.144,0.041,-0.341,-2.12804305,-0.0980665,5.5897905,213000,-348000,-335000,98189.9353,30.21,-1.579999924,-272.6135254,-313.0380249,35,-11.64151192,29.91648102,-68.25047302,0,0
08:00.6,0.0675,0.096,-0.329,-2.172172975,-0.0588399,4.1580196,221500,-340000,-334000,98190.75928,30.21,-1.409999967,-260.9940491,-312.3617553,36,-11.64151192,29.91648102,-68.25047302,0,0
08:00.6,0.279,0.151,-0.317,-2.2163029,-0.0196133,2.7262487,230000,-332000,-333000,98191.58325,30.21,-1.24000001,-249.3745728,-311.6854858,37,-11.64151192,29.91648102,-68.25047302,0,0
08:00.6,0.158,0.119,-0.3185,-2.1770763,0.44129925,2.83412185,235000,-331500,-331000,98197.23206,30.21,-1.140000001,-249.3745728,-311.3473358,37.25,-11.64151192,29.91648102,-68.25047302,0,0
08:00.7,0.037,0.087,-0.32,-2.1378497,0.9022118,2.941995,240000,-331000,-329000,98202.88086,30.21,-1.039999992,-249.3745728,-311.0091858,37.5,-11.64151192,29.91648102,-68.25047302,0,0
08:00.7,0.201,0.0205,-0.302,-2.04958985,0.95124505,5.271074375,246000,-329000,-328500,98201.69678,30.205,-0.939999983,-249.3745728,-310.6710357,37.75,-13.06285143,29.469172,-66.73620319,0,0
08:00.8,0.365,-0.046,-0.284,-1.96133,1.0002783,7.60015375,252000,-327000,-328000,98200.5127,30.2,-0.839999974,-249.3745728,-310.3328857,38,-14.48419094,29.02186299,-65.22193337,0,0
08:00.8,0.25525,-0.02425,-0.286,-2.027524888,0.956148375,7.703123575,254250,-327000,-326500,98202.0279,30.2,-0.379999995,-252.8100891,-309.0141907,40,-17.32686996,28.12724495,-62.19339371,0,0
08:00.8,0.1455,-0.0025,-0.288,-2.093719775,0.91201845,7.8060934,256500,-327000,-325000,98203.5431,30.2,-0.379999995,-252.8100891,-309.0141907,40,-17.32686996,28.12724495,-62.19339371,0,0
08:00.9,0.03575,0.01925,-0.29,-2.159914663,0.867888525,7.909063225,258750,-327000,-323500,98205.05829,30.2,-0.134999998,-252.8100891,-308.3548279,40.5,-17.32686996,28.12724495,-62.19339371,0,0
08:00.9,-0.074,0.041,-0.292,-2.22610955,0.8237586,8.01203305,261000,-327000,-322000,98206.57349,30.2,0.109999999,-252.8100891,-307.6954651,41,-17.32686996,28.12724495,-62.19339371,0,0
08:01.0,-0.221,0.004,-0.2935,-2.14765635,0.573689025,7.14904785,267000,-323500,-320500,98209.23768,30.195,0.109999999,-252.8100891,-307.6954651,41,-17.32686996,28.12724495,-62.19339371,0,0
08:01.0,-0.368,-0.033,-0.295,-2.06920315,0.32361945,6.28606265,273000,-320000,-319000,98211.90186,30.19,0.629999995,-215.3980255,-306.4190369,43,-17.32686996,28.12724495,-62.19339371,0,0
08:01.0,-0.28,-0.030333333,-0.277333333,-2.0593965,0.392266,6.671790883,276666.6667,-313666.6667,-322000,98214.12964,30.19,0.629999995,-215.3980255,-306.4190369,43,-17.32686996,28.12724495,-62.19339371,0,0
08:01.1,-0.192,-0.027666667,-0.259666667,-2.04958985,0.46091255,7.057519117,280333.3333,-307333.3333,-325000,98216.35743,30.19,1.179999948,-215.3980255,-305.1256104,44,-17.32686996,28.12724495,-62.19339371,0,0
08:01.1,-0.104,-0.025,-0.242,-2.0397832,0.5295591,7.44324735,284000,-301000,-328000,98218.58521,30.19,1.179999948,-215.3980255,-305.1256104,44,-18.63712502,26.72072602,-59.26473427,0,0
08:01.2,-0.175,-0.017,-0.21,-2.12804305,0.2549729,7.683510275,287000,-294000,-331000,98220.70618,30.185,1.179999948,-215.3980255,-305.1256104,44,-19.94738007,25.31420708,-56.33607483,0,0
08:01.2,-0.246,-0.009,-0.178,-2.2163029,-0.0196133,7.9237732,290000,-287000,-334000,98222.82715,30.18,1.75,-229.2272644,-303.8829956,46,-19.94738007,25.31420708,-56.33607483,0,0
08:01.2,-0.235666667,-0.011333333,-0.166,-2.124774167,0.16671305,7.632842583,289666.6667,-284000,-336666.6667,98226.37533,30.18,1.75,-229.2272644,-303.8829956,46,-19.94738007,25.31420708,-56.33607483,0,0
08:01.3,-0.225333333,-0.013666667,-0.154,-2.033245433,0.3530394,7.341911967,289333.3333,-281000,-339333.3333,98229.9235,30.18,2.349999905,-229.2272644,-302.6233521,47,-19.94738007,25.31420708,-56.33607483,0,0
08:01.3,-0.215,-0.016,-0.142,-1.9417167,0.53936575,7.05098135,289000,-278000,-342000,98233.47168,30.18,2.349999905,-229.2272644,-302.6233521,47,-19.94738007,25.31420708,-56.33607483,0,0
08:01.4,-0.101,-0.013,-0.1415,-1.956426675,0.446202575,7.899256575,291000,-272000,-344500,98235.71472,30.18,2.349999905,-229.2272644,-302.6233521,47,-19.94738007,25.31420708,-56.33607483,0,0
08:01.4,0.013,-0.01,-0.141,-1.97113665,0.3530394,8.7475318,293000,-266000,-347000,98237.95776,30.18,2.970000029,-225.4617615,-301.397644,49,-19.94738007,25.31420708,-56.33607483,0,0
08:01.4,-0.008,-0.004666667,-0.117,-1.967867767,0.415148183,9.156142217,295666.6667,-263000,-346666.6667,98241.14583,30.18,2.970000029,-225.4617615,-301.397644,49,-19.94738007,25.31420708,-56.33607483,0,0
08:01.5,-0.029,0.000666667,-0.093,-1.964598883,0.477256967,9.564752633,298333.3333,-260000,-346333.3333,98244.3339,30.18,3.289999962,-225.4617615,-300.7890167,49.5,-19.94738007,25.31420708,-56.33607483,0,0
08:01.5,-0.05,0.006,-0.069,-1.96133,0.53936575,9.97336305,301000,-257000,-346000,98247.52197,30.18,3.609999895,-225.4617615,-300.1803894,50,-19.94738007,25.31420708,-56.33607483,0,0
08:01.6,-0.0165,-0.0085,-0.065,-2.04958985,0.367749375,10.38033903,298500,-258000,-344500,98249.29505,30.175,3.609999895,-225.4617615,-300.1803894,50,-21.2357254,21.47881126,-53.14622498,0,0
08:01.6,0.017,-0.023,-0.061,-2.1378497,0.196133,10.787315,296000,-259000,-343000,98251.06812,30.17,4.269999981,-234.9258423,-298.980011,52,-21.2357254,21.47881126,-53.14622498,0,0
08:01.6,-0.089666667,-0.013333333,-0.063666667,-2.180345183,0.10787315,10.34928463,298000,-258000,-343333.3333,98253.7557,30.17,4.269999981,-234.9258423,-298.980011,52,-21.2357254,21.47881126,-53.14622498,0,0
08:01.7,-0.196333333,-0.003666667,-0.066333333,-2.222840667,0.0196133,9.911254267,300000,-257000,-343666.6667,98256.44328,30.17,4.589999914,-234.9258423,-298.3798218,53,-21.2357254,21.47881126,-53.14622498,0,0
08:01.7,-0.303,0.006,-0.069,-2.26533615,-0.06864655,9.4732239,302000,-256000,-344000,98259.13086,30.17,4.909999847,-234.9258423,-297.7796326,54,-21.2357254,21.47881126,-53.14622498,0,0
08:01.8,-0.312,0.0065,-0.055,-2.162366325,0.259876225,9.0613446,303500,-251000,-346000,98263.2843,30.165,4.909999847,-234.9258423,-297.7796326,54,-21.2357254,21.47881126,-53.14622498,0,0
08:01.8,-0.321,0.007,-0.041,-2.0593965,0.588399,8.6494653,305000,-246000,-348000,98267.43774,30.16,5.229999781,-251.4741822,-297.1920929,54.5,-21.2357254,21.47881126,-53.14622498,0,0
08:01.8,-0.327333333,0.002666667,-0.039666667,-2.06920315,0.601474533,9.1005712,303000,-242333.3333,-351666.6667,98270.88216,30.16,5.549999714,-268.022522,-296.6045532,55,-21.2357254,21.47881126,-53.14622498,0,0
08:01.9,-0.333666667,-0.001666667,-0.038333333,-2.0790098,0.614550067,9.5516771,301000,-238666.6667,-355333.3333,98274.32658,30.16,6.210000038,-268.022522,-295.4211121,57,-21.65736389,17.99850273,-52.31105804,0,0
08:01.9,-0.34,-0.006,-0.037,-2.08881645,0.6276256,10.002783,299000,-235000,-359000,98277.771,30.16,6.210000038,-268.022522,-295.4211121,57,-21.65736389,17.99850273,-52.31105804,0,0
08:02.0,-0.353,0.0205,-0.037,-2.221206225,0.67665885,9.919426475,302000,-227000,-364500,98281.77796,30.16,6.869999886,-296.3903503,-294.2292175,58,-21.65736389,17.99850273,-52.31105804,0,0
08:02.0,-0.366,0.047,-0.037,-2.353596,0.7256921,9.83606995,305000,-219000,-370000,98285.78491,30.16,7.089999835,-296.3903503,-293.837504,58.66666667,-21.65736389,17.99850273,-52.31105804,0,0
08:02.0,-0.3465,0.04825,-0.0595,-2.348692675,0.708530463,9.764971738,304750,-215750,-371750,98288.57117,30.16,7.309999784,-296.3903503,-293.4457906,59.33333333,-21.65736389,17.99850273,-52.31105804,0,0
08:02.1,-0.327,0.0495,-0.082,-2.34378935,0.691368825,9.693873525,304500,-212500,-373500,98291.35742,30.16,7.529999733,-296.3903503,-293.0540771,60,-21.65736389,17.99850273,-52.31105804,0,0
08:02.1,-0.3075,0.05075,-0.1045,-2.338886025,0.674207188,9.622775313,304250,-209250,-375250,98294.14368,30.16,7.529999733,-296.3903503,-293.0540771,60,-21.65736389,17.99850273,-52.31105804,0,0
08:02.2,-0.288,0.052,-0.127,-2.3339827,0.65704555,9.5516771,304000,-206000,-377000,98296.92993,30.16,7.529999733,-296.3903503,-293.0540771,60,-21.65736389,17.99850273,-52.31105804,0,0
08:02.2,-0.315,0.019,-0.133,-2.18688295,0.5295591,9.22805765,310000,-189000,-380000,98301.15356,30.15,8.199999809,-324.9157104,-291.8706055,61,-21.65736389,17.99850273,-52.31105804,0,0
08:02.2,-0.284333333,0.021333333,-0.123,-2.209765133,0.477256967,8.705036317,309000,-184666.6667,-382666.6667,98304.53084,30.15,8.199999809,-324.9157104,-291.8706055,61,-21.65736389,17.99850273,-52.31105804,0,0
08:02.3,-0.253666667,0.023666667,-0.113,-2.232647317,0.424954833,8.182014983,308000,-180333.3333,-385333.3333,98307.90812,30.15,8.859999657,-324.9157104,-290.70401,63,-21.65736389,17.99850273,-52.31105804,0,0
08:02.3,-0.223,0.026,-0.103,-2.2555295,0.3726527,7.65899365,307000,-176000,-388000,98311.2854,30.15,8.859999657,-324.9157104,-290.70401,63,-22.20208073,13.64795494,-51.30256653,0,0
08:02.4,-0.054,-0.004,-0.071,-2.50069575,-0.588399,10.13026945,313000,-164000,-390000,98322.15576,30.14,8.859999657,-324.9157104,-290.70401,63,-22.74679756,9.29740715,-50.29407501,0,0
08:02.4,-0.068,-0.01075,-0.03225,-2.498244088,-0.546720738,9.9635564,313250,-162750,-390750,98324.49188,30.14,9.550000191,-337.914856,-289.5121155,65,-22.74679756,9.29740715,-50.29407501,0,0
08:02.4,-0.082,-0.0175,0.0065,-2.495792425,-0.505042475,9.79684335,313500,-161500,-391500,98326.828,30.14,9.550000191,-337.914856,-289.5121155,65,-22.74679756,9.29740715,-50.29407501,0,0
08:02.5,-0.096,-0.02425,0.04525,-2.493340763,-0.463364213,9.6301303,313750,-160250,-392250,98329.16412,30.14,9.894999981,-337.914856,-288.9203644,65.5,-22.74679756,9.29740715,-50.29407501,0,0
08:02.5,-0.11,-0.031,0.084,-2.4908891,-0.42168595,9.46341725,314000,-159000,-393000,98331.50024,30.14,10.23999977,-337.914856,-288.3286133,66,-22.74679756,9.29740715,-50.29407501,0,0
08:02.6,-0.0555,-0.014,0.1055,-2.476179125,0.240262925,9.11037785,315500,-157500,-393000,98334.48792,30.14,10.23999977,-337.914856,-288.3286133,66,-22.74679756,9.29740715,-50.29407501,0,0
08:02.6,-0.001,0.003,0.127,-2.46146915,0.9022118,8.75733845,317000,-156000,-393000,98337.47559,30.14,10.93999958,-367.967041,-287.1620789,68,-22.74679756,9.29740715,-50.29407501,0,0
08:02.6,-0.145,0.010333333,0.092666667,-2.546460117,0.810683067,8.436987883,315000,-156666.6667,-393333.3333,98340.17131,30.14,10.93999958,-367.967041,-287.1620789,68,-22.74679756,9.29740715,-50.29407501,0,0
08:02.7,-0.289,0.017666667,0.058333333,-2.631451083,0.719154333,8.116637317,313000,-157333.3333,-393666.6667,98342.86702,30.14,11.64999962,-367.967041,-285.9617615,70,-22.70510864,7.253025055,-50.96229553,0,0
08:02.7,-0.433,0.025,0.024,-2.71644205,0.6276256,7.79628675,311000,-158000,-394000,98345.56274,30.14,11.64999962,-367.967041,-285.9617615,70,-22.70510864,7.253025055,-50.96229553,0,0
08:02.8,-0.321,0.087,-0.001,-2.5889556,1.42196425,3.04986815,307000,-149000,-395000,98357.42188,30.13,11.64999962,-367.967041,-285.9617615,70,-22.70510864,7.253025055,-50.96229553,0,0
08:02.8,-0.30275,0.081,-0.0415,-2.723797038,1.475900825,4.6483521,307000,-147000,-395000,98361.01075,30.13,12.00499964,-377.639679,-285.3783875,70.5,-22.70510864,7.253025055,-50.96229553,0,0
08:02.8,-0.2845,0.075,-0.082,-2.858638475,1.5298374,6.24683605,307000,-145000,-395000,98364.59961,30.13,12.35999966,-387.3123169,-284.7950134,71,-22.70510864,7.253025055,-50.96229553,0,0
08:02.9,-0.26625,0.069,-0.1225,-2.993479913,1.583773975,7.84532,307000,-143000,-395000,98368.18848,30.13,13.11999989,-387.3123169,-283.6116028,73,-22.70510864,7.253025055,-50.96229553,0,0
08:02.9,-0.248,0.063,-0.163,-3.12832135,1.63771055,9.44380395,307000,-141000,-395000,98371.77734,30.13,13.11999989,-387.3123169,-283.6116028,73,-22.70510864,7.253025055,-50.96229553,0,0
08:03.0,-0.197,0.0505,-0.2215,-3.0008349,1.613193925,10.39995233,309500,-134500,-396500,98375.56763,30.13,13.11999989,-387.3123169,-283.6116028,73,-22.70510864,7.253025055,-50.96229553,0,0
08:03.0,-0.146,0.038,-0.28,-2.87334845,1.5886773,11.3561007,312000,-128000,-398000,98379.35791,30.13,13.92000008,-407.1161194,-282.4027405,75,-23.92495155,1.330679893,-49.96125031,0,0
08:03.0,-0.031666667,0.002,-0.289333333,-2.928919467,0.885867383,11.83008878,314000,-123333.3333,-395666.6667,98383.21126,30.12666667,13.92000008,-407.1161194,-282.4027405,75,-23.92495155,1.330679893,-49.96125031,0,0
08:03.1,0.082666667,-0.034,-0.298666667,-2.984490483,0.183057467,12.30407687,316000,-118666.6667,-393333.3333,98387.06462,30.12333333,14.29999971,-407.1161194,-281.8025666,75.5,-23.92495155,1.330679893,-49.96125031,0,0
08:03.1,0.197,-0.07,-0.308,-3.0400615,-0.51975245,12.77806495,318000,-114000,-391000,98390.91797,30.12,14.67999935,-407.1161194,-281.2023926,76,-23.92495155,1.330679893,-49.96125031,0,0
08:03.2,0.3345,-0.0305,-0.262,-3.005738225,-0.2941995,10.0420096,320500,-112500,-391500,98395.19654,30.12,15.04999971,-401.4557801,-280.5853119,77,-23.92495155,1.330679893,-49.96125031,0,0
08:03.2,0.472,0.009,-0.216,-2.97141495,-0.06864655,7.30595425,323000,-111000,-392000,98399.4751,30.12,15.42000008,-395.7954407,-279.9682312,78,-23.92495155,1.330679893,-49.96125031,0,0
08:03.2,0.229666667,-0.014666667,-0.178,-2.915843933,0.169981933,7.642649233,322333.3333,-112333.3333,-394666.6667,98401.36312,30.11666667,15.42000008,-395.7954407,-279.9682312,78,-23.92495155,1.330679893,-49.96125031,0,0
08:03.3,-0.012666667,-0.038333333,-0.14,-2.860272917,0.408610417,7.979344217,321666.6667,-113666.6667,-397333.3333,98403.25114,30.11333333,15.79500008,-395.7954407,-279.3468628,79,-23.92495155,1.330679893,-49.96125031,0,0
08:03.3,-0.255,-0.062,-0.102,-2.8047019,0.6472389,8.3160392,321000,-115000,-400000,98405.13916,30.11,16.17000008,-395.7954407,-278.7254944,80,-23.92495155,1.330679893,-49.96125031,0,0
08:03.4,-0.274,-0.0675,-0.0785,-2.6674088,0.81395195,8.14932615,321000,-112000,-399500,98407.77893,30.11,16.17000008,-395.7954407,-278.7254944,80,-23.92495155,1.330679893,-49.96125031,0,0
08:03.4,-0.293,-0.073,-0.055,-2.5301157,0.980665,7.9826131,321000,-109000,-399000,98410.4187,30.11,16.92000008,-451.6401367,-277.4744263,82,-23.28697395,1.490390182,-44.53149796,0,0
08:03.4,-0.272666667,-0.070666667,-0.040333333,-2.6085689,0.709347683,8.057797417,318666.6667,-105000,-401333.3333,98414.69523,30.11,16.92000008,-451.6401367,-277.4744263,82,-23.28697395,1.490390182,-44.53149796,0,0
08:03.5,-0.252333333,-0.068333333,-0.025666667,-2.6870221,0.438030367,8.132981733,316333.3333,-101000,-403666.6667,98418.97176,30.11,17.69000053,-451.6401367,-276.2232361,83,-23.28697395,1.490390182,-44.53149796,0,0
08:03.5,-0.232,-0.066,-0.011,-2.7654753,0.16671305,8.20816605,314000,-97000,-406000,98423.24829,30.11,17.69000053,-451.6401367,-276.2232361,83,-23.28697395,1.490390182,-44.53149796,0,0
08:03.6,-0.202,-0.043,-0.011,-2.986124925,-0.299102825,8.164036125,319000,-94500,-406000,98428.68958,30.105,17.69000053,-451.6401367,-276.2232361,83,-23.28697395,1.490390182,-44.53149796,0,0
08:03.6,-0.172,-0.02,-0.011,-3.20677455,-0.7649187,8.1199062,324000,-92000,-406000,98434.13086,30.1,18.09500027,-452.5335388,-275.5892487,84,-23.28697395,1.490390182,-44.53149796,0,0
08:03.6,-0.075,-0.007,-0.007,-3.164279067,-0.777994233,8.626583117,323333.3333,-89666.66667,-407333.3333,98437.51017,30.1,18.5,-453.4269409,-274.9552612,85,-23.28697395,1.490390182,-44.53149796,0,0
08:03.7,0.022,0.006,-0.003,-3.121783583,-0.791069767,9.133260033,322666.6667,-87333.33333,-408666.6667,98440.88949,30.1,18.5,-453.4269409,-274.9552612,85,-23.28697395,1.490390182,-44.53149796,0,0
08:03.7,0.119,0.019,0.001,-3.0792881,-0.8041453,9.63993695,322000,-85000,-410000,98444.2688,30.1,19.30999947,-453.4269409,-273.7126465,87,-22.99753571,-0.689312756,-44.14139175,0,0
08:03.8,0.354,0.019,0.131,-3.20677455,-0.53936575,10.81673495,319000,-94000,-407000,98456.7688,30.1,19.30999947,-453.4269409,-273.7126465,87,-22.99753571,-0.689312756,-44.14139175,0,0
08:03.8,0.2575,0.02275,0.16125,-3.182257925,-0.296651163,9.544322113,320500,-97500,-406250,98459.87702,30.1,19.72999955,-450.3447571,-273.0912781,88,-22.99753571,-0.689312756,-44.14139175,0,0
08:03.8,0.161,0.0265,0.1915,-3.1577413,-0.053936575,8.271909275,322000,-101000,-405500,98462.98523,30.1,20.14999962,-447.2625732,-272.4699097,89,-22.99753571,-0.689312756,-44.14139175,0,0
08:03.9,0.0645,0.03025,0.22175,-3.133224675,0.188778013,6.999496438,323500,-104500,-404750,98466.09345,30.1,20.55999947,-447.2625732,-271.8442994,89.5,-22.99753571,-0.689312756,-44.14139175,0,0
08:03.9,-0.032,0.034,0.252,-3.10870805,0.4314926,5.7270836,325000,-108000,-404000,98469.20166,30.1,20.96999931,-447.2625732,-271.218689,90,-22.99753571,-0.689312756,-44.14139175,0,0
08:04.0,-0.033,-0.036,0.236,-3.172451275,0.7060788,7.61976705,323500,-116500,-399500,98470.85266,30.095,20.96999931,-447.2625732,-271.218689,90,-22.99753571,-0.689312756,-44.14139175,0,0
08:04.0,-0.034,-0.106,0.22,-3.2361945,0.980665,9.5124505,322000,-125000,-395000,98472.50366,30.09,21.38499928,-457.9088135,-270.5973816,91,-22.99753571,-0.689312756,-44.14139175,0,0
08:04.0,-0.12325,-0.107,0.179,-3.263162788,0.958600038,9.603162013,322500,-128250,-393750,98475.38452,30.09,21.79999924,-468.5550537,-269.9760742,92,-22.99753571,-0.689312756,-44.14139175,0,0
08:04.1,-0.2125,-0.108,0.138,-3.290131075,0.936535075,9.693873525,323000,-131500,-392500,98478.26538,30.09,22.0833327,-468.5550537,-269.5618693,92.66666667,-22.99753571,-0.689312756,-44.14139175,0,0
08:04.1,-0.30175,-0.109,0.097,-3.317099363,0.914470113,9.784585038,323500,-134750,-391250,98481.14624,30.09,22.36666616,-468.5550537,-269.1476644,93.33333333,-22.99753571,-0.689312756,-44.14139175,0,0
08:04.2,-0.391,-0.11,0.056,-3.34406765,0.89240515,9.87529655,324000,-138000,-390000,98484.0271,30.09,22.64999962,-468.5550537,-268.7334595,94,-22.99753571,-0.689312756,-44.14139175,0,0
08:04.2,-0.4415,-0.1005,0.003,-3.2165812,1.1179581,9.9243298,323500,-142000,-392500,98490.42969,30.09,23.5,-466.0331726,-267.4907837,96,-22.99753571,-0.689312756,-44.14139175,0,0
08:04.2,-0.492,-0.091,-0.05,-3.08909475,1.34351105,9.97336305,323000,-146000,-395000,98496.83228,30.09,23.5,-466.0331726,-267.4907837,96,-21.10922813,1.364959121,-49.05830002,0,0
08:04.3,-0.696,-0.099,-0.12,-3.2165812,1.01008495,14.3373223,337000,-137000,-394000,98508.06885,30.08,23.5,-466.0331726,-267.4907837,96,-21.10922813,1.364959121,-49.05830002,0,0
08:04.3,-0.509666667,-0.094,-0.144666667,-3.14793465,0.898942917,13.21282643,337000,-131666.6667,-393666.6667,98511.69637,30.08,24.3599987,-466.0331726,-266.2397156,97,-21.10922813,1.364959121,-49.05830002,0,0
08:04.4,-0.323333333,-0.089,-0.169333333,-3.0792881,0.787800883,12.08833057,337000,-126333.3333,-393333.3333,98515.3239,30.08,24.3599987,-466.0331726,-266.2397156,97,-21.10922813,1.364959121,-49.05830002,0,0
08:04.4,-0.137,-0.084,-0.194,-3.01064155,0.67665885,10.9638347,337000,-121000,-393000,98518.95142,30.08,25.18999863,-483.5298462,-264.9631958,99,-21.10922813,1.364959121,-49.05830002,0,0
08:04.4,-0.101,-0.1225,-0.1975,-2.956704975,0.416782625,11.57675033,339000,-126000,-388500,98524.2981,30.08,25.18999863,-483.5298462,-264.9631958,99,-21.10922813,1.364959121,-49.05830002,0,0
08:04.5,-0.065,-0.161,-0.201,-2.9027684,0.1569064,12.18966595,341000,-131000,-384000,98529.64478,30.08,26,-483.5298462,-263.6783142,101,-21.10922813,1.364959121,-49.05830002,0,0
08:04.5,-0.117666667,-0.168,-0.166,-2.879886217,0.130755333,12.52962982,346333.3333,-126000,-388666.6667,98532.2286,30.07666667,26,-483.5298462,-263.6783142,101,-21.10922813,1.364959121,-49.05830002,0,0
08:04.6,-0.170333333,-0.175,-0.131,-2.857004033,0.104604267,12.86959368,351666.6667,-121000,-393333.3333,98534.81242,30.07333333,26,-483.5298462,-263.6783142,101,-21.10922813,1.364959121,-49.05830002,0,0
08:04.6,-0.223,-0.182,-0.096,-2.83412185,0.0784532,13.20955755,357000,-116000,-398000,98537.39624,30.07,26.76999855,-502.5014954,-262.368103,103,-18.77260971,-4.463757992,-45.75524521,0,0
08:04.6,-0.151,-0.177666667,-0.092333333,-2.840659617,-0.081722083,12.88920698,358333.3333,-114333.3333,-398000,98540.5009,30.07,26.95749855,-502.5014954,-262.0383911,103.5,-18.77260971,-4.463757992,-45.75524521,0,0
08:04.7,-0.079,-0.173333333,-0.088666667,-2.847197383,-0.241897367,12.56885642,359666.6667,-112666.6667,-398000,98543.60555,30.07,27.14499855,-502.5014954,-261.7086792,104,-18.77260971,-4.463757992,-45.75524521,0,0
08:04.7,-0.007,-0.169,-0.085,-2.85373515,-0.40207265,12.24850585,361000,-111000,-398000,98546.71021,30.07,27.51999855,-502.5014954,-261.0492554,105,-18.77260971,-4.463757992,-45.75524521,0,0
08:04.8,0.107,-0.1745,-0.0305,-2.721345375,-0.289296175,13.14581433,359500,-113500,-400000,98549.92371,30.07,27.87499905,-506.7179718,-260.3772126,106,-18.77260971,-4.463757992,-45.75524521,0,0
08:04.8,0.221,-0.18,0.024,-2.5889556,-0.1765197,14.0431228,358000,-116000,-402000,98553.13721,30.07,28.22999954,-510.9344482,-259.7051697,107,-18.77260971,-4.463757992,-45.75524521,0,0
08:04.8,0.188666667,-0.171,0.047,-2.670677683,-0.0392266,14.8472681,362000,-121333.3333,-400333.3333,98556.58773,30.06666667,28.22999954,-510.9344482,-259.7051697,107,-18.77260971,-4.463757992,-45.75524521,0,0
08:04.9,0.156333333,-0.162,0.07,-2.752399767,0.0980665,15.6514134,366000,-126666.6667,-398666.6667,98560.03825,30.06333333,28.56499958,-510.9344482,-259.0331269,107.5,-18.00192213,-4.110106588,-45.77460003,0,0
08:04.9,0.124,-0.153,0.093,-2.83412185,0.2353596,16.4555587,370000,-132000,-397000,98563.48877,30.06,28.89999962,-510.9344482,-258.361084,108,-17.23123455,-3.756455183,-45.79395485,0,0
08:05.0,0.1105,-0.1315,0.0505,-2.740958675,0.524655775,14.22944915,363500,-138500,-398500,98565.6189,30.06,28.89999962,-510.9344482,-258.361084,108,-15.68985939,-3.049152374,-45.83266449,0,0
08:05.0,0.097,-0.11,0.008,-2.6477955,0.81395195,12.0033396,357000,-145000,-400000,98567.74902,30.06,29.19999981,-523.2462769,-257.6763764,109,-15.68985939,-3.049152374,-45.83266449,0,0
08:05.0,0.046,-0.116,-0.004666667,-2.7066354,0.712616567,12.13082605,359000,-147666.6667,-399000,98570.95744,30.05666667,29.5,-535.5581055,-256.9916687,110,-15.68985939,-3.049152374,-45.83266449,0,0
08:05.1,-0.005,-0.122,-0.017333333,-2.7654753,0.611281183,12.2583125,361000,-150333.3333,-398000,98574.16585,30.05333333,30.06999969,-535.5581055,-255.6221924,112,-15.68985939,-3.049152374,-45.83266449,0,0
08:05.1,-0.056,-0.128,-0.03,-2.8243152,0.5099458,12.38579895,363000,-153000,-397000,98577.37427,30.05,30.06999969,-535.5581055,-255.6221924,112,-15.68985939,-3.049152374,-45.83266449,0,0
08:05.2,0.048,-0.114,-0.094,-2.6674088,0.6080123,10.24794925,357000,-156000,-395000,98586.67603,30.05,30.06999969,-535.5581055,-255.6221924,112,-15.68985939,-3.049152374,-45.83266449,0,0
08:05.2,0.008,-0.1255,-0.1005,-2.699280413,0.478074187,10.74318508,358750,-157750,-393750,98588.20038,30.05,30.33499908,-553.3327027,-254.9332733,113,-15.68985939,-3.049152374,-45.83266449,0,0
08:05.2,-0.032,-0.137,-0.107,-2.731152025,0.348136075,11.2384209,360500,-159500,-392500,98589.72474,30.05,30.59999847,-571.1072998,-254.2443542,114,-15.68985939,-3.049152374,-45.83266449,0,0
08:05.3,-0.072,-0.1485,-0.1135,-2.763023638,0.218197963,11.73365673,362250,-161250,-391250,98591.24909,30.05,31.12999916,-571.1072998,-252.8578796,116,-15.68985939,-3.049152374,-45.83266449,0,0
08:05.3,-0.112,-0.16,-0.12,-2.79489525,0.08825985,12.22889255,364000,-163000,-390000,98592.77344,30.05,31.12999916,-571.1072998,-252.8578796,116,-14.42538166,-2.81961596,-45.54773331,0,0
08:05.4,-0.147,-0.1525,-0.106,-2.682118775,0.044129925,11.68462348,363000,-158500,-390500,98594.37256,30.045,31.12999916,-571.1072998,-252.8578796,116,-13.16090393,-2.590079546,-45.26280212,0,0
08:05.4,-0.182,-0.145,-0.092,-2.5693423,1.36E-15,11.1403544,362000,-154000,-391000,98595.97168,30.04,31.38499928,-567.9992676,-252.1689453,117,-13.16090393,-2.590079546,-45.26280212,0,0
08:05.4,-0.1415,-0.14,-0.079,-2.4124359,-0.00980665,10.39014568,357000,-149500,-393500,98600.90943,30.04,31.63999939,-564.8912354,-251.480011,118,-13.16090393,-2.590079546,-45.26280212,0,0
08:05.5,-0.101,-0.135,-0.066,-2.2555295,-0.0196133,9.63993695,352000,-145000,-396000,98605.84717,30.04,31.63999939,-564.8912354,-251.480011,118,-13.16090393,-2.590079546,-45.26280212,0,0
08:05.5,0.079666667,-0.115666667,-0.04,-2.26533615,-0.3726527,9.99297635,351333.3333,-144000,-398000,98605.99365,30.04,31.89499855,-564.8912354,-250.7868576,119,-13.16090393,-2.590079546,-45.26280212,0,0
08:05.6,0.260333333,-0.096333333,-0.014,-2.2751428,-0.7256921,10.34601575,350666.6667,-143000,-400000,98606.14014,30.04,32.14999771,-564.8912354,-250.0937042,120,-13.16090393,-2.590079546,-45.26280212,0,0
08:05.6,0.441,-0.077,0.012,-2.28494945,-1.0787315,10.69905515,350000,-142000,-402000,98606.28662,30.04,32.65999985,-563.2314453,-248.7242584,122,-13.16090393,-2.590079546,-45.26280212,0,0
08:05.6,0.439666667,-0.052333333,0.073333333,-2.317638283,-0.9022118,10.16622717,353000,-149000,-401666.6667,98608.26009,30.04,32.65999985,-563.2314453,-248.7242584,122,-13.16090393,-2.590079546,-45.26280212,0,0
08:05.7,0.438333333,-0.027666667,0.134666667,-2.350327117,-0.7256921,9.633399183,356000,-156000,-401333.3333,98610.23356,30.04,33.16999817,-563.2314453,-247.3548737,123,-13.16090393,-2.590079546,-45.26280212,0,0
08:05.7,0.437,-0.003,0.196,-2.38301595,-0.5491724,9.1005712,359000,-163000,-401000,98612.20703,30.04,33.16999817,-563.2314453,-247.3548737,123,-12.09197998,-0.748281181,-45.32338905,0,0
08:05.8,0.0735,-0.0455,0.2405,-2.4908891,-0.1765197,11.24332423,355500,-175500,-398500,98614.39514,30.035,33.16999817,-563.2314453,-247.3548737,123,-11.02305603,1.093517184,-45.38397598,0,0
08:05.8,-0.29,-0.088,0.285,-2.59876225,0.196133,13.38607725,352000,-188000,-396000,98616.58325,30.03,33.66999817,-553.0725708,-245.9937592,125,-11.02305603,1.093517184,-45.38397598,0,0
08:05.8,-0.375333333,-0.090666667,0.272666667,-2.4712758,0.447837017,13.71950335,352666.6667,-190666.6667,-394666.6667,98620.72754,30.03,33.66999817,-553.0725708,-245.9937592,125,-11.02305603,1.093517184,-45.38397598,0,0
08:05.9,-0.460666667,-0.093333333,0.260333333,-2.34378935,0.699541033,14.05292945,353333.3333,-193333.3333,-393333.3333,98624.87182,30.03,33.90999794,-553.0725708,-245.3217469,126,-11.02305603,1.093517184,-45.38397598,0,0
08:05.9,-0.546,-0.096,0.248,-2.2163029,0.95124505,14.38635555,354000,-196000,-392000,98629.01611,30.03,34.14999771,-553.0725708,-244.6497345,127,-11.02305603,1.093517184,-45.38397598,0,0
08:06.0,-0.615,-0.112,0.1835,-2.1770763,0.980665,15.1414676,359500,-194000,-393000,98629.54102,30.025,34.14999771,-553.0725708,-244.6497345,127,-11.02305603,1.093517184,-45.38397598,0,0
08:06.0,-0.684,-0.128,0.119,-2.1378497,1.01008495,15.89657965,365000,-192000,-394000,98630.06592,30.02,34.56999969,-546.4429932,-243.2972107,129,-11.02305603,1.093517184,-45.38397598,0,0
08:06.0,-0.4325,-0.095,0.044,-1.995653275,1.044408225,15.26405073,382000,-190500,-388500,98632.08619,30.02,34.56999969,-546.4429932,-243.2972107,129,-11.02305603,1.093517184,-45.38397598,0,0
08:06.1,-0.181,-0.062,-0.031,-1.85345685,1.0787315,14.6315218,399000,-189000,-383000,98634.10645,30.02,34.93999863,-546.4429932,-241.9277802,131,-9.425319672,-6.716835976,-49.54834747,0,0
08:06.1,-0.138,-0.065666667,-0.058666667,-1.8044236,1.003547183,14.26540687,408666.6667,-195333.3333,-377333.3333,98637.04224,30.02,35.04333242,-547.2300212,-241.4628601,131.6666667,-9.425319672,-6.716835976,-49.54834747,0,0
08:06.2,-0.095,-0.069333333,-0.086333333,-1.75539035,0.928362867,13.89929193,418333.3333,-201666.6667,-371666.6667,98639.97803,30.02,35.14666621,-548.0170491,-240.9979401,132.3333333,-9.425319672,-6.716835976,-49.54834747,0,0
08:06.2,-0.052,-0.073,-0.114,-1.7063571,0.85317855,13.533177,428000,-208000,-366000,98642.91382,30.02,35.25,-548.8040771,-240.53302,133,-9.425319672,-6.716835976,-49.54834747,0,0
08:06.2,0.0365,-0.0845,-0.147,-1.613193925,0.75511205,12.8270982,448500,-217500,-357500,98644.82422,30.015,35.25,-548.8040771,-240.53302,133,-9.425319672,-6.716835976,-49.54834747,0,0
08:06.3,0.125,-0.096,-0.18,-1.52003075,0.65704555,12.1210194,469000,-227000,-349000,98646.73462,30.01,35.52000046,-548.8040771,-239.1213379,135,-9.425319672,-6.716835976,-49.54834747,0,0
08:06.3,0.188666667,-0.114333333,-0.18,-1.4906108,0.487063617,11.87585315,484666.6667,-238666.6667,-340000,98647.60132,30.01,35.52000046,-548.8040771,-239.1213379,135,-9.425319672,-6.716835976,-49.54834747,0,0
08:06.4,0.252333333,-0.132666667,-0.18,-1.46119085,0.317081683,11.6306869,500333.3333,-250333.3333,-331000,98648.46802,30.01,35.52000046,-548.8040771,-239.1213379,135,-9.425319672,-6.716835976,-49.54834747,0,0
08:06.4,0.316,-0.151,-0.18,-1.4317709,0.14709975,11.38552065,516000,-262000,-322000,98649.33472,30.01,35.75,-524.434082,-237.6672516,136,-9.425319672,-6.716835976,-49.54834747,0,0
08:06.4,0.35,-0.1575,-0.1545,-1.348414375,-0.004903325,12.44463885,531500,-281500,-311000,98652.80762,30.01,35.75,-524.434082,-237.6672516,136,-9.425319672,-6.716835976,-49.54834747,0,0
08:06.5,0.384,-0.164,-0.129,-1.26505785,-0.1569064,13.50375705,547000,-301000,-300000,98656.28052,30.01,35.96999741,-524.434082,-236.2133026,138,-7.23685503,-5.049195766,-47.10242462,0,0
08:06.5,0.359,-0.176,-0.097666667,-1.320628867,-0.062108783,13.71623447,560666.6667,-313666.6667,-292666.6667,98657.41781,30.00666667,35.96999741,-524.434082,-236.2133026,138,-7.23685503,-5.049195766,-47.10242462,0,0
08:06.6,0.334,-0.188,-0.066333333,-1.376199883,0.032688833,13.92871188,574333.3333,-326333.3333,-285333.3333,98658.55509,30.00333333,35.96999741,-524.434082,-236.2133026,138,-7.23685503,-5.049195766,-47.10242462,0,0
08:06.6,0.309,-0.2,-0.035,-1.4317709,0.12748645,14.1411893,588000,-339000,-278000,98659.69238,30,36.06999779,-523.7825317,-235.4736099,139,-7.23685503,-5.049195766,-47.10242462,0,0
08:06.6,0.296666667,-0.187666667,-0.024,-1.26505785,-0.006537767,12.44136997,597000,-359666.6667,-267333.3333,98658.61002,30,36.16999817,-523.1309814,-234.7339172,140,-7.23685503,-5.049195766,-47.10242462,0,0
08:06.7,0.284333333,-0.175333333,-0.013,-1.0983448,-0.140561983,10.74155063,606000,-380333.3333,-256666.6667,98657.52767,30,36.34000015,-523.1309814,-233.2630768,142,-7.23685503,-5.049195766,-47.10242462,0,0
08:06.7,0.272,-0.163,-0.002,-0.93163175,-0.2745862,9.0417313,615000,-401000,-246000,98656.44531,30,36.34000015,-523.1309814,-233.2630768,142,-7.23685503,-5.049195766,-47.10242462,0,0
08:06.8,0.355,-0.17,0.013,-0.897308475,-0.201036325,9.301607525,632000,-406500,-243000,98659.9762,29.995,36.34000015,-523.1309814,-233.2630768,142,-7.23685503,-5.049195766,-47.10242462,0,0
08:06.8,0.438,-0.177,0.028,-0.8629852,-0.12748645,9.56148375,649000,-412000,-240000,98663.50708,29.99,36.42499924,-525.0469055,-232.5276566,143,-5.622513771,-1.73990351,-46.78930855,0,0
08:06.8,0.396666667,-0.190666667,0.035666667,-0.797607533,-0.055571017,10.47677108,664333.3333,-435666.6667,-232000,98663.00456,29.99,36.50999832,-526.9628296,-231.7922363,144,-4.008172512,1.569388747,-46.47619247,0,0
08:06.9,0.355333333,-0.204333333,0.043333333,-0.732229867,0.016344417,11.39205842,679666.6667,-459333.3333,-224000,98662.50203,29.99,36.50999832,-526.9628296,-231.7922363,144,-4.008172512,1.569388747,-46.47619247,0,0
08:06.9,0.314,-0.218,0.051,-0.6668522,0.08825985,12.30734575,695000,-483000,-216000,98661.99951,29.99,36.68000031,-526.9628296,-230.3383179,146,-4.008172512,1.569388747,-46.47619247,0,0
08:07.0,0.2305,-0.2165,0.0545,-0.65704555,0.299102825,12.83690485,679000,-492500,-208500,98666.26282,29.99,36.68000031,-526.9628296,-230.3383179,146,-4.008172512,1.569388747,-46.47619247,0,0
08:07.0,0.147,-0.215,0.058,-0.6472389,0.5099458,13.36646395,663000,-502000,-201000,98670.52612,29.99,36.84000015,-518.0160522,-228.8842316,148,-4.008172512,1.569388747,-46.47619247,0,0
08:07.0,0.132666667,-0.222333333,0.047333333,-0.55897905,0.4118793,14.40596885,684666.6667,-522666.6667,-187666.6667,98672.63997,29.98666667,36.84000015,-518.0160522,-228.8842316,148,-4.008172512,1.569388747,-46.47619247,0,0
08:07.1,0.118333333,-0.229666667,0.036666667,-0.4707192,0.3138128,15.44547375,706333.3333,-543333.3333,-174333.3333,98674.75383,29.98333333,36.97999954,-518.0160522,-227.4471893,150,-0.827565551,5.814695835,-47.03947067,0,0
08:07.1,0.104,-0.237,0.026,-0.38245935,0.2157463,16.48497865,728000,-564000,-161000,98676.86768,29.98,36.97999954,-518.0160522,-227.4471893,150,-0.827565551,5.814695835,-47.03947067,0,0
08:07.2,0.166,-0.245,0.0315,-0.32361945,0.348136075,17.47054697,745000,-581000,-157500,98672.25953,29.98,36.97999954,-518.0160522,-227.4471893,150,-0.827565551,5.814695835,-47.03947067,0,0
08:07.2,0.228,-0.253,0.037,-0.26477955,0.48052585,18.4561153,762000,-598000,-154000,98667.65137,29.98,37.04999924,-510.6376648,-226.0270844,152,-0.827565551,5.814695835,-47.03947067,0,0
08:07.2,0.143333333,-0.245,0.033333333,-0.163444167,0.604743417,18.01481605,763333.3333,-604666.6667,-152666.6667,98668.64421,29.97666667,37.04999924,-510.6376648,-225.5593109,152.3333333,-0.827565551,5.814695835,-47.03947067,0,0
08:07.3,0.058666667,-0.237,0.029666667,-0.062108783,0.728960983,17.5735168,764666.6667,-611333.3333,-151333.3333,98669.63704,29.97333333,37.04999924,-510.6376648,-225.0915375,152.6666667,-0.827565551,5.814695835,-47.03947067,0,0
08:07.3,-0.026,-0.229,0.026,0.0392266,0.85317855,17.13221755,766000,-618000,-150000,98670.62988,29.97,37.04999924,-510.6376648,-224.623764,153,-0.827565551,5.814695835,-47.03947067,0,0
08:07.4,-0.1335,-0.228,0,0.10787315,0.91201845,17.68629328,788000,-641000,-140000,98673.01026,29.975,37.04999924,-510.6376648,-224.623764,153,-0.827565551,5.814695835,-47.03947067,0,0
08:07.4,-0.241,-0.227,-0.026,0.1765197,0.97085835,18.240369,810000,-664000,-130000,98675.39063,29.98,36.97999954,-502.6235657,-223.2543793,155,-0.827565551,5.814695835,-47.03947067,0,0
08:07.4,-0.6595,-0.194,-0.067,0.34323275,0.9610517,19.36323043,791500,-640000,-135500,98673.98987,29.975,36.97999954,-502.6235657,-223.2543793,155,-0.827565551,5.814695835,-47.03947067,0,0
08:07.5,-1.078,-0.161,-0.108,0.5099458,0.95124505,20.48609185,773000,-616000,-141000,98672.58911,29.97,36.97999954,-502.6235657,-223.2543793,155,3.755363941,6.314136028,-47.06336594,0,0
08:07.5,-0.814333333,-0.149666667,-0.116,0.552441283,0.679927733,20.16574128,777333.3333,-607000,-146666.6667,98670.1416,29.97,36.89499855,-502.6235657,-222.573906,156,3.755363941,6.314136028,-47.06336594,0,0
08:07.6,-0.550666667,-0.138333333,-0.124,0.594936767,0.408610417,19.84539072,781666.6667,-598000,-152333.3333,98667.69409,29.97,36.80999756,-502.6235657,-221.8934326,157,3.755363941,6.314136028,-47.06336594,0,0
08:07.6,-0.287,-0.127,-0.132,0.63743225,0.1372931,19.52504015,786000,-589000,-158000,98665.24658,29.97,36.54000092,-483.8224487,-220.557785,159,3.755363941,6.314136028,-47.06336594,0,0
08:07.6,-0.131666667,-0.125,-0.097,0.581861233,0,17.83175858,780333.3333,-580000,-157333.3333,98661.87947,29.97,36.44750023,-483.8224487,-220.2281151,159.5,3.755363941,6.314136028,-47.06336594,0,0
08:07.7,0.023666667,-0.123,-0.062,0.526290217,-0.1372931,16.13847702,774666.6667,-571000,-156666.6667,98658.51237,29.97,36.35499955,-483.8224487,-219.8984451,160,3.755363941,6.314136028,-47.06336594,0,0
08:07.7,0.179,-0.121,-0.027,0.4707192,-0.2745862,14.44519545,769000,-562000,-156000,98655.14526,29.97,36.26249886,-483.8224487,-219.5687752,160.5,3.755363941,6.314136028,-47.06336594,0,0
08:07.8,0.225,-0.0845,-0.002,0.4511059,-0.16671305,11.85623985,730500,-551000,-171000,98654.22669,29.965,36.16999817,-483.8224487,-219.2391052,161,3.755363941,6.314136028,-47.06336594,0,0
08:07.8,0.271,-0.048,0.023,0.4314926,-0.0588399,9.26728425,692000,-540000,-186000,98653.30811,29.96,35.72999954,-458.5983276,-217.9203033,163,3.755363941,6.314136028,-47.06336594,0,0
08:07.8,0.293,-0.042666667,0.023,0.28439285,0.02941995,9.5909037,683000,-532333.3333,-187666.6667,98656.58977,29.96,35.72999954,-458.5983276,-217.9203033,163,3.755363941,6.314136028,-47.06336594,0,0
08:07.9,0.315,-0.037333333,0.023,0.1372931,0.1176798,9.91452315,674000,-524666.6667,-189333.3333,98659.87142,29.96,35.50499916,-458.5983276,-217.2651901,163.5,5.161959171,4.778172255,-46.09281731,0,0
08:07.9,0.337,-0.032,0.023,-0.00980665,0.20593965,10.2381426,665000,-517000,-191000,98663.15308,29.96,35.27999878,-458.5983276,-216.6100769,164,6.568554401,3.242208481,-45.12226868,0,0
08:08.0,0.331,-0.03,0.0245,-0.063743225,0.0784532,10.29207918,625500,-500500,-210500,98651.36109,29.955,35.27999878,-458.5983276,-216.6100769,164,6.568554401,3.242208481,-45.12226868,0,0
08:08.0,0.325,-0.028,0.026,-0.1176798,-0.04903325,10.34601575,586000,-484000,-230000,98639.56909,29.95,34.82999802,-440.3883057,-215.3082428,166,6.568554401,3.242208481,-45.12226868,0,0
08:08.0,0.273666667,-0.025,0.038,-0.140561983,0.006537767,10.7480884,586333.3333,-491333.3333,-231666.6667,98640.74503,29.95,34.82999802,-440.3883057,-215.3082428,166,6.568554401,3.242208481,-45.12226868,0,0
08:08.1,0.222333333,-0.022,0.05,-0.163444167,0.062108783,11.15016105,586666.6667,-498666.6667,-233333.3333,98641.92098,29.95,34.82999802,-440.3883057,-215.3082428,166,6.568554401,3.242208481,-45.12226868,0,0
08:08.1,0.171,-0.019,0.062,-0.18632635,0.1176798,11.5522337,587000,-506000,-235000,98643.09692,29.95,34.38999939,-440.3883057,-214.0233765,168,6.568554401,3.242208481,-45.12226868,0,0
08:08.2,0.2395,-0.03,0.0665,-0.1569064,-0.053936575,12.04746953,580000,-506000,-233500,98636.26709,29.945,34.38999939,-440.3883057,-214.0233765,168,6.568554401,3.242208481,-45.12226868,0,0
08:08.2,0.308,-0.041,0.071,-0.12748645,-0.22555295,12.54270535,573000,-506000,-232000,98629.43726,29.94,34.17499924,-429.7428132,-213.3893738,169,6.802482367,5.744146347,-45.54514504,0,0
08:08.2,0.223,-0.0525,0.082,-0.04903325,-0.2941995,12.83200153,567500,-506500,-220000,98628.66211,29.94,33.95999908,-419.0973206,-212.7553711,170,7.036410332,8.246084213,-45.96802139,0,0
08:08.3,0.138,-0.064,0.093,0.02941995,-0.36284605,13.1212977,562000,-507000,-208000,98627.88696,29.94,33.95999908,-419.0973206,-212.7553711,170,7.036410332,8.246084213,-45.96802139,0,0
08:08.3,0.106333333,-0.035,0.134333333,-0.013075533,-0.150368633,12.04583508,556333.3333,-501666.6667,-222666.6667,98625.8077,29.94,33.7349987,-419.0973206,-212.1340714,170.5,7.036410332,8.246084213,-45.96802139,0,0
08:08.4,0.074666667,-0.006,0.175666667,-0.055571017,0.062108783,10.97037247,550666.6667,-496333.3333,-237333.3333,98623.72843,29.94,33.50999832,-419.0973206,-211.5127716,171,7.036410332,8.246084213,-45.96802139,0,0
08:08.4,0.043,0.023,0.217,-0.0980665,0.2745862,9.89490985,545000,-491000,-252000,98621.64917,29.94,33.04000092,-379.4170532,-210.3039856,173,7.036410332,8.246084213,-45.96802139,0,0
08:08.4,0.051,0.0285,0.2165,-0.10787315,0.5295591,10.08613953,530000,-488000,-256500,98618.16407,29.935,33.04000092,-379.4170532,-210.3039856,173,7.036410332,8.246084213,-45.96802139,0,0
08:08.5,0.059,0.034,0.216,-0.1176798,0.784532,10.2773692,515000,-485000,-261000,98614.67896,29.93,33.04000092,-379.4170532,-210.3039856,173,7.036410332,8.246084213,-45.96802139,0,0
08:08.5,-0.036666667,0.049666667,0.184333333,-0.0980665,0.709347683,9.9635564,496666.6667,-470333.3333,-269666.6667,98612.57731,29.93,32.57999802,-379.4170532,-209.1204071,175,7.665977955,10.04241562,-48.62307739,0,0
08:08.6,-0.132333333,0.065333333,0.152666667,-0.0784532,0.634163367,9.6497436,478333.3333,-455666.6667,-278333.3333,98610.47567,29.93,32.09999847,-353.303894,-207.9538879,176,7.665977955,10.04241562,-48.62307739,0,0
08:08.6,-0.228,0.081,0.121,-0.0588399,0.55897905,9.3359308,460000,-441000,-287000,98608.37402,29.93,32.09999847,-353.303894,-207.9538879,176,7.665977955,10.04241562,-48.62307739,0,0
08:08.6,-0.2035,0.111,0.0685,-0.2745862,0.740402075,7.20788775,443500,-441500,-291500,98602.89307,29.925,32.09999847,-353.303894,-207.9538879,176,7.665977955,10.04241562,-48.62307739,0,0
08:08.7,-0.179,0.141,0.016,-0.4903325,0.9218251,5.0798447,427000,-442000,-296000,98597.41211,29.92,31.94333203,-353.303894,-207.5740763,176.6666667,7.665977955,10.04241562,-48.62307739,0,0
08:08.7,-0.304666667,0.123666667,0.001333333,-0.496870267,0.8041453,6.125887367,428000,-431666.6667,-299000,98597.40194,29.92,31.7866656,-353.303894,-207.1942647,177.3333333,7.665977955,10.04241562,-48.62307739,0,0
08:08.8,-0.430333333,0.106333333,-0.013333333,-0.503408033,0.6864655,7.171930033,429000,-421333.3333,-302000,98597.39176,29.92,31.62999916,-353.303894,-206.8144531,178,7.665977955,10.04241562,-48.62307739,0,0
08:08.8,-0.556,0.089,-0.028,-0.5099458,0.5687857,8.2179727,430000,-411000,-305000,98597.38159,29.92,31.4099989,-335.2421722,-206.2438355,179,7.665977955,10.04241562,-48.62307739,0,0
08:08.8,-0.439666667,0.113,-0.063666667,-0.562247933,0.542634633,7.93357985,418000,-396000,-310666.6667,98594.71029,29.92,31.18999863,-317.1804504,-205.6732178,180,7.665977955,10.04241562,-48.62307739,0,0
08:08.9,-0.323333333,0.137,-0.099333333,-0.614550067,0.516483567,7.649187,406000,-381000,-316333.3333,98592.03898,29.92,31.18999863,-317.1804504,-205.6732178,180,7.665977955,10.04241562,-48.62307739,0,0
08:08.9,-0.207,0.161,-0.135,-0.6668522,0.4903325,7.36479415,394000,-366000,-322000,98589.36768,29.92,30.77999878,-317.1804504,-204.6486816,181,7.665977955,10.04241562,-48.62307739,0,0
08:09.0,-0.1345,0.1465,-0.14,-0.671755525,0.397169325,6.604778775,380500,-352000,-333000,98584.93653,29.915,30.42000008,-293.4766846,-203.5283813,183,4.489749432,3.880370855,-49.74713135,0,0
08:09.0,-0.062,0.132,-0.145,-0.67665885,0.30400615,5.8447634,367000,-338000,-344000,98580.50537,29.91,30.42000008,-293.4766846,-203.5283813,183,4.489749432,3.880370855,-49.74713135,0,0
08:09.0,-0.144333333,0.123,-0.128333333,-0.67665885,0.258241783,6.047434167,370000,-331000,-345666.6667,98579.03646,29.91,30.42000008,-293.4766846,-203.5283813,183,4.489749432,3.880370855,-49.74713135,0,0
08:09.1,-0.226666667,0.114,-0.111666667,-0.67665885,0.212477417,6.250104933,373000,-324000,-347333.3333,98577.56754,29.91,30.09999847,-293.4766846,-202.4081573,185,4.489749432,3.880370855,-49.74713135,0,0
08:09.1,-0.309,0.105,-0.095,-0.67665885,0.16671305,6.4527757,376000,-317000,-349000,98576.09863,29.91,30.09999847,-293.4766846,-202.4081573,185,4.489749432,3.880370855,-49.74713135,0,0
08:09.2,-0.201,0.095,-0.07,-0.5687857,0.0392266,6.73716855,368000,-302000,-354000,98572.65625,29.91,30.09999847,-293.4766846,-202.4081573,185,4.489749432,3.880370855,-49.74713135,0,0
08:09.2,-0.14075,0.1005,-0.06025,-0.581044012,0.02941995,6.7665885,365500,-298500,-357500,98570.83893,29.9075,29.9649992,-283.4823609,-201.9663239,185.5,4.489749432,3.880370855,-49.74713135,0,0
08:09.2,-0.0805,0.106,-0.0505,-0.593302325,0.0196133,6.79600845,363000,-295000,-361000,98569.02161,29.905,29.82999992,-273.4880371,-201.5244904,186,4.489749432,3.880370855,-49.74713135,0,0
08:09.3,-0.02025,0.1115,-0.04075,-0.605560638,0.00980665,6.8254284,360500,-291500,-364500,98567.20428,29.9025,29.59999847,-273.4880371,-200.4198761,188,4.489749432,3.880370855,-49.74713135,0,0
08:09.3,0.04,0.117,-0.031,-0.61781895,8.39E-16,6.85484835,358000,-288000,-368000,98565.38696,29.9,29.59999847,-273.4880371,-200.4198761,188,4.489749432,3.880370855,-49.74713135,0,0
08:09.4,0.0255,0.1155,-0.003,-0.603108975,0.210842975,7.124531225,362000,-292000,-368000,98564.29749,29.9,29.59999847,-273.4880371,-200.4198761,188,4.489749432,3.880370855,-49.74713135,0,0
08:09.4,0.011,0.114,0.025,-0.588399,0.42168595,7.3942141,366000,-296000,-368000,98563.20801,29.9,29.39999962,-247.8729248,-199.3237152,189,4.489749432,3.880370855,-49.74713135,0,0
08:09.4,0.0195,0.1245,0.0195,-0.7256921,0.230456275,6.879364975,365000,-287000,-371500,98561.70044,29.895,29.39999962,-247.8729248,-199.3237152,189,1.251598358,1.976786137,-48.20297623,0,0
08:09.5,0.028,0.135,0.014,-0.8629852,0.0392266,6.36451585,364000,-278000,-375000,98560.19287,29.89,29.39999962,-247.8729248,-199.3237152,189,1.251598358,1.976786137,-48.20297623,0,0
08:09.5,-0.03525,0.127,0.013,-0.806596963,0.056388238,6.715103588,365750,-278250,-373500,98558.77686,29.89,29.30999947,-247.8729248,-198.8605805,190,1.251598358,1.976786137,-48.20297623,0,0
08:09.6,-0.0985,0.119,0.012,-0.750208725,0.073549875,7.065691325,367500,-278500,-372000,98557.36084,29.89,29.21999931,-247.8729248,-198.3974457,191,1.251598358,1.976786137,-48.20297623,0,0
08:09.6,-0.16175,0.111,0.011,-0.693820488,0.090711513,7.416279063,369250,-278750,-370500,98555.94483,29.89,29.14999962,-238.7557984,-197.8497315,191.5,1.251598358,1.976786137,-48.20297623,0,0
08:09.6,-0.225,0.103,0.01,-0.63743225,0.10787315,7.7668668,371000,-279000,-369000,98554.52881,29.89,29.07999992,-229.6386719,-197.3020172,192,1.251598358,1.976786137,-48.20297623,0,0
08:09.7,-0.392,0.0895,0.0195,-0.691368825,0.014709975,7.84532,367000,-276000,-372000,98552.82898,29.89,28.94999886,-229.6386719,-196.6331177,194,1.251598358,1.976786137,-48.20297623,0,0
08:09.7,-0.559,0.076,0.029,-0.7453054,-0.0784532,7.9237732,363000,-273000,-375000,98551.12915,29.89,28.94999886,-229.6386719,-196.6331177,194,1.251598358,1.976786137,-48.20297623,0,0
08:09.8,-0.442,0.054,0.05,-0.6472389,0.06864655,9.262380925,366000,-263000,-376500,98550.35401,29.885,28.94999886,-229.6386719,-196.6331177,194,1.251598358,1.976786137,-48.20297623,0,0
08:09.8,-0.325,0.032,0.071,-0.5491724,0.2157463,10.60098865,369000,-253000,-378000,98549.57886,29.88,28.89499951,-220.5554963,-196.0783615,195,1.251598358,1.976786137,-48.20297623,0,0
08:09.8,-0.216666667,0.056333333,0.078,-0.536096867,0.4511059,10.4931155,372000,-246666.6667,-379666.6667,98549.45475,29.88,28.84000015,-211.4723206,-195.5236053,196,1.251598358,1.976786137,-48.20297623,0,0
08:09.9,-0.108333333,0.080666667,0.085,-0.523021333,0.6864655,10.38524235,375000,-240333.3333,-381333.3333,98549.33065,29.88,28.72999954,-211.4723206,-194.414093,197,1.251598358,1.976786137,-48.20297623,0,0
08:09.9,0,0.105,0.092,-0.5099458,0.9218251,10.2773692,378000,-234000,-383000,98549.20654,29.88,28.72999954,-211.4723206,-194.414093,197,-1.716601849,-2.865987778,-49.33086014,0,0
08:10.0,0.042,0.151,0.028,-0.75511205,0.75511205,9.01231135,371000,-238000,-382000,98547.27173,29.88,28.72999954,-211.4723206,-194.414093,197,-1.716601849,-2.865987778,-49.33086014,0,0
08:10.0,0.048333333,0.136,0.004666667,-0.728960983,0.751843167,8.969815867,375000,-236333.3333,-378333.3333,98546.03882,29.87666667,28.68666585,-208.6477255,-194.2008463,197.6666667,-1.716601849,-2.865987778,-49.33086014,0,0
08:10.0,0.054666667,0.121,-0.018666667,-0.702809917,0.748574283,8.927320383,379000,-234666.6667,-374666.6667,98544.80591,29.87333333,28.64333216,-205.8231303,-193.9875997,198.3333333,-1.716601849,-2.865987778,-49.33086014,0,0
08:10.1,0.061,0.106,-0.042,-0.67665885,0.7453054,8.8848249,383000,-233000,-371000,98543.573,29.87,28.59999847,-202.9985352,-193.774353,199,-1.716601849,-2.865987778,-49.33086014,0,0
08:10.1,0.110333333,0.114666667,-0.072666667,-0.679927733,0.689734383,8.701767433,381000,-235000,-371000,98543.55876,29.86666667,28.47999954,-202.9985352,-192.6257782,200,-1.716601849,-2.865987778,-49.33086014,0,0
08:10.2,0.159666667,0.123333333,-0.103333333,-0.683196617,0.634163367,8.518709967,379000,-237000,-371000,98543.54451,29.86333333,28.47999954,-202.9985352,-192.6257782,200,-1.716601849,-2.865987778,-49.33086014,0,0
08:10.2,0.209,0.132,-0.134,-0.6864655,0.57859235,8.3356525,377000,-239000,-371000,98543.53027,29.86,28.42499924,-198.8304139,-192.047287,201,-2.925165177,-2.230892659,-49.1228714,0,0
08:10.2,0.208,0.132,-0.145666667,-0.693003267,0.542634633,7.812631167,378666.6667,-239666.6667,-370666.6667,98542.42147,29.86,28.36999893,-194.6622925,-191.4687958,202,-4.133728504,-1.595797539,-48.91488266,0,0
08:10.3,0.207,0.132,-0.157333333,-0.699541033,0.506676917,7.289609833,380333.3333,-240333.3333,-370333.3333,98541.31266,29.86,28.31999874,-194.6622925,-190.8868561,202.5,-4.133728504,-1.595797539,-48.91488266,0,0
08:10.3,0.206,0.132,-0.169,-0.7060788,0.4707192,6.7665885,382000,-241000,-370000,98540.20386,29.86,28.26999855,-194.6622925,-190.3049164,203,-4.133728504,-1.595797539,-48.91488266,0,0
08:10.4,0.2335,0.124,-0.17,-0.710982125,0.289296175,6.722458575,388000,-246000,-369000,98539.76136,29.86,28.26999855,-194.6622925,-190.3049164,203,-4.133728504,-1.595797539,-48.91488266,0,0
08:10.4,0.261,0.116,-0.171,-0.71588545,0.10787315,6.67832865,394000,-251000,-368000,98539.31885,29.86,28.19999886,-181.5046387,-189.5569763,205,-4.133728504,-1.595797539,-48.91488266,0,0
08:10.4,0.264,0.1045,-0.167,-0.652142225,0.22555295,6.69794195,390500,-253000,-364500,98538.6261,29.855,28.17499924,-181.5046387,-188.9430924,205.5,-4.133728504,-1.595797539,-48.91488266,0,0
08:10.5,0.267,0.093,-0.163,-0.588399,0.34323275,6.71755525,387000,-255000,-361000,98537.93335,29.85,28.14999962,-181.5046387,-188.3292084,206,-4.133728504,-1.595797539,-48.91488266,0,0
08:10.5,0.222333333,0.103666667,-0.154,-0.689734383,0.2549729,6.459313467,390333.3333,-257666.6667,-362000,98538.88143,29.85,28.14999962,-181.5046387,-188.3292084,206,-4.133728504,-1.595797539,-48.91488266,0,0
08:10.6,0.177666667,0.114333333,-0.145,-0.791069767,0.16671305,6.201071683,393666.6667,-260333.3333,-363000,98539.82951,29.85,28.14999962,-183.6007157,-187.7153244,207,-4.133728504,-1.595797539,-48.91488266,0,0
08:10.6,0.133,0.125,-0.136,-0.89240515,0.0784532,5.9428299,397000,-263000,-364000,98540.77759,29.85,28.14999962,-185.6967926,-187.1014404,208,-4.133728504,-1.595797539,-48.91488266,0,0
08:10.6,0.241666667,0.112333333,-0.125,-0.9218251,-0.003268883,6.743706317,399666.6667,-264333.3333,-363333.3333,98540.37679,29.85,28.14999962,-185.6967926,-187.1014404,208,-4.133728504,-1.595797539,-48.91488266,0,0
08:10.7,0.350333333,0.099666667,-0.114,-0.95124505,-0.084990967,7.544582733,402333.3333,-265666.6667,-362666.6667,98539.976,29.85,28.16499997,-185.6967926,-186.3697434,208.5,-5.784304857,1.483940601,-46.93329239,0,0
08:10.7,0.459,0.087,-0.103,-0.980665,-0.16671305,8.34545915,405000,-267000,-362000,98539.5752,29.85,28.18000031,-185.6967926,-185.6380463,209,-7.43488121,4.563678741,-44.95170212,0,0
08:10.8,0.432,0.049,-0.087666667,-0.980665,-0.169981933,9.38496405,407333.3333,-272000,-359000,98540.78166,29.84666667,28.22999954,-184.7171783,-184.3552551,211,-7.43488121,4.563678741,-44.95170212,0,0
08:10.8,0.405,0.011,-0.072333333,-0.980665,-0.173250817,10.42446895,409666.6667,-277000,-356000,98541.98812,29.84333333,28.22999954,-184.7171783,-184.3552551,211,-7.43488121,4.563678741,-44.95170212,0,0
08:10.8,0.378,-0.027,-0.057,-0.980665,-0.1765197,11.46397385,412000,-282000,-353000,98543.19458,29.84,28.22999954,-184.7171783,-184.3552551,211,-7.43488121,4.563678741,-44.95170212,0,0
08:10.9,0.3255,-0.019,-0.027,-0.93163175,-0.06864655,11.22861425,424000,-297000,-347500,98542.82532,29.84,28.22999954,-184.7171783,-184.3552551,211,-7.43488121,4.563678741,-44.95170212,0,0
08:10.9,0.273,-0.011,0.003,-0.8825985,0.0392266,10.99325465,436000,-312000,-342000,98542.45605,29.84,28.25999928,-184.7171783,-183.5366211,211.5,-7.43488121,4.563678741,-44.95170212,0,0
08:11.0,0.234333333,-0.013666667,0.017333333,-0.89240515,0.114410917,10.8853815,432666.6667,-317333.3333,-338333.3333,98542.54354,29.84,28.28999901,-184.7171783,-182.7179871,212,-7.43488121,4.563678741,-44.95170212,0,0
08:11.0,0.195666667,-0.016333333,0.031666667,-0.9022118,0.189595233,10.77750835,429333.3333,-322666.6667,-334666.6667,98542.63102,29.84,28.32999992,-177.1509094,-181.4252777,214,-7.43488121,4.563678741,-44.95170212,0,0
