time,field.angular_velocity.x,field.angular_velocity.y,field.angular_velocity.z,field.linear_acceleration.x,field.linear_acceleration.y,field.linear_acceleration.z,field.magnetic_field.x,field.magnetic_field.y,field.magnetic_field.z,field.fluid_pressure,field.temperature,field.alt_error,field.aspd_error,field.xtrack_error,field.wp_dist,field.measured.pitch,field.measured.roll,field.measured.yaw,fault_state,field.airspeed
06:56.6,0.556,-0.016,-0.068,-0.1569064,0.5491724,9.9243298,250000,-317000,-349000,98445.42236,37.51,0.25,-158.5073547,-36.47436523,7,0.70424962,7.06456995,-93.93001556,0,0
06:56.6,0.556,-0.016,-0.068,-0.1569064,0.5491724,9.9243298,250000,-317000,-349000,98445.42236,37.51,0.274999991,-154.2403259,-35.6283245,8,0.70424962,7.06456995,-93.93001556,0,0
06:56.7,0.556,-0.016,-0.068,-0.1569064,0.5491724,9.9243298,250000,-317000,-349000,98445.42236,37.51,0.299999982,-149.9732971,-34.78228378,9,0.70424962,7.06456995,-93.93001556,0,0
06:56.7,0.508,-0.032,-0.062,-0.102969825,0.48052585,10.2381426,250000,-317000,-349000,98446.65222,37.51,0.299999982,-149.9732971,-34.78228378,9,0.70424962,7.06456995,-93.93001556,0,0
06:56.8,0.46,-0.048,-0.056,-0.04903325,0.4118793,10.5519554,250000,-317000,-349000,98447.88208,37.51,0.299999982,-149.9732971,-34.78228378,9,0.70424962,7.06456995,-93.93001556,0,0
06:56.8,0.523,-0.041,-0.0595,0.0588399,0.46091255,10.27246588,261500,-324000,-342000,98446.19751,37.505,0.349999994,-149.9732971,-392.0517273,10,0.70424962,7.06456995,-93.93001556,0,0
06:56.8,0.586,-0.034,-0.063,0.16671305,0.5099458,9.99297635,273000,-331000,-335000,98444.51294,37.5,0.374999985,-98.26993942,-391.2233124,11,0.815668881,13.32552266,-93.1853447,0,0
06:56.9,0.7125,-0.0225,-0.0815,0.034323275,0.81395195,9.782133375,287000,-348500,-318500,98444.51294,37.5,0.399999976,-46.56658173,-390.3948975,12,0.927088141,19.58647537,-92.44067383,0,0
06:56.9,0.839,-0.011,-0.1,-0.0980665,1.1179581,9.5712904,301000,-366000,-302000,98444.51294,37.5,0.399999976,-46.56658173,-390.3948975,12,0.927088141,19.58647537,-92.44067383,0,0
06:57.0,0.749666667,-0.006666667,-0.119,-0.124217567,1.180066883,9.476492783,291000,-375666.6667,-298333.3333,98443.80697,37.5,0.429999977,-46.56658173,-389.5664826,13,0.927088141,19.58647537,-92.44067383,0,0
06:57.0,0.660333333,-0.002333333,-0.138,-0.150368633,1.242175667,9.381695167,281000,-385333.3333,-294666.6667,98443.10099,37.5,0.459999979,-46.56658173,-388.7380676,14,0.927088141,19.58647537,-92.44067383,0,0
06:57.0,0.571,0.002,-0.157,-0.1765197,1.30428445,9.28689755,271000,-395000,-291000,98442.39502,37.5,0.494999975,-43.42737198,-387.9054413,14.5,0.927088141,19.58647537,-92.44067383,0,0
06:57.1,0.5665,-0.0005,-0.183,-0.230456275,1.250347875,9.4928372,257500,-406000,-285000,98442.96265,37.5,0.529999971,-40.28816223,-387.0728149,15,0.927088141,19.58647537,-92.44067383,0,0
06:57.1,0.562,-0.003,-0.209,-0.28439285,1.1964113,9.69877685,244000,-417000,-279000,98443.53027,37.5,0.529999971,-40.28816223,-387.0728149,15,0.927088141,19.58647537,-92.44067383,0,0
06:57.2,0.543333333,0.003,-0.233666667,-0.366114933,1.356586583,9.0613446,240000,-422000,-275333.3333,98444.56583,37.5,0.569999993,-40.28816223,-386.2486267,16,0.927088141,19.58647537,-92.44067383,0,0
06:57.2,0.524666667,0.009,-0.258333333,-0.447837017,1.516761867,8.42391235,236000,-427000,-271666.6667,98445.6014,37.5,0.610000014,-40.28816223,-385.4244385,17,0.927088141,19.58647537,-92.44067383,0,0
06:57.2,0.506,0.015,-0.283,-0.5295591,1.67693715,7.7864801,232000,-432000,-268000,98446.63696,37.5,0.610000014,-40.28816223,-385.4244385,17,0.927088141,19.58647537,-92.44067383,0,0
06:57.3,0.429,0.01625,-0.31725,-0.546720737,1.5494507,7.81590005,229000,-438500,-261750,98446.85059,37.495,0.709999979,-36.75613403,-383.7760315,19,-1.10521996,34.5850563,-88.6423645,0,0
06:57.3,0.352,0.0175,-0.3515,-0.563882375,1.42196425,7.84532,226000,-445000,-255500,98447.06421,37.49,0.769999981,-36.75613403,-382.9518433,19.5,-1.10521996,34.5850563,-88.6423645,0,0
06:57.4,0.275,0.01875,-0.38575,-0.581044013,1.2944778,7.87473995,223000,-451500,-249250,98447.27784,37.485,0.829999983,-36.75613403,-382.127655,20,-1.10521996,34.5850563,-88.6423645,0,0
06:57.4,0.198,0.02,-0.42,-0.59820565,1.16699135,7.9041599,220000,-458000,-243000,98447.49146,37.48,0.883333305,-35.57427724,-381.581014,20.66666667,-1.10521996,34.5850563,-88.6423645,0,0
06:57.4,0.1855,0.0045,-0.4365,-0.6472389,1.142474725,8.183649425,228000,-459500,-239000,98449.58497,37.48,0.936666628,-34.39242045,-381.0343729,21.33333333,-1.10521996,34.5850563,-88.6423645,0,0
06:57.5,0.173,-0.011,-0.453,-0.69627215,1.1179581,8.46313895,236000,-461000,-235000,98451.67847,37.48,0.98999995,-33.21056366,-380.4877319,22,-1.10521996,34.5850563,-88.6423645,0,0
06:57.5,0.274,0.007,-0.469,-0.7649187,1.0002783,8.24739265,236000,-461000,-235000,98451.67847,37.48,0.98999995,-33.21056366,-380.4877319,22,-1.10521996,34.5850563,-88.6423645,0,0
06:57.6,0.288,-0.011333333,-0.469333333,-0.732229867,0.925093983,8.410836817,238333.3333,-460666.6667,-235000,98450.63477,37.48,1.169999957,-33.21056366,-378.8647156,24,-1.10521996,34.5850563,-88.6423645,0,0
06:57.6,0.302,-0.029666667,-0.469666667,-0.699541033,0.849909667,8.574280983,240666.6667,-460333.3333,-235000,98449.59106,37.48,1.169999957,-33.21056366,-378.8647156,24,-1.10521996,34.5850563,-88.6423645,0,0
06:57.6,0.316,-0.048,-0.47,-0.6668522,0.77472535,8.73772515,243000,-460000,-235000,98448.54736,37.48,1.389999986,14.03455734,-377.2417297,25,-1.10521996,34.5850563,-88.6423645,0,0
06:57.7,0.269,-0.069666667,-0.446,-0.7060788,0.614550067,9.009042467,246333.3333,-458666.6667,-231333.3333,98450.94808,37.47666667,1.389999986,14.03455734,-377.2417297,25,-4.157566369,37.45021248,-84.34857178,0,0
06:57.7,0.222,-0.091333333,-0.422,-0.7453054,0.454374783,9.280359783,249666.6667,-457333.3333,-227666.6667,98453.34879,37.47333333,1.389999986,14.03455734,-377.2417297,25,-7.209912777,40.31536865,-80.05477905,0,0
06:57.8,0.175,-0.113,-0.398,-0.784532,0.2941995,9.5516771,253000,-456000,-224000,98455.74951,37.47,1.514999986,18.99838448,-376.4344482,26,-7.209912777,40.31536865,-80.05477905,0,0
06:57.8,0.2525,-0.1215,-0.3685,-0.838468575,0.50013915,9.232960975,256500,-456000,-222500,98455.6427,37.465,1.639999986,23.96221161,-375.6271667,27,-7.209912777,40.31536865,-80.05477905,0,0
06:57.8,0.33,-0.13,-0.339,-0.89240515,0.7060788,8.91424485,260000,-456000,-221000,98455.53589,37.46,1.774999977,23.96221161,-374.8240967,27.5,-7.209912777,40.31536865,-80.05477905,0,0
06:57.9,0.367333333,-0.129,-0.331333333,-0.87279185,0.6668522,8.897900433,261333.3333,-457000,-219000,98455.53589,37.46,1.909999967,23.96221161,-374.0210266,28,-7.209912777,40.31536865,-80.05477905,0,0
06:57.9,0.404666667,-0.128,-0.323666667,-0.85317855,0.6276256,8.881556017,262666.6667,-458000,-217000,98455.53589,37.46,2.013333321,26.0532697,-373.4884745,28.66666667,-7.209912777,40.31536865,-80.05477905,0,0
06:58.0,0.442,-0.127,-0.316,-0.83356525,0.588399,8.8652116,264000,-459000,-215000,98455.53589,37.46,2.116666675,28.1443278,-372.9559225,29.33333333,-7.209912777,40.31536865,-80.05477905,0,0
06:58.0,0.364,-0.1445,-0.303,-0.877695175,0.632528925,9.36535075,270500,-456500,-209000,98458.04749,37.46,2.220000029,30.23538589,-372.4233704,30,-7.209912777,40.31536865,-80.05477905,0,0
06:58.0,0.286,-0.162,-0.29,-0.9218251,0.67665885,9.8654899,277000,-454000,-203000,98460.55908,37.46,2.549999952,30.23538589,-370.8510742,31,-7.209912777,40.31536865,-80.05477905,0,0
06:58.1,0.1455,-0.1845,-0.2715,-0.907115125,0.6080123,10.1793027,277500,-459500,-196500,98461.05042,37.455,2.549999952,30.23538589,-370.8510742,31,-7.209912777,40.31536865,-80.05477905,0,0
06:58.1,0.005,-0.207,-0.253,-0.89240515,0.53936575,10.4931155,278000,-465000,-190000,98461.54175,37.45,2.549999952,30.23538589,-370.8510742,31,-7.209912777,40.31536865,-80.05477905,0,0
06:58.2,-0.033,-0.209,-0.237,-0.915287333,0.624356717,10.85923043,281333.3333,-464333.3333,-188666.6667,98462.70752,37.45,2.549999952,30.23538589,-370.8510742,31,-7.209912777,40.31536865,-80.05477905,0,0
06:58.2,-0.071,-0.211,-0.221,-0.938169517,0.709347683,11.22534537,284666.6667,-463666.6667,-187333.3333,98463.87329,37.45,2.909999847,30.23538589,-369.2956848,33,-10.24432278,46.13697052,-71.09349823,0,0
06:58.2,-0.109,-0.213,-0.205,-0.9610517,0.79433865,11.5914603,288000,-463000,-186000,98465.03906,37.45,2.909999847,30.23538589,-369.2956848,33,-10.24432278,46.13697052,-71.09349823,0,0
06:58.3,-0.1275,-0.2155,-0.202,-0.965955025,0.9022118,12.25340918,285500,-462000,-188500,98468.93311,37.445,3.099999905,36.22612953,-368.5306702,34,-10.24432278,46.13697052,-71.09349823,0,0
06:58.3,-0.146,-0.218,-0.199,-0.97085835,1.01008495,12.91535805,283000,-461000,-191000,98472.82715,37.44,3.289999962,42.21687317,-367.7656555,35,-10.24432278,46.13697052,-71.09349823,0,0
06:58.4,-0.270333333,-0.187666667,-0.204666667,-1.0591182,0.836834133,11.91181087,286000,-457666.6667,-193000,98473.42733,37.44,3.484999895,42.21687317,-367.0175476,35.5,-10.24432278,46.13697052,-71.09349823,0,0
06:58.4,-0.394666667,-0.157333333,-0.210333333,-1.14737805,0.663583317,10.90826368,289000,-454333.3333,-195000,98474.02751,37.44,3.679999828,42.21687317,-366.2694397,36,-10.24432278,46.13697052,-71.09349823,0,0
06:58.4,-0.519,-0.127,-0.216,-1.2356379,0.4903325,9.9047165,292000,-451000,-197000,98474.62769,37.44,3.869999886,39.30230141,-365.5382386,36.5,-10.24432278,46.13697052,-71.09349823,0,0
06:58.5,-0.459333333,-0.116,-0.212,-1.2356379,0.496870267,9.702045733,288666.6667,-449000,-201666.6667,98477.27661,37.43666667,4.059999943,36.38772964,-364.8070374,37,-10.24432278,46.13697052,-71.09349823,0,0
06:58.5,-0.399666667,-0.105,-0.208,-1.2356379,0.503408033,9.499374967,285333.3333,-447000,-206333.3333,98479.92554,37.43333333,4.059999943,36.38772964,-364.8070374,37,-10.35148716,41.436409,-65.82009888,0,0
06:58.6,-0.34,-0.094,-0.204,-1.2356379,0.5099458,9.2967042,282000,-445000,-211000,98482.57446,37.43,4.460000038,36.38772964,-363.3615417,39,-10.35148716,41.436409,-65.82009888,0,0
06:58.6,-0.414,-0.0965,-0.1805,-1.211121275,0.8433719,9.674260225,275500,-435000,-226000,98484.17664,37.43,4.460000038,36.38772964,-363.3615417,39,-10.35148716,41.436409,-65.82009888,0,0
06:58.6,-0.488,-0.099,-0.157,-1.18660465,1.176798,10.05181625,269000,-425000,-241000,98485.77881,37.43,4.880000114,20.39308548,-361.9582825,40,-10.35148716,41.436409,-65.82009888,0,0
06:58.7,-0.756,-0.0355,-0.181,-1.279767825,1.309187775,9.360447425,271000,-415500,-249000,98486.71265,37.43,4.880000114,20.39308548,-361.9582825,40,-10.35148716,41.436409,-65.82009888,0,0
06:58.7,-1.024,0.028,-0.205,-1.372931,1.44157755,8.6690786,273000,-406000,-257000,98487.64648,37.43,4.880000114,20.39308548,-361.9582825,40,-10.35148716,41.436409,-65.82009888,0,0
06:58.8,-0.981,0.037,-0.228666667,-1.3925443,0.964320583,8.074141833,266666.6667,-399666.6667,-266000,98489.4755,37.42666667,5.309999943,20.39308548,-360.5719604,42,-10.35148716,41.436409,-65.82009888,0,0
06:58.8,-0.938,0.046,-0.252333333,-1.4121576,0.487063617,7.479205067,260333.3333,-393333.3333,-275000,98491.30452,37.42333333,5.309999943,20.39308548,-360.5719604,42,-11.66208744,30.2281189,-62.47481918,0,0
06:58.8,-0.895,0.055,-0.276,-1.4317709,0.00980665,6.8842683,254000,-387000,-284000,98493.13354,37.42,5.769999981,15.76900482,-359.2025452,43,-11.66208744,30.2281189,-62.47481918,0,0
06:58.9,-0.77,0.0235,-0.261,-1.426867575,0.318716125,7.399117425,255000,-366000,-305500,98495.15686,37.42,5.769999981,15.76900482,-359.2025452,43,-11.66208744,30.2281189,-62.47481918,0,0
06:58.9,-0.645,-0.008,-0.246,-1.42196425,0.6276256,7.91396655,256000,-345000,-327000,98497.18018,37.42,5.769999981,15.76900482,-359.2025452,43,-11.66208744,30.2281189,-62.47481918,0,0
06:59.0,-0.544666667,-0.025333333,-0.227333333,-1.399082067,0.761649817,8.848867183,262000,-331333.3333,-335666.6667,98498.50261,37.42,6.259999752,15.76900482,-357.8500366,44,-11.66208744,30.2281189,-62.47481918,0,0
06:59.0,-0.444333333,-0.042666667,-0.208666667,-1.376199883,0.895674033,9.783767817,268000,-317666.6667,-344333.3333,98499.82503,37.42,6.259999752,15.76900482,-357.8500366,44,-11.66208744,30.2281189,-62.47481918,0,0
06:59.0,-0.344,-0.06,-0.19,-1.3533177,1.02969825,10.71866845,274000,-304000,-353000,98501.14746,37.42,6.259999752,15.76900482,-357.8500366,44,-11.66208744,30.2281189,-62.47481918,0,0
06:59.1,-0.315,-0.043333333,-0.180666667,-1.3337044,0.928362867,10.97364135,274666.6667,-295000,-358333.3333,98503.40983,37.41666667,6.759999752,3.800868988,-356.5141907,46,-11.66208744,30.2281189,-62.47481918,0,0
06:59.1,-0.286,-0.026666667,-0.171333333,-1.3140911,0.827027483,11.22861425,275333.3333,-286000,-363666.6667,98505.6722,37.41333333,6.759999752,3.800868988,-356.5141907,46,-11.66208744,30.2281189,-62.47481918,0,0
06:59.2,-0.257,-0.01,-0.162,-1.2944778,0.7256921,11.48358715,276000,-277000,-369000,98507.93457,37.41,7.004999876,3.800868988,-355.8463745,46.5,-12.44201422,23.61174584,-60.06277084,0,0
06:59.2,-0.171,-0.014,-0.147,-1.358221025,0.524655775,11.83172323,285500,-267500,-372500,98510.62622,37.41,7.25,3.800868988,-355.1785584,47,-13.22194099,16.99537277,-57.6507225,0,0
06:59.2,-0.085,-0.018,-0.132,-1.42196425,0.32361945,12.1798593,295000,-258000,-376000,98513.31787,37.41,7.25,3.800868988,-355.1785584,47,-13.22194099,16.99537277,-57.6507225,0,0
06:59.3,-0.046666667,-0.012333333,-0.132,-1.454653083,0.48052585,11.45743608,298000,-256000,-376666.6667,98515.81014,37.40666667,7.494999886,-17.82956124,-354.5149842,48,-13.22194099,16.99537277,-57.6507225,0,0
06:59.3,-0.008333333,-0.006666667,-0.132,-1.487341917,0.63743225,10.73501287,301000,-254000,-377333.3333,98518.30241,37.40333333,7.739999771,-39.45999146,-353.8514099,49,-13.22194099,16.99537277,-57.6507225,0,0
06:59.4,0.03,-0.001,-0.132,-1.52003075,0.79433865,10.01258965,304000,-252000,-378000,98520.79468,37.4,7.974999905,-39.45999146,-353.183609,49.5,-13.22194099,16.99537277,-57.6507225,0,0
06:59.4,0.0195,-0.0285,-0.134,-1.50041745,0.750208725,9.625226975,325500,-250500,-372500,98527.92664,37.4,8.210000038,-39.45999146,-352.5158081,50,-13.22194099,16.99537277,-57.6507225,0,0
06:59.4,0.009,-0.056,-0.136,-1.48080415,0.7060788,9.2378643,347000,-249000,-367000,98535.05859,37.4,8.210000038,-39.45999146,-352.5158081,50,-13.22194099,16.99537277,-57.6507225,0,0
06:59.5,-0.072,-0.1225,-0.118,-1.30428445,0.612915625,10.23323928,347000,-249000,-367000,98535.05859,37.4,8.679999352,-66.15467072,-351.1802063,51,-13.22194099,16.99537277,-57.6507225,0,0
06:59.5,-0.153,-0.189,-0.1,-1.12776475,0.51975245,11.22861425,347000,-249000,-367000,98535.05859,37.4,8.679999352,-66.15467072,-351.1802063,51,-13.47837067,15.65044975,-54.90205383,0,0
06:59.6,-0.090333333,-0.2,-0.093666667,-1.072193733,0.496870267,11.35283182,349333.3333,-249333.3333,-367333.3333,98537.20296,37.39666667,8.919999599,-66.15467072,-350.5207367,52,-13.47837067,15.65044975,-54.90205383,0,0
06:59.6,-0.027666667,-0.211,-0.087333333,-1.016622717,0.473988083,11.47704938,351666.6667,-249666.6667,-367666.6667,98539.34733,37.39333333,9.159999847,-66.15467072,-349.8612671,53,-13.47837067,15.65044975,-54.90205383,0,0
06:59.6,0.035,-0.222,-0.081,-0.9610517,0.4511059,11.60126695,354000,-250000,-368000,98541.4917,37.39,9.159999847,-66.15467072,-349.8612671,53,-13.47837067,15.65044975,-54.90205383,0,0
06:59.7,0.035666667,-0.219333333,-0.077666667,-0.918556217,0.477256967,11.9444997,359666.6667,-248666.6667,-366666.6667,98544.26473,37.39,9.619999886,-74.62711334,-348.5763855,54,-13.47837067,15.65044975,-54.90205383,0,0
06:59.7,0.036333333,-0.216666667,-0.074333333,-0.876060733,0.503408033,12.28773245,365333.3333,-247333.3333,-365333.3333,98547.03776,37.39,9.619999886,-74.62711334,-348.5763855,54,-13.47837067,15.65044975,-54.90205383,0,0
06:59.8,0.037,-0.214,-0.071,-0.83356525,0.5295591,12.6309652,371000,-246000,-364000,98549.81079,37.39,9.849999903,-74.62711334,-347.9254761,55,-12.08942748,15.2474165,-53.82873535,0,0
06:59.8,-0.0075,-0.214,-0.073,-0.75511205,0.642335575,13.28310743,390500,-255500,-356000,98555.91126,37.385,10.07999992,-74.62711334,-347.2745667,56,-10.70048428,14.84438324,-52.75541687,0,0
06:59.8,-0.052,-0.214,-0.075,-0.67665885,0.75511205,13.93524965,410000,-265000,-348000,98562.01172,37.38,10.07999992,-74.62711334,-347.2745667,56,-10.70048428,14.84438324,-52.75541687,0,0
06:59.9,-0.037333333,-0.212333333,-0.071333333,-0.650507783,0.722423217,13.65412568,410000,-265000,-348000,98564.24968,37.37666667,10.5,-85.15129089,-345.9812622,57,-10.70048428,14.84438324,-52.75541687,0,0
06:59.9,-0.022666667,-0.210666667,-0.067666667,-0.624356717,0.689734383,13.37300172,410000,-265000,-348000,98566.48763,37.37333333,10.5,-85.15129089,-345.9812622,57,-10.70048428,14.84438324,-52.75541687,0,0
07:00.0,-0.008,-0.209,-0.064,-0.59820565,0.65704555,13.09187775,410000,-265000,-348000,98568.72559,37.37,10.89999962,-85.15129089,-344.6878967,59,-10.70048428,14.84438324,-52.75541687,0,0
07:00.0,0.1115,-0.2065,-0.0715,-0.406975975,0.6080123,13.43020718,421500,-263500,-343500,98568.72559,37.37,10.89999962,-85.15129089,-344.6878967,59,-10.70048428,14.84438324,-52.75541687,0,0
07:00.0,0.231,-0.204,-0.079,-0.2157463,0.55897905,13.7685366,433000,-262000,-339000,98568.72559,37.37,10.89999962,-85.15129089,-344.6878967,59,-10.70048428,14.84438324,-52.75541687,0,0
07:00.1,0.151666667,-0.216333333,-0.068666667,-0.169981933,0.614550067,13.7685366,436333.3333,-264666.6667,-337666.6667,98573.42123,37.37,11.25,-115.6942368,-343.4114685,60,-10.70048428,14.84438324,-52.75541687,0,0
07:00.1,0.072333333,-0.228666667,-0.058333333,-0.124217567,0.670121083,13.7685366,439666.6667,-267333.3333,-336333.3333,98578.11686,37.37,11.25,-115.6942368,-343.4114685,60,-8.784890654,15.18383312,-51.57370568,0,0
07:00.2,-0.007,-0.241,-0.048,-0.0784532,0.7256921,13.7685366,443000,-270000,-335000,98582.8125,37.37,11.25,-115.6942368,-343.4114685,60,-6.869297028,15.523283,-50.39199448,0,0
07:00.2,-0.0145,-0.23,-0.053,-0.06864655,0.720788775,14.09705938,457000,-277000,-329000,98582.8125,37.37,11.57999992,-115.6942368,-342.1265869,61,-6.869297028,15.523283,-50.39199448,0,0
07:00.2,-0.022,-0.219,-0.058,-0.0588399,0.71588545,14.42558215,471000,-284000,-323000,98582.8125,37.37,11.57999992,-115.6942368,-342.1265869,61,-6.869297028,15.523283,-50.39199448,0,0
07:00.3,-0.1295,-0.231,-0.0555,0.0980665,0.81395195,14.18531923,481000,-284500,-317500,98583.88672,37.365,11.86999989,-141.1327362,-340.8670654,63,-6.869297028,15.523283,-50.39199448,0,0
07:00.3,-0.237,-0.243,-0.053,0.2549729,0.91201845,13.9450563,491000,-285000,-312000,98584.96094,37.36,11.86999989,-141.1327362,-340.8670654,63,-6.869297028,15.523283,-50.39199448,0,0
07:00.4,-0.2246,-0.2433,-0.0508,0.261837555,0.881617835,14.03331615,501000,-282400,-312800,98586.90796,37.358,12.11999989,-141.1327362,-339.6159973,64,-6.869297028,15.523283,-50.39199448,0,0
07:00.4,-0.2122,-0.2436,-0.0486,0.26870221,0.85121722,14.121576,511000,-279800,-313600,98588.85498,37.356,12.22499991,-147.5272141,-338.9946747,65,-6.869297028,15.523283,-50.39199448,0,0
07:00.4,-0.1998,-0.2439,-0.0464,0.275566865,0.820816605,14.20983585,521000,-277200,-314400,98590.802,37.354,12.32999992,-153.9216919,-338.3733521,66,-6.869297028,15.523283,-50.39199448,0,0
07:00.5,-0.1874,-0.2442,-0.0442,0.28243152,0.79041599,14.2980957,531000,-274600,-315200,98592.74902,37.352,12.32999992,-153.9216919,-338.3733521,66,-4.43839705,14.09306431,-49.20870018,0,0
07:00.5,-0.175,-0.2445,-0.042,0.289296175,0.760015375,14.38635555,541000,-272000,-316000,98594.69604,37.35,12.32999992,-153.9216919,-338.3733521,66,-2.007497072,12.66284561,-48.02540588,0,0
07:00.6,-0.138666667,-0.239333333,-0.049,0.248435133,0.771456467,14.2784824,538333.3333,-267666.6667,-318333.3333,98596.37654,37.35,12.32999992,-153.9216919,-338.3733521,66,-2.007497072,12.66284561,-48.02540588,0,0
07:00.6,-0.102333333,-0.234166667,-0.056,0.207574092,0.782897558,14.17060925,535666.6667,-263333.3333,-320666.6667,98598.05705,37.35,12.50999928,-153.9216919,-337.1388245,67,-2.007497072,12.66284561,-48.02540588,0,0
07:00.6,-0.066,-0.229,-0.063,0.16671305,0.79433865,14.0627361,533000,-259000,-323000,98599.73755,37.35,12.50999928,-153.9216919,-337.1388245,67,-2.007497072,12.66284561,-48.02540588,0,0
07:00.7,-0.136666667,-0.226666667,-0.064,0.212477417,0.6864655,14.00716508,521666.6667,-260666.6667,-324000,98600.82194,37.34666667,12.57999945,-156.6267929,-336.5301972,68,-2.007497072,12.66284561,-48.02540588,0,0
07:00.7,-0.207333333,-0.224333333,-0.065,0.258241783,0.57859235,13.95159407,510333.3333,-262333.3333,-325000,98601.90633,37.34333333,12.64999962,-159.3318939,-335.9215698,69,-2.007497072,12.66284561,-48.02540588,0,0
07:00.8,-0.278,-0.222,-0.066,0.30400615,0.4707192,13.89602305,499000,-264000,-326000,98602.99072,37.34,12.70499945,-159.3318939,-335.3171692,69.5,-1.128691256,12.09112597,-47.59795475,0,0
07:00.8,-0.1505,-0.2015,-0.059,0.30400615,0.65704555,13.77343993,510000,-261500,-320000,98604.74548,37.34,12.75999928,-159.3318939,-334.7127686,70,-0.24988544,11.51940632,-47.17050362,0,0
07:00.8,-0.023,-0.181,-0.052,0.30400615,0.8433719,13.6508568,521000,-259000,-314000,98606.50024,37.34,12.79999972,-174.3596115,-334.1168061,71,0.628920376,10.94768668,-46.74305248,0,0
07:00.9,-0.063666667,-0.178333333,-0.037666667,0.40207265,0.846640783,13.88948528,507333.3333,-255666.6667,-322000,98604.2867,37.33666667,12.84000015,-189.3873291,-333.5208435,72,1.507726192,10.37596703,-46.31560135,0,0
07:00.9,-0.104333333,-0.175666667,-0.023333333,0.50013915,0.849909667,14.12811377,493666.6667,-252333.3333,-330000,98602.07316,37.33333333,12.84000015,-189.3873291,-333.5208435,72,1.507726192,10.37596703,-46.31560135,0,0
07:01.0,-0.145,-0.173,-0.009,0.59820565,0.85317855,14.36674225,480000,-249000,-338000,98599.85962,37.33,12.84000015,-189.3873291,-333.5208435,72,1.507726192,10.37596703,-46.31560135,0,0
07:01.0,-0.261666667,-0.157,0.005,0.611281183,0.777994233,13.8862164,491333.3333,-244000,-335666.6667,98600.62459,37.33,12.88999939,-189.3873291,-332.3343506,73,1.507726192,10.37596703,-46.31560135,0,0
07:01.0,-0.378333333,-0.141,0.019,0.624356717,0.702809917,13.40569055,502666.6667,-239000,-333333.3333,98601.38957,37.33,12.88999939,-189.3873291,-332.3343506,73,1.507726192,10.37596703,-46.31560135,0,0
07:01.1,-0.495,-0.125,0.033,0.63743225,0.6276256,12.9251647,514000,-234000,-331000,98602.15454,37.33,12.88999939,-174.9136047,-331.176239,74,1.507726192,10.37596703,-46.31560135,0,0
07:01.1,-0.367,-0.113,0.0305,0.720788775,0.446202575,12.356379,501000,-226500,-337000,98604.53186,37.325,12.88999939,-174.9136047,-331.176239,74,1.507726192,10.37596703,-46.31560135,0,0
07:01.2,-0.239,-0.101,0.028,0.8041453,0.26477955,11.7875933,488000,-219000,-343000,98606.90918,37.32,12.88333289,-174.9136047,-330.7902222,74.66666667,1.507726192,10.37596703,-46.31560135,0,0
07:01.2,-0.233,-0.0865,0.033,0.7256921,0.456009225,11.4345539,488000,-219000,-343000,98606.90918,37.32,12.87666639,-174.9136047,-330.4042053,75.33333333,1.507726192,10.37596703,-46.31560135,0,0
07:01.2,-0.227,-0.072,0.038,0.6472389,0.6472389,11.0815145,488000,-219000,-343000,98606.90918,37.32,12.86999989,-174.9136047,-330.0181885,76,1.507726192,10.37596703,-46.31560135,0,0
07:01.3,-0.17,-0.0855,0.0375,0.652142225,0.4511059,11.64049355,483500,-212500,-342500,98606.43921,37.32,12.80999947,-169.9995117,-328.8770142,77,1.507726192,10.37596703,-46.31560135,0,0
07:01.3,-0.113,-0.099,0.037,0.65704555,0.2549729,12.1994726,479000,-206000,-342000,98605.96924,37.32,12.80999947,-169.9995117,-328.8770142,77,5.592041492,3.905693054,-45.98406982,0,0
07:01.4,-0.117333333,-0.096333333,0.046,0.679927733,0.287661733,12.15697712,474666.6667,-206000,-344666.6667,98606.30697,37.31666667,12.75999928,-169.9995117,-327.7358398,79,5.592041492,3.905693054,-45.98406982,0,0
07:01.4,-0.121666667,-0.093666667,0.055,0.702809917,0.320350567,12.11448163,470333.3333,-206000,-347333.3333,98606.64469,37.31333333,12.75999928,-169.9995117,-327.7358398,79,5.592041492,3.905693054,-45.98406982,0,0
07:01.4,-0.126,-0.091,0.064,0.7256921,0.3530394,12.07198615,466000,-206000,-350000,98606.98242,37.31,12.75999928,-169.9995117,-327.7358398,79,5.592041492,3.905693054,-45.98406982,0,0
07:01.5,-0.148,-0.082,0.070333333,0.702809917,0.59820565,12.10467498,467333.3333,-201000,-349666.6667,98606.98242,37.31,12.71999932,-168.7012711,-327.1694794,79.5,5.592041492,3.905693054,-45.98406982,0,0
07:01.5,-0.17,-0.073,0.076666667,0.679927733,0.8433719,12.13736382,468666.6667,-196000,-349333.3333,98606.98242,37.31,12.67999935,-167.4030304,-326.6031189,80,5.592041492,3.905693054,-45.98406982,0,0
07:01.6,-0.192,-0.064,0.083,0.65704555,1.08853815,12.17005265,470000,-191000,-349000,98606.98242,37.31,12.62999964,-167.4030304,-326.0367584,81,5.592041492,3.905693054,-45.98406982,0,0
07:01.6,-0.120333333,-0.04,0.069666667,0.588399,1.02969825,11.24822755,470333.3333,-188000,-350666.6667,98603.43628,37.30666667,12.57999992,-167.4030304,-325.4703979,82,5.592041492,3.905693054,-45.98406982,0,0
07:01.6,-0.048666667,-0.016,0.056333333,0.51975245,0.97085835,10.32640245,470666.6667,-185000,-352333.3333,98599.89013,37.30333333,12.57999992,-167.4030304,-325.4703979,82,5.592041492,3.905693054,-45.98406982,0,0
07:01.7,0.023,0.008,0.043,0.4511059,0.91201845,9.40457735,471000,-182000,-354000,98596.34399,37.3,12.51999998,-157.7278137,-324.9040375,82.5,6.38538456,2.541589439,-46.67814064,0,0
07:01.7,0.027,-0.0115,0.0285,0.6276256,0.81395195,9.840973275,471000,-182000,-354000,98596.34399,37.3,12.46000004,-148.052597,-324.337677,83,7.178727627,1.177485824,-47.37221146,0,0
07:01.8,0.031,-0.031,0.014,0.8041453,0.71588545,10.2773692,471000,-182000,-354000,98596.34399,37.3,12.40499974,-148.052597,-323.7713166,83.5,7.178727627,1.177485824,-47.37221146,0,0
07:01.8,-0.0025,-0.0345,0.0165,0.769822025,1.024794925,11.06680453,463000,-185000,-358000,98598.01025,37.3,12.34999943,-148.052597,-323.2049561,84,7.178727627,1.177485824,-47.37221146,0,0
07:01.8,-0.036,-0.038,0.019,0.73549875,1.3337044,11.85623985,455000,-188000,-362000,98599.67651,37.3,12.34999943,-148.052597,-323.2049561,84,7.178727627,1.177485824,-47.37221146,0,0
07:01.9,-0.039333333,-0.025333333,0.002,0.702809917,1.0983448,11.73202228,449000,-185333.3333,-364000,98596.58406,37.29666667,12.21999931,-119.2049026,-322.0722351,86,7.178727627,1.177485824,-47.37221146,0,0
07:01.9,-0.042666667,-0.012666667,-0.015,0.670121083,0.8629852,11.60780472,443000,-182666.6667,-366000,98593.49162,37.29333333,12.21999931,-119.2049026,-322.0722351,86,7.178727627,1.177485824,-47.37221146,0,0
07:02.0,-0.046,-3.92E-18,-0.032,0.63743225,0.6276256,11.48358715,437000,-180000,-368000,98590.39917,37.29,12.21999931,-119.2049026,-322.0722351,86,7.178727627,1.177485824,-47.37221146,0,0
07:02.0,-0.0565,-0.011,-0.0195,0.6472389,0.5687857,11.44436055,437000,-180000,-368000,98590.39917,37.29,12.14999962,-119.2049026,-321.5058747,86.5,7.178727627,1.177485824,-47.37221146,0,0
07:02.0,-0.067,-0.022,-0.007,0.65704555,0.5099458,11.40513395,437000,-180000,-368000,98590.39917,37.29,12.07999992,-119.2049026,-320.9395142,87,7.178727627,1.177485824,-47.37221146,0,0
07:02.1,-0.012666667,-0.015333333,-0.001666667,0.6864655,0.44129925,10.92787698,443666.6667,-178666.6667,-366000,98592.60661,37.29,12.00499964,-131.2194862,-320.3816224,88,7.450147868,0.938136131,-47.31854821,0,0
07:02.1,0.041666667,-0.008666667,0.003666667,0.71588545,0.3726527,10.45062002,450333.3333,-177333.3333,-364000,98594.81404,37.29,11.92999935,-143.2340698,-319.8237305,89,7.721568108,0.698786438,-47.26488495,0,0
07:02.2,0.096,-0.002,0.009,0.7453054,0.30400615,9.97336305,457000,-176000,-362000,98597.02148,37.29,11.84999943,-143.2340698,-319.2531434,89.5,7.721568108,0.698786438,-47.26488495,0,0
07:02.2,0.048,-0.0035,0.018,0.7649187,0.59820565,10.14988275,450500,-176000,-365000,98595.68176,37.29,11.7699995,-143.2340698,-318.6825562,90,7.721568108,0.698786438,-47.26488495,0,0
07:02.2,0,-0.005,0.027,0.784532,0.89240515,10.32640245,444000,-176000,-368000,98594.34204,37.29,11.7699995,-143.2340698,-318.6825562,90,7.721568108,0.698786438,-47.26488495,0,0
07:02.3,0.014,-0.002,0.023,0.79433865,0.9414384,10.8069283,438500,-178500,-367000,98590.59143,37.285,11.60999966,-124.3415833,-317.5751953,92,7.721568108,0.698786438,-47.26488495,0,0
07:02.3,0.028,0.001,0.019,0.8041453,0.99047165,11.28745415,433000,-181000,-366000,98586.84082,37.28,11.60999966,-124.3415833,-317.5751953,92,7.721568108,0.698786438,-47.26488495,0,0
07:02.4,0.026333333,0.021333333,0.001666667,0.800876417,0.8433719,10.87230597,442666.6667,-179000,-366000,98586.41357,37.27666667,11.52999974,-124.3415833,-317.0130615,92.5,7.721568108,0.698786438,-47.26488495,0,0
07:02.4,0.024666667,0.041666667,-0.015666667,0.797607533,0.69627215,10.45715778,452333.3333,-177000,-366000,98585.98633,37.27333333,11.44999981,-124.3415833,-316.4509277,93,7.721568108,0.698786438,-47.26488495,0,0
07:02.4,0.023,0.062,-0.033,0.79433865,0.5491724,10.0420096,462000,-175000,-366000,98585.55908,37.27,11.36499977,-115.0941849,-315.8930206,93.5,7.721568108,0.698786438,-47.26488495,0,0
07:02.5,0.050666667,0.066333333,-0.042666667,0.7256921,0.418417067,9.496106083,446333.3333,-176666.6667,-370000,98585.17049,37.27,11.28333314,-112.0117188,-315.3322957,94.33333333,7.606555621,0.913690766,-47.32613882,0,0
07:02.5,0.078333333,0.070666667,-0.052333333,0.65704555,0.287661733,8.950202567,430666.6667,-178333.3333,-374000,98584.7819,37.27,11.20166652,-108.9292526,-314.7715708,95.16666667,7.491543134,1.128595094,-47.38739268,0,0
07:02.6,0.106,0.075,-0.062,0.588399,0.1569064,8.40429905,415000,-180000,-378000,98584.39331,37.27,11.11999989,-105.8467865,-314.2108459,96,7.376530647,1.343499422,-47.44864655,0,0
07:02.6,0.1455,0.073,-0.046,0.5687857,0.34323275,7.9629998,415000,-180000,-378000,98579.14124,37.265,11.11999989,-105.8467865,-314.2108459,96,7.376530647,1.343499422,-47.44864655,0,0
07:02.6,0.185,0.071,-0.03,0.5491724,0.5295591,7.52170055,415000,-180000,-378000,98573.88916,37.26,11.0449996,-92.25978852,-313.6529388,96.5,7.376530647,1.343499422,-47.44864655,0,0
07:02.7,0.1855,0.056,-0.0495,0.554075725,0.436395925,8.271909275,410500,-182500,-382000,98573.88916,37.26,10.96999931,-78.67279053,-313.0950317,97,7.376530647,1.343499422,-47.44864655,0,0
07:02.7,0.186,0.041,-0.069,0.55897905,0.34323275,9.022118,406000,-185000,-386000,98573.88916,37.26,10.96999931,-78.67279053,-313.0950317,97,7.376530647,1.343499422,-47.44864655,0,0
07:02.8,0.268333333,0.054,-0.067,0.53936575,0.219015183,9.414384,410333.3333,-193666.6667,-379333.3333,98572.15169,37.25666667,10.85999966,-78.67279053,-311.9792175,99,7.376530647,1.343499422,-47.44864655,0,0
07:02.8,0.350666667,0.067,-0.065,0.51975245,0.094797617,9.80665,414666.6667,-202333.3333,-372666.6667,98570.41423,37.25333333,10.85999966,-78.67279053,-311.9792175,99,7.376530647,1.343499422,-47.44864655,0,0
07:02.8,0.433,0.08,-0.063,0.50013915,-0.02941995,10.198916,419000,-211000,-366000,98568.67676,37.25,10.80999995,-78.74202729,-311.4213257,99.5,7.376530647,1.343499422,-47.44864655,0,0
07:02.9,0.4245,0.0835,-0.0275,0.446202575,0.0588399,9.2574776,419000,-211000,-366000,98568.67676,37.25,10.76000023,-78.81126404,-310.8634338,100,7.376530647,1.343499422,-47.44864655,0,0
07:02.9,0.416,0.087,0.008,0.392266,0.14709975,8.3160392,419000,-211000,-366000,98568.67676,37.25,10.76000023,-78.81126404,-310.8634338,100,7.376530647,1.343499422,-47.44864655,0,0
07:03.0,0.404666667,0.085333333,0.012333333,0.477256967,0.20593965,8.07087295,419000,-218666.6667,-367000,98569.05721,37.25,10.71000004,-78.81126404,-310.3181915,100.5,6.430180788,5.118796945,-46.8843937,0,0
07:03.0,0.393333333,0.083666667,0.016666667,0.562247933,0.26477955,7.8257067,419000,-226333.3333,-368000,98569.43767,37.25,10.68499995,-78.81126404,-310.0455704,100.75,5.957005859,7.006445706,-46.60226727,0,0
07:03.0,0.382,0.082,0.021,0.6472389,0.32361945,7.58054045,419000,-234000,-369000,98569.81812,37.25,10.65999985,-78.81126404,-309.7729492,101,5.483830929,8.894094467,-46.32014084,0,0
07:03.1,0.398333333,0.061666667,0.018666667,0.719154333,0.1765197,8.231048233,420000,-243666.6667,-363666.6667,98569.81812,37.25,10.56999969,-71.91143036,-308.6994324,103,5.483830929,8.894094467,-46.32014084,0,0
07:03.1,0.414666667,0.041333333,0.016333333,0.791069767,0.02941995,8.881556017,421000,-253333.3333,-358333.3333,98569.81812,37.25,10.56999969,-71.91143036,-308.6994324,103,5.483830929,8.894094467,-46.32014084,0,0
07:03.2,0.431,0.021,0.014,0.8629852,-0.1176798,9.5320638,422000,-263000,-353000,98569.81812,37.25,10.56999969,-71.91143036,-308.6994324,103,5.483830929,8.894094467,-46.32014084,0,0
07:03.2,0.3135,0.017,0.047,0.838468575,0.04903325,9.232960975,428500,-268500,-348500,98568.25562,37.245,10.5,-71.91143036,-307.6258545,104,5.483830929,8.894094467,-46.32014084,0,0
07:03.2,0.196,0.013,0.08,0.81395195,0.2157463,8.93385815,435000,-274000,-344000,98566.69312,37.24,10.5,-71.91143036,-307.6258545,104,5.483830929,8.894094467,-46.32014084,0,0
07:03.3,0.128,0.003,0.084,0.81395195,0.268048433,8.858673833,433333.3333,-281666.6667,-340666.6667,98565.96883,37.24,10.44999981,-64.29538727,-306.5776978,105,5.483830929,8.894094467,-46.32014084,0,0
07:03.3,0.06,-0.007,0.088,0.81395195,0.320350567,8.783489517,431666.6667,-289333.3333,-337333.3333,98565.24455,37.24,10.44999981,-64.29538727,-306.5776978,105,5.248998404,12.15043783,-46.87951088,0,0
07:03.4,-0.008,-0.017,0.092,0.81395195,0.3726527,8.7083052,430000,-297000,-334000,98564.52026,37.24,10.44999981,-64.29538727,-306.5776978,105,5.014165878,15.4067812,-47.43888092,0,0
07:03.4,-0.129333333,-0.006666667,0.097,0.73549875,0.624356717,8.8063717,430666.6667,-298333.3333,-334000,98565.65552,37.23666667,10.39999962,-64.29538727,-305.5379639,107,5.014165878,15.4067812,-47.43888092,0,0
07:03.4,-0.250666667,0.003666667,0.102,0.65704555,0.876060733,8.9044382,431333.3333,-299666.6667,-334000,98566.79077,37.23333333,10.38499976,-76.38654709,-305.0223084,107.5,5.014165878,15.4067812,-47.43888092,0,0
07:03.5,-0.372,0.014,0.107,0.57859235,1.12776475,9.0025047,432000,-301000,-334000,98567.92603,37.23,10.36999989,-88.47770691,-304.5066528,108,5.014165878,15.4067812,-47.43888092,0,0
07:03.5,-0.429,0.0195,0.083,0.6276256,1.3140911,9.26728425,432500,-292000,-338500,98566.95862,37.23,10.35500002,-88.47770691,-303.9994812,109,5.014165878,15.4067812,-47.43888092,0,0
07:03.6,-0.486,0.025,0.059,0.67665885,1.50041745,9.5320638,433000,-283000,-343000,98565.99121,37.23,10.34750009,-88.47770691,-303.7458954,109.5,5.014165878,15.4067812,-47.43888092,0,0
07:03.6,-0.4335,0.038,0.0175,0.77472535,1.32389775,9.958653075,441000,-269500,-344500,98566.14685,37.225,10.34000015,-88.47770691,-303.4923096,110,5.014165878,15.4067812,-47.43888092,0,0
07:03.6,-0.381,0.051,-0.024,0.87279185,1.14737805,10.38524235,449000,-256000,-346000,98566.30249,37.22,10.34000015,-88.47770691,-303.4923096,110,5.159461498,9.414190292,-48.86747742,0,0
07:03.7,-0.344,0.063,-0.0295,0.875243513,1.142474725,10.05917124,443500,-253750,-347000,98566.46881,37.22,10.31999969,-55.24921417,-302.4779053,111,5.159461498,9.414190292,-48.86747742,0,0
07:03.7,-0.307,0.075,-0.035,0.877695175,1.1375714,9.733100125,438000,-251500,-348000,98566.63513,37.22,10.30999994,-55.24921417,-301.9749603,111.5,5.159461498,9.414190292,-48.86747742,0,0
07:03.8,-0.27,0.087,-0.0405,0.880146838,1.132668075,9.407029013,432500,-249250,-349000,98566.80145,37.22,10.30000019,-55.24921417,-301.4720154,112,5.159461498,9.414190292,-48.86747742,0,0
07:03.8,-0.233,0.099,-0.046,0.8825985,1.12776475,9.0809579,427000,-247000,-350000,98566.96777,37.22,10.30000019,-55.24921417,-301.4720154,112,5.159461498,9.414190292,-48.86747742,0,0
07:03.8,-0.1905,0.095,-0.061,0.87279185,1.0591182,8.713208525,439000,-239500,-355000,98562.86926,37.215,10.30000019,-55.24921417,-301.4720154,112,5.159461498,9.414190292,-48.86747742,0,0
07:03.9,-0.148,0.091,-0.076,0.8629852,0.99047165,8.34545915,451000,-232000,-360000,98558.77075,37.21,10.27999973,-63.54999542,-300.4660645,114,5.159461498,9.414190292,-48.86747742,0,0
07:03.9,-0.1305,0.0875,-0.0815,0.828661925,0.9022118,8.5710121,451000,-232000,-360000,98558.77075,37.21,10.27999973,-63.54999542,-300.4660645,114,5.159461498,9.414190292,-48.86747742,0,0
07:04.0,-0.113,0.084,-0.087,0.79433865,0.81395195,8.79656505,451000,-232000,-360000,98558.77075,37.21,10.27999973,-63.54999542,-300.4660645,114,5.159461498,9.414190292,-48.86747742,0,0
07:04.0,-0.115,0.074666667,-0.076666667,0.856447433,0.781263117,8.701767433,451333.3333,-227333.3333,-361333.3333,98560.95581,37.21,10.2699995,-63.54999542,-299.4517212,115,5.159461498,9.414190292,-48.86747742,0,0
07:04.0,-0.117,0.065333333,-0.066333333,0.918556217,0.748574283,8.606969817,451666.6667,-222666.6667,-362666.6667,98563.14087,37.21,10.2699995,-63.54999542,-299.4517212,115,5.159461498,9.414190292,-48.86747742,0,0
07:04.1,-0.119,0.056,-0.056,0.980665,0.71588545,8.5121722,452000,-218000,-364000,98565.32593,37.21,10.27999973,-59.04388428,-298.428894,116,5.159461498,9.414190292,-48.86747742,0,0
07:04.1,-0.086,0.0505,-0.0495,0.95124505,0.79433865,8.762241775,452000,-218000,-364000,98565.32593,37.21,10.27999973,-59.04388428,-298.428894,116,3.03932786,4.413637638,-47.39934158,0,0
07:04.2,-0.053,0.045,-0.043,0.9218251,0.87279185,9.01231135,452000,-218000,-364000,98565.32593,37.21,10.28499985,-59.04388428,-297.9216919,117,3.03932786,4.413637638,-47.39934158,0,0
07:04.2,-0.071,0.043,-0.035,0.897308475,0.89240515,8.9240515,460500,-209500,-362500,98564.86512,37.205,10.28999996,-59.04388428,-297.4144897,118,3.03932786,4.413637638,-47.39934158,0,0
07:04.2,-0.089,0.041,-0.027,0.87279185,0.91201845,8.83579165,469000,-201000,-361000,98564.4043,37.2,10.28999996,-59.04388428,-297.4144897,118,3.03932786,4.413637638,-47.39934158,0,0
07:04.3,-0.066,0.035333333,-0.025666667,0.925093983,0.905480683,9.273822017,466000,-203333.3333,-362000,98564.76441,37.19666667,10.29500008,-60.47887803,-296.9030762,118.5,3.03932786,4.413637638,-47.39934158,0,0
07:04.3,-0.043,0.029666667,-0.024333333,0.977396117,0.898942917,9.711852383,463000,-205666.6667,-363000,98565.12451,37.19333333,10.30000019,-61.91387177,-296.3916626,119,3.03932786,4.413637638,-47.39934158,0,0
07:04.4,-0.02,0.024,-0.023,1.02969825,0.89240515,10.14988275,460000,-208000,-364000,98565.48462,37.19,10.30000019,-61.91387177,-296.3916626,119,3.03932786,4.413637638,-47.39934158,0,0
07:04.4,-0.049,0.0175,-0.0085,1.02969825,0.867888525,10.46859888,462500,-204000,-364500,98564.93225,37.19,10.32999992,-61.91387177,-295.3603821,121,3.03932786,4.413637638,-47.39934158,0,0
07:04.4,-0.078,0.011,0.006,1.02969825,0.8433719,10.787315,465000,-200000,-365000,98564.37988,37.19,10.32999992,-61.91387177,-295.3603821,121,2.538245916,3.505867004,-46.85758209,0,0
07:04.5,-0.071666667,0.022333333,0.007,0.974127233,0.728960983,10.24794925,462333.3333,-200000,-362666.6667,98564.37988,37.19,10.34999943,-68.80760193,-294.3375549,122,2.538245916,3.505867004,-46.85758209,0,0
07:04.5,-0.065333333,0.033666667,0.008,0.918556217,0.614550067,9.7085835,459666.6667,-200000,-360333.3333,98564.37988,37.19,10.34999943,-68.80760193,-294.3375549,122,2.538245916,3.505867004,-46.85758209,0,0
07:04.6,-0.059,0.045,0.009,0.8629852,0.50013915,9.16921775,457000,-200000,-358000,98564.37988,37.19,10.35499955,-68.80760193,-293.8219147,122.5,2.538245916,3.505867004,-46.85758209,0,0
07:04.6,-0.070666667,0.033666667,0.016666667,0.915287333,0.428223717,8.956740333,469333.3333,-202333.3333,-354333.3333,98565.35848,37.18666667,10.35999966,-68.80760193,-293.3062744,123,2.538245916,3.505867004,-46.85758209,0,0
07:04.6,-0.082333333,0.022333333,0.024333333,0.967589467,0.356308283,8.744262917,481666.6667,-204666.6667,-350666.6667,98566.33707,37.18333333,10.36999989,-80.07926941,-292.266571,125,2.538245916,3.505867004,-46.85758209,0,0
07:04.7,-0.094,0.011,0.032,1.0198916,0.28439285,8.5317855,494000,-207000,-347000,98567.31567,37.18,10.36999989,-80.07926941,-292.266571,125,2.538245916,3.505867004,-46.85758209,0,0
07:04.7,-0.1155,0.005,0.038,0.926728425,0.436395925,8.723015175,494000,-207000,-347000,98567.31567,37.18,10.36999989,-80.07926941,-292.266571,125,2.538245916,3.505867004,-46.85758209,0,0
07:04.8,-0.137,-0.001,0.044,0.83356525,0.588399,8.91424485,494000,-207000,-347000,98567.31567,37.18,10.37999964,-80.07926941,-291.7466888,125.5,2.161877394,2.17347455,-47.12892151,0,0
07:04.8,-0.0655,-0.028,0.0535,0.9022118,0.799241975,9.9047165,488500,-201000,-355000,98563.2782,37.18,10.38499952,-80.07926941,-291.4867477,125.75,2.161877394,2.17347455,-47.12892151,0,0
07:04.8,0.006,-0.055,0.063,0.97085835,1.01008495,10.89518815,483000,-195000,-363000,98559.24072,37.18,10.38999939,-80.07926941,-291.2268066,126,2.161877394,2.17347455,-47.12892151,0,0
07:04.9,-0.03,-0.044,0.0635,1.103248125,0.91201845,11.23351758,483500,-196000,-356500,98562.80823,37.175,10.42000008,-78.96289825,-290.1870728,128,2.161877394,2.17347455,-47.12892151,0,0
07:04.9,-0.066,-0.033,0.064,1.2356379,0.81395195,11.571847,484000,-197000,-350000,98566.37573,37.17,10.42000008,-78.96289825,-290.1870728,128,2.161877394,2.17347455,-47.12892151,0,0
07:05.0,-0.073,-0.023,0.055333333,1.18660465,0.830296367,11.38552065,477666.6667,-191000,-354000,98567.11222,37.17,10.42000008,-78.96289825,-290.1870728,128,2.161877394,2.17347455,-47.12892151,0,0
07:05.0,-0.08,-0.013,0.046666667,1.1375714,0.846640783,11.1991943,471333.3333,-185000,-358000,98567.84872,37.17,10.43999958,-78.96289825,-289.1304321,129,2.161877394,2.17347455,-47.12892151,0,0
07:05.0,-0.087,-0.003,0.038,1.08853815,0.8629852,11.01286795,465000,-179000,-362000,98568.58521,37.17,10.44333299,-79.34538523,-288.7754008,129.6666667,2.161877394,2.17347455,-47.12892151,0,0
07:05.1,-0.056333333,0.002333333,0.024,1.124495867,0.79433865,10.99979242,474333.3333,-180000,-361666.6667,98567.4703,37.16666667,10.4466664,-79.72787221,-288.4203694,130.3333333,2.161877394,2.17347455,-47.12892151,0,0
07:05.1,-0.025666667,0.007666667,0.01,1.160453583,0.7256921,10.98671688,483666.6667,-181000,-361333.3333,98566.35539,37.16333333,10.44999981,-80.11035919,-288.0653381,131,2.161877394,2.17347455,-47.12892151,0,0
07:05.2,0.005,0.013,-0.004,1.1964113,0.65704555,10.97364135,493000,-182000,-361000,98565.24048,37.16,10.45499993,-80.11035919,-287.5327911,131.5,2.161877394,2.17347455,-47.12892151,0,0
07:05.2,0.068,0.0065,-0.0145,1.230734575,0.5099458,10.9246081,475500,-178000,-362500,98563.1897,37.16,10.46000004,-80.11035919,-287.0002441,132,2.161877394,2.17347455,-47.12892151,0,0
07:05.2,0.131,-3.06E-18,-0.025,1.26505785,0.36284605,10.87557485,458000,-174000,-364000,98561.13892,37.16,10.46000004,-97.3575592,-285.9098206,133,2.161877394,2.17347455,-47.12892151,0,0
07:05.3,0.117,-2.04E-18,-0.016666667,1.209486833,0.5099458,10.4931155,458000,-174000,-364000,98561.13892,37.16,10.46000004,-97.3575592,-285.9098206,133,2.411959171,1.241210341,-48.18820953,0,0
07:05.3,0.103,-1.02E-18,-0.008333333,1.153915817,0.65704555,10.11065615,458000,-174000,-364000,98561.13892,37.16,10.46000004,-97.3575592,-285.9098206,133,2.411959171,1.241210341,-48.18820953,0,0
07:05.4,0.089,0,0,1.0983448,0.8041453,9.7281968,458000,-174000,-364000,98561.13892,37.16,10.46000004,-97.3575592,-285.9098206,133,2.411959171,1.241210341,-48.18820953,0,0
07:05.4,-0.015,-0.017,0.024,1.162088025,0.946341725,10.5519554,467500,-181500,-360500,98562.9303,37.155,10.44999981,-97.3575592,-284.8277893,135,2.411959171,1.241210341,-48.18820953,0,0
07:05.4,-0.119,-0.034,0.048,1.22583125,1.08853815,11.375714,477000,-189000,-357000,98564.72168,37.15,10.44999981,-97.3575592,-284.8277893,135,2.411959171,1.241210341,-48.18820953,0,0
07:05.5,-0.1455,-0.0165,0.0315,1.1375714,0.985568325,11.3561007,482500,-188000,-356000,98564.72168,37.15,10.42999935,-93.19972992,-283.7288818,136,2.411959171,1.241210341,-48.18820953,0,0
07:05.5,-0.172,0.001,0.015,1.04931155,0.8825985,11.3364874,488000,-187000,-355000,98564.72168,37.15,10.42999935,-93.19972992,-283.7288818,136,2.72889781,0.461544633,-48.50951767,0,0
07:05.6,-0.080666667,-0.011,0.006,1.06892485,0.869522967,11.4933938,479666.6667,-181333.3333,-360666.6667,98563.96688,37.14666667,10.40999937,-93.19972992,-283.1752167,137,2.72889781,0.461544633,-48.50951767,0,0
07:05.6,0.010666667,-0.023,-0.003,1.08853815,0.856447433,11.6503002,471333.3333,-175666.6667,-366333.3333,98563.21208,37.14333333,10.38999939,-93.19972992,-282.6215515,138,2.72889781,0.461544633,-48.50951767,0,0
07:05.6,0.102,-0.035,-0.012,1.10815145,0.8433719,11.8072066,463000,-170000,-372000,98562.45728,37.14,10.38999939,-93.19972992,-282.6215515,138,2.72889781,0.461544633,-48.50951767,0,0
07:05.7,0.057666667,-0.030666667,-0.008333333,1.052580433,0.758380933,11.36590735,476666.6667,-173666.6667,-362666.6667,98561.1613,37.14,10.35999966,-100.2157211,-282.0720978,138.5,2.72889781,0.461544633,-48.50951767,0,0
07:05.7,0.013333333,-0.026333333,-0.004666667,0.997009417,0.673389967,10.9246081,490333.3333,-177333.3333,-353333.3333,98559.86532,37.14,10.32999992,-107.2317123,-281.522644,139,2.72889781,0.461544633,-48.50951767,0,0
07:05.8,-0.031,-0.022,-0.001,0.9414384,0.588399,10.48330885,504000,-181000,-344000,98558.56934,37.14,10.32999992,-107.2317123,-281.522644,139,2.72889781,0.461544633,-48.50951767,0,0
07:05.8,-0.030333333,-0.022666667,0.007333333,0.9022118,0.55897905,10.37216682,500333.3333,-178000,-351333.3333,98559.71273,37.13666667,10.25,-107.2317123,-280.4068298,141,2.72889781,0.461544633,-48.50951767,0,0
07:05.8,-0.029666667,-0.023333333,0.015666667,0.8629852,0.5295591,10.26102478,496666.6667,-175000,-358666.6667,98560.85612,37.13333333,10.25,-107.2317123,-280.4068298,141,2.990146637,0.384230048,-48.47730446,0,0
07:05.9,-0.029,-0.024,0.024,0.8237586,0.50013915,10.14988275,493000,-172000,-366000,98561.99951,37.13,10.25,-107.2317123,-280.4068298,141,3.251395464,0.306915462,-48.44509125,0,0
07:05.9,0.004,-0.028,0.026,0.8237586,0.348136075,9.899813175,478500,-175000,-366000,98561.96594,37.13,10.15999985,-115.3240204,-279.2910156,142,3.251395464,0.306915462,-48.44509125,0,0
07:06.0,0.037,-0.032,0.028,0.8237586,0.196133,9.6497436,464000,-178000,-366000,98561.93237,37.13,10.15999985,-115.3240204,-279.2910156,142,3.251395464,0.306915462,-48.44509125,0,0
07:06.0,0.0765,-0.033,0.0495,0.789435325,0.259876225,10.44898558,466000,-178000,-365000,98561.93237,37.13,10.06999969,-115.3240204,-278.1582947,144,3.251395464,0.306915462,-48.44509125,0,0
07:06.0,0.116,-0.034,0.071,0.75511205,0.32361945,11.24822755,468000,-178000,-364000,98561.93237,37.13,10.02499962,-114.467144,-277.5919342,144.5,3.251395464,0.306915462,-48.44509125,0,0
07:06.1,0.073,-0.031333333,0.081666667,0.712616567,0.467450317,11.28745415,459666.6667,-177333.3333,-366666.6667,98560.27221,37.12666667,9.979999542,-113.6102676,-277.0255737,145,3.251395464,0.306915462,-48.44509125,0,0
07:06.1,0.03,-0.028666667,0.092333333,0.670121083,0.611281183,11.32668075,451333.3333,-176666.6667,-369333.3333,98558.61206,37.12333333,9.979999542,-113.6102676,-277.0255737,145,3.524647594,0.616702497,-48.85733986,0,0
07:06.2,-0.013,-0.026,0.103,0.6276256,0.75511205,11.36590735,443000,-176000,-372000,98556.9519,37.12,9.979999542,-113.6102676,-277.0255737,145,3.797899723,0.926489532,-49.26958847,0,0
07:06.2,-0.026,0.002,0.08,0.63743225,0.9610517,10.16459273,447000,-179500,-372500,98556.9519,37.12,9.88999939,-113.6102676,-275.8928528,147,3.797899723,0.926489532,-49.26958847,0,0
07:06.2,-0.039,0.03,0.057,0.6472389,1.16699135,8.9632781,451000,-183000,-373000,98556.9519,37.12,9.88999939,-113.6102676,-275.8928528,147,3.797899723,0.926489532,-49.26958847,0,0
07:06.3,-0.059333333,0.035,0.05,0.601474533,1.301015567,9.0613446,444333.3333,-183333.3333,-375333.3333,98556.93156,37.12,9.809999466,-104.7286987,-274.7601624,148,3.797899723,0.926489532,-49.26958847,0,0
07:06.3,-0.079666667,0.04,0.043,0.555710167,1.435039783,9.1594111,437666.6667,-183666.6667,-377666.6667,98556.91121,37.12,9.809999466,-104.7286987,-274.7601624,148,3.797899723,0.926489532,-49.26958847,0,0
07:06.4,-0.1,0.045,0.036,0.5099458,1.569064,9.2574776,431000,-184000,-380000,98556.89087,37.12,9.786666234,-104.7286987,-274.3825887,148.6666667,3.797899723,0.926489532,-49.26958847,0,0
07:06.4,-0.082666667,0.056,-0.008666667,0.61781895,1.464459733,8.852136067,430333.3333,-180666.6667,-380000,98555.99162,37.11666667,9.763333003,-104.7286987,-274.0050151,149.3333333,3.797899723,0.926489532,-49.26958847,0,0
07:06.4,-0.065333333,0.067,-0.053333333,0.7256921,1.359855467,8.446794533,429666.6667,-177333.3333,-380000,98555.09237,37.11333333,9.739999771,-104.7286987,-273.6274414,150,3.797899723,0.926489532,-49.26958847,0,0
07:06.5,-0.048,0.078,-0.098,0.83356525,1.2552512,8.041453,429000,-174000,-380000,98554.19312,37.11,9.704999924,-104.8612595,-273.044159,150.5,3.644237995,0.497677777,-49.70255089,0,0
07:06.5,-0.0195,0.075,-0.1265,0.818855275,1.113054775,8.036549675,432500,-172000,-382500,98556.71692,37.11,9.670000076,-104.9938202,-272.4608765,151,3.490576267,0.068866022,-50.13551331,0,0
07:06.6,0.009,0.072,-0.155,0.8041453,0.97085835,8.03164635,436000,-170000,-385000,98559.24072,37.11,9.670000076,-104.9938202,-272.4608765,151,3.490576267,0.068866022,-50.13551331,0,0
07:06.6,0.056,0.074,-0.159666667,0.768187583,0.81395195,8.182014983,431666.6667,-169666.6667,-382666.6667,98556.03638,37.10666667,9.619999886,-104.9938202,-271.3197327,153,3.490576267,0.068866022,-50.13551331,0,0
07:06.6,0.103,0.076,-0.164333333,0.732229867,0.65704555,8.332383617,427333.3333,-169333.3333,-380333.3333,98552.83203,37.10333333,9.599999905,-98.33993912,-270.7364655,153.5,3.490576267,0.068866022,-50.13551331,0,0
07:06.7,0.15,0.078,-0.169,0.69627215,0.50013915,8.48275225,423000,-169000,-378000,98549.62769,37.1,9.579999924,-91.68605804,-270.1531982,154,3.490576267,0.068866022,-50.13551331,0,0
07:06.7,0.185,0.056,-0.173,0.710982125,0.24516625,8.7671451,423000,-169000,-378000,98549.62769,37.1,9.579999924,-91.68605804,-270.1531982,154,3.490576267,0.068866022,-50.13551331,0,0
07:06.8,0.22,0.034,-0.177,0.7256921,-0.00980665,9.05153795,423000,-169000,-378000,98549.62769,37.1,9.579999924,-91.68605804,-270.1531982,154,3.490576267,0.068866022,-50.13551331,0,0
07:06.8,0.181333333,0.030666667,-0.157,0.660314433,-0.091528733,9.192099933,430333.3333,-173666.6667,-376333.3333,98549.99797,37.09666667,9.569999695,-91.68605804,-268.9782104,156,3.490576267,0.068866022,-50.13551331,0,0
07:06.8,0.142666667,0.027333333,-0.137,0.594936767,-0.173250817,9.332661917,437666.6667,-178333.3333,-374666.6667,98550.36825,37.09333333,9.569999695,-91.68605804,-268.9782104,156,3.490576267,0.068866022,-50.13551331,0,0
07:06.9,0.104,0.024,-0.117,0.5295591,-0.2549729,9.4732239,445000,-183000,-373000,98550.73853,37.09,9.579999924,-112.5402451,-267.8032227,157,1.98335886,2.732053995,-46.41248322,0,0
07:06.9,0.2285,-0.005,-0.0695,0.55897905,-0.367749375,10.61569863,445000,-183000,-373000,98550.73853,37.09,9.579999924,-112.5402451,-267.8032227,157,1.98335886,2.732053995,-46.41248322,0,0
07:07.0,0.353,-0.034,-0.022,0.588399,-0.48052585,11.75817335,445000,-183000,-373000,98550.73853,37.09,9.579999924,-112.5402451,-267.4143779,157.6666667,1.98335886,2.732053995,-46.41248322,0,0
07:07.0,0.3975,-0.037,0.053,0.5491724,-0.152003075,12.17005265,448000,-187500,-372500,98548.60535,37.09,9.579999924,-112.5402451,-267.025533,158.3333333,1.98335886,2.732053995,-46.41248322,0,0
07:07.0,0.442,-0.04,0.128,0.5099458,0.1765197,12.58193195,451000,-192000,-372000,98546.47217,37.09,9.579999924,-112.5402451,-266.6366882,159,1.98335886,2.732053995,-46.41248322,0,0
07:07.1,0.2535,-0.0435,0.1625,0.554075725,0.3530394,12.0817928,453500,-200500,-362500,98550.92774,37.085,9.569999695,-110.2174759,-265.4786377,160,1.98335886,2.732053995,-46.41248322,0,0
07:07.1,0.065,-0.047,0.197,0.59820565,0.5295591,11.58165365,456000,-209000,-353000,98555.3833,37.08,9.559999784,-113.8870875,-265.0954285,160.6666667,1.98335886,2.732053995,-46.41248322,0,0
07:07.2,0.059333333,-0.063666667,0.196666667,0.621087833,0.65704555,11.83989543,456000,-213000,-353000,98554.5695,37.08,9.549999873,-117.5566991,-264.7122192,161.3333333,1.98335886,2.732053995,-46.41248322,0,0
07:07.2,0.053666667,-0.080333333,0.196333333,0.643970017,0.784532,12.09813722,456000,-217000,-353000,98553.75569,37.08,9.539999962,-121.2263107,-264.32901,162,1.98335886,2.732053995,-46.41248322,0,0
07:07.2,0.048,-0.097,0.196,0.6668522,0.91201845,12.356379,456000,-221000,-353000,98552.94189,37.08,9.469999313,-121.2263107,-263.1878357,163,1.98335886,2.732053995,-46.41248322,0,0
07:07.3,0.044333333,-0.083666667,0.183666667,0.683196617,0.9414384,12.32042128,453666.6667,-224333.3333,-353000,98552.28678,37.08,9.469999313,-121.2263107,-263.1878357,163,2.89888382,5.148642421,-47.91968346,0,0
07:07.3,0.040666667,-0.070333333,0.171333333,0.699541033,0.97085835,12.28446357,451333.3333,-227666.6667,-353000,98551.63167,37.08,9.469999313,-121.2263107,-263.1878357,163,3.814408779,7.565230846,-49.4268837,0,0
07:07.4,0.037,-0.057,0.159,0.71588545,1.0002783,12.24850585,449000,-231000,-353000,98550.97656,37.08,9.369999886,-121.2263107,-262.0551147,165,3.814408779,7.565230846,-49.4268837,0,0
07:07.4,0.094,-0.0225,0.111,0.71588545,1.083634825,11.13054775,443000,-228500,-352000,98550.78125,37.075,9.369999886,-121.2263107,-262.0551147,165,3.814408779,7.565230846,-49.4268837,0,0
07:07.4,0.151,0.012,0.063,0.71588545,1.16699135,10.01258965,437000,-226000,-351000,98550.58594,37.07,9.309999943,-121.0695267,-261.492981,165.5,3.814408779,7.565230846,-49.4268837,0,0
07:07.5,0.054,0.034,0.022,0.6472389,1.211121275,8.83579165,428500,-232500,-354000,98549.56055,37.07,9.25,-120.9127426,-260.9308472,166,3.814408779,7.565230846,-49.4268837,0,0
07:07.5,-0.043,0.056,-0.019,0.57859235,1.2552512,7.65899365,420000,-239000,-357000,98548.53516,37.07,9.25,-120.9127426,-260.9308472,166,3.814408779,7.565230846,-49.4268837,0,0
07:07.6,-0.0476,0.0672,-0.0468,0.57466969,1.16503002,7.27065031,415200,-238400,-360600,98549.22119,37.068,9.130000114,-120.9127426,-259.8065796,168,3.814408779,7.565230846,-49.4268837,0,0
07:07.6,-0.0522,0.0784,-0.0746,0.57074703,1.07480884,6.88230697,410400,-237800,-364200,98549.90723,37.066,9.130000114,-120.9127426,-259.8065796,168,3.740237951,8.47441864,-50.58530426,0,0
07:07.6,-0.0568,0.0896,-0.1024,0.56682437,0.98458766,6.49396363,405600,-237200,-367800,98550.59326,37.064,9.079999924,-116.4147377,-259.2444458,168.5,3.740237951,8.47441864,-50.58530426,0,0
07:07.7,-0.0614,0.1008,-0.1302,0.56290171,0.89436648,6.10562029,400800,-236600,-371400,98551.2793,37.062,9.029999733,-111.9167328,-258.682312,169,3.740237951,8.47441864,-50.58530426,0,0
07:07.7,-0.066,0.112,-0.158,0.55897905,0.8041453,5.71727695,396000,-236000,-375000,98551.96533,37.06,9.029999733,-111.9167328,-258.682312,169,3.740237951,8.47441864,-50.58530426,0,0
07:07.8,-0.078,0.089,-0.16,0.4903325,0.51975245,6.276256,396000,-236000,-375000,98551.96533,37.06,9.029999733,-111.9167328,-258.682312,169,3.740237951,8.47441864,-50.58530426,0,0
07:07.8,-0.049666667,0.078,-0.163666667,0.496870267,0.4707192,6.416817983,402666.6667,-232333.3333,-375333.3333,98550.7609,37.05666667,8.979999542,-111.9167328,-257.5495911,171,3.740237951,8.47441864,-50.58530426,0,0
07:07.8,-0.021333333,0.067,-0.167333333,0.503408033,0.42168595,6.557379967,409333.3333,-228666.6667,-375666.6667,98549.55648,37.05333333,8.970000267,-106.5702438,-256.425354,172,3.740237951,8.47441864,-50.58530426,0,0
07:07.9,0.007,0.056,-0.171,0.5099458,0.3726527,6.69794195,416000,-225000,-376000,98548.35205,37.05,8.970000267,-106.5702438,-256.425354,172,3.740237951,8.47441864,-50.58530426,0,0
07:07.9,0.0265,0.025,-0.1585,0.4118793,0.3530394,8.3748791,416000,-225000,-376000,98548.35205,37.05,8.970000267,-106.5702438,-256.425354,172,3.740237951,8.47441864,-50.58530426,0,0
07:08.0,0.046,-0.006,-0.146,0.3138128,0.3334261,10.05181625,416000,-225000,-376000,98548.35205,37.05,8.970000267,-106.5702438,-256.425354,172,3.740237951,8.47441864,-50.58530426,0,0
07:08.0,0.035,-0.0045,-0.1145,0.308909475,0.30400615,10.06652623,421500,-223000,-378000,98544.18335,37.05,9,-106.5702438,-255.2926025,173,1.638162732,7.783753395,-47.42287064,0,0
07:08.0,0.024,-0.003,-0.083,0.30400615,0.2745862,10.0812362,427000,-221000,-380000,98540.01465,37.05,9,-106.5702438,-255.2926025,173,1.638162732,7.783753395,-47.42287064,0,0
07:08.1,-0.031,-0.0135,-0.0605,0.3138128,0.240262925,10.30678915,430250,-219500,-378250,98541.25824,37.0475,9.039999962,-104.1532516,-254.1683502,175,1.638162732,7.783753395,-47.42287064,0,0
07:08.1,-0.086,-0.024,-0.038,0.32361945,0.20593965,10.5323421,433500,-218000,-376500,98542.50183,37.045,9.054999829,-104.1532516,-253.6146698,175.5,1.638162732,7.783753395,-47.42287064,0,0
07:08.2,-0.141,-0.0345,-0.0155,0.3334261,0.171616375,10.75789505,436750,-216500,-374750,98543.74542,37.0425,9.069999695,-104.1532516,-253.0609894,176,1.638162732,7.783753395,-47.42287064,0,0
07:08.2,-0.196,-0.045,0.007,0.34323275,0.1372931,10.983448,440000,-215000,-373000,98544.98901,37.04,9.069999695,-104.1532516,-253.0609894,176,1.638162732,7.783753395,-47.42287064,0,0
07:08.2,-0.1775,-0.0495,0.0605,0.505042475,0.1765197,11.16977435,441000,-214500,-364500,98542.25464,37.035,9.084999562,-106.5116882,-252.5115357,177,1.638162732,7.783753395,-47.42287064,0,0
07:08.3,-0.159,-0.054,0.114,0.6668522,0.2157463,11.3561007,442000,-214000,-356000,98539.52026,37.03,9.099999428,-108.8701248,-251.9620819,178,1.638162732,7.783753395,-47.42287064,0,0
07:08.3,-0.143,-0.058,0.122,0.593302325,0.38245935,11.91507975,437500,-212000,-362500,98543.09387,37.03,9.099999428,-108.8701248,-251.4168625,178.5,1.920386017,6.907363891,-47.40595627,0,0
07:08.4,-0.127,-0.062,0.13,0.51975245,0.5491724,12.4740588,433000,-210000,-369000,98546.66748,37.03,9.099999428,-108.8701248,-250.8716431,179,2.202609301,6.030974388,-47.3890419,0,0
07:08.4,-0.127,-0.054,0.113,0.4707192,0.632528925,12.1798593,432500,-206500,-370000,98546.56067,37.03,9.099999428,-108.8701248,-250.8716431,179,2.202609301,6.030974388,-47.3890419,0,0
07:08.4,-0.127,-0.046,0.096,0.42168595,0.71588545,11.8856598,432000,-203000,-371000,98546.45386,37.03,9.099999428,-108.8701248,-250.8716431,179,2.202609301,6.030974388,-47.3890419,0,0
07:08.5,-0.142,-0.0385,0.0795,0.495235825,0.534462425,11.77778665,432000,-203000,-371000,98546.45386,37.03,9.079999924,-103.418541,-249.7896271,181,2.202609301,6.030974388,-47.3890419,0,0
07:08.5,-0.157,-0.031,0.063,0.5687857,0.3530394,11.6699135,432000,-203000,-371000,98546.45386,37.03,9.079999924,-103.418541,-249.7896271,181,2.202609301,6.030974388,-47.3890419,0,0
07:08.6,-0.150666667,-0.027666667,0.05,0.53936575,0.1176798,10.79058388,429666.6667,-201000,-373000,98545.10295,37.03,9.065000058,-103.418541,-249.2486344,181.5,2.202609301,6.030974388,-47.3890419,0,0
07:08.6,-0.144333333,-0.024333333,0.037,0.5099458,-0.1176798,9.911254267,427333.3333,-199000,-375000,98543.75203,37.03,9.050000191,-103.418541,-248.7076416,182,2.202609301,6.030974388,-47.3890419,0,0
07:08.6,-0.138,-0.021,0.024,0.48052585,-0.3530394,9.03192465,425000,-197000,-377000,98542.40112,37.03,9.050000191,-103.418541,-248.7076416,182,2.202609301,6.030974388,-47.3890419,0,0
07:08.7,-0.061333333,-0.025666667,0.037333333,0.4707192,-0.34323275,8.799833933,418333.3333,-193666.6667,-379000,98543.82324,37.02666667,8.989999771,-107.5691223,-247.6256256,184,2.202609301,6.030974388,-47.3890419,0,0
07:08.7,0.015333333,-0.030333333,0.050666667,0.46091255,-0.3334261,8.567743217,411666.6667,-190333.3333,-381000,98545.24536,37.02333333,8.989999771,-107.5691223,-247.6256256,184,2.202609301,6.030974388,-47.3890419,0,0
07:08.8,0.092,-0.035,0.064,0.4511059,-0.32361945,8.3356525,405000,-187000,-383000,98546.66748,37.02,8.960000038,-107.5691223,-246.5520935,185,3.003691912,3.278499365,-49.25722885,0,0
07:08.8,0.1225,-0.04,0.109,0.465815875,0.14709975,9.066247925,401500,-187500,-385500,98545.15381,37.015,8.960000038,-107.5691223,-246.5520935,185,3.003691912,3.278499365,-49.25722885,0,0
