time,field.angular_velocity.x,field.angular_velocity.y,field.angular_velocity.z,field.linear_acceleration.x,field.linear_acceleration.y,field.linear_acceleration.z,field.fluid_pressure,field.magnetic_field.x,field.magnetic_field.y,field.magnetic_field.z,field.temperature,fault_state,field.alt_error,field.aspd_error,field.xtrack_error,field.wp_dist,field.measured.pitch,field.measured.roll,field.measured.yaw,field.airspeed
34:19.0,1.129,0.034,-0.235666667,-0.02941995,-0.26477955,6.733899667,97577.28475,-65666.66667,-121333.3333,-517000,41.48,0,-0.289999992,-430.6856079,-40.08762169,3,-0.561371148,-1.5184623,-84.76848602,0
34:19.0,1.214,0.031,-0.219333333,-0.196133,-0.26477955,6.652177583,97575.42521,-50333.33333,-130666.6667,-519000,41.48,0,-0.349999994,-430.6856079,-39.07300568,4,-0.561371148,-1.5184623,-84.76848602,0
34:19.0,1.299,0.028,-0.203,-0.36284605,-0.26477955,6.5704555,97573.56567,-35000,-140000,-521000,41.48,0,-0.349999994,-430.6856079,-39.07300568,4,-0.561371148,-1.5184623,-84.76848602,0
34:19.1,1.196666667,0.019,-0.164333333,-0.506676917,-0.359577167,7.528238317,97569.81608,-25666.66667,-156000,-515333.3333,41.47666667,0,-0.349999994,-430.6856079,-39.07300568,4,-0.561371148,-1.5184623,-84.76848602,0
34:19.1,1.094333333,0.01,-0.125666667,-0.650507783,-0.454374783,8.486021133,97566.06648,-16333.33333,-172000,-509666.6667,41.47333333,0,-0.429999977,-460.1051331,-37.04396439,6,-2.181938171,14.22093105,-80.40459442,0
34:19.2,0.992,0.001,-0.087,-0.79433865,-0.5491724,9.44380395,97562.31689,-7000,-188000,-504000,41.47,0,-0.429999977,-460.1051331,-37.04396439,6,-2.181938171,14.22093105,-80.40459442,0
34:19.2,0.897,-0.0255,-0.0225,-0.887501825,-0.485429175,10.10575283,97559.42688,-500,-212500,-490000,41.47,0,-0.454999983,-460.1051331,-36.02970505,7,-2.181938171,14.22093105,-80.40459442,0
34:19.2,0.802,-0.052,0.042,-0.980665,-0.42168595,10.7677017,97556.53687,6000,-237000,-476000,41.47,0,-0.479999989,-460.1051331,-35.01544571,8,-2.181938171,14.22093105,-80.40459442,0
34:19.3,0.761,-0.0765,0.067,-1.02969825,-0.3138128,10.48330885,97552.54822,10000,-257000,-460500,41.465,0,-0.519999981,-440.2715759,-74.28040314,10,-2.181938171,14.22093105,-80.40459442,0
34:19.3,0.72,-0.101,0.092,-1.0787315,-0.20593965,10.198916,97548.55957,14000,-277000,-445000,41.46,0,-0.519999981,-440.2715759,-74.28040314,10,-2.181938171,14.22093105,-80.40459442,0
34:19.4,0.69,-0.096666667,0.108,-1.052580433,-0.055571017,10.66636632,97547.62166,14000,-286000,-437000,41.46,0,-0.519999981,-440.2715759,-74.28040314,10,-2.181938171,14.22093105,-80.40459442,0
34:19.4,0.66,-0.092333333,0.124,-1.026429367,0.094797617,11.13381663,97546.68376,14000,-295000,-429000,41.46,0,-0.569999993,-340.2715759,-72.38535309,12,-1.473328948,27.9854393,-80.37966156,0
34:19.4,0.63,-0.088,0.14,-1.0002783,0.24516625,11.60126695,97545.74585,14000,-304000,-421000,41.46,0,-0.569999993,-340.2715759,-72.38535309,12,-1.473328948,27.9854393,-80.37966156,0
34:19.5,0.653,-0.083666667,0.120666667,-0.9610517,0.375921583,11.64703132,97545.51799,11333.33333,-311333.3333,-413333.3333,41.46,0,-0.629999995,-306.5542297,-70.4901123,14,-1.473328948,27.9854393,-80.37966156,0
34:19.5,0.676,-0.079333333,0.101333333,-0.9218251,0.506676917,11.69279568,97545.29012,8666.666667,-318666.6667,-405666.6667,41.46,0,-0.653333326,-306.5542297,-69.86489614,14.66666667,-1.473328948,27.9854393,-80.37966156,0
34:19.6,0.699,-0.075,0.082,-0.8825985,0.63743225,11.73856005,97545.06226,6000,-326000,-398000,41.46,0,-0.676666657,-306.5542297,-69.23967997,15.33333333,-1.473328948,27.9854393,-80.37966156,0
34:19.6,0.5485,-0.021,0.067,-0.926728425,0.67665885,11.60617028,97546.57593,6500,-338000,-383500,41.455,0,-0.699999988,-306.5542297,-68.61446381,16,-1.473328948,27.9854393,-80.37966156,0
34:19.6,0.398,0.033,0.052,-0.97085835,0.71588545,11.4737805,97548.0896,7000,-350000,-369000,41.45,0,-0.699999988,-306.5542297,-68.61446381,16,-1.473328948,27.9854393,-80.37966156,0
34:19.7,0.306,0.04,0.0165,-0.980665,0.8629852,10.32149913,97546.20056,7000,-358000,-360000,41.45,0,-0.789999962,-284.1205444,-66.70706177,18,-1.473328948,27.9854393,-80.37966156,0
34:19.7,0.214,0.047,-0.019,-0.99047165,1.01008495,9.16921775,97544.31152,7000,-366000,-351000,41.45,0,-0.789999962,-284.1205444,-66.70706177,18,-0.179027364,38.57021332,-81.61852264,0
34:19.8,0.170333333,0.053666667,-0.052666667,-0.99047165,1.055849317,8.858673833,97543.86393,8333.333333,-368666.6667,-346666.6667,41.45,0,-0.829999984,-284.1205444,-65.77104568,19,-0.179027364,38.57021332,-81.61852264,0
34:19.8,0.126666667,0.060333333,-0.086333333,-0.99047165,1.101613683,8.548129917,97543.41634,9666.666667,-371333.3333,-342333.3333,41.45,0,-0.870000005,-284.1205444,-64.8350296,20,-0.179027364,38.57021332,-81.61852264,0
34:19.8,0.083,0.067,-0.12,-0.99047165,1.14737805,8.237586,97542.96875,11000,-374000,-338000,41.45,0,-0.870000005,-284.1205444,-64.8350296,20,-0.179027364,38.57021332,-81.61852264,0
34:19.9,0.1505,0.0665,-0.1815,-0.985568325,1.176798,7.026464725,97541.81824,14000,-377000,-332000,41.445,0,-0.900000006,-272.1797791,-63.88907051,21,-0.179027364,38.57021332,-81.61852264,0
34:19.9,0.218,0.066,-0.243,-0.980665,1.20621795,5.81534345,97540.66772,17000,-380000,-326000,41.44,0,-0.930000007,-260.2390137,-62.94311142,22,-0.179027364,38.57021332,-81.61852264,0
34:20.0,0.148666667,0.043,-0.287666667,-1.013353833,1.180066883,5.906872183,97540.82234,21333.33333,-382000,-324333.3333,41.44,0,-0.939999998,-260.2390137,-62.00896645,23,-0.179027364,38.57021332,-81.61852264,0
34:20.0,0.079333333,0.02,-0.332333333,-1.046042667,1.153915817,5.998400917,97540.97697,25666.66667,-384000,-322666.6667,41.44,0,-0.949999988,-260.2390137,-61.07482147,24,-0.179027364,38.57021332,-81.61852264,0
34:20.0,0.01,-0.003,-0.377,-1.0787315,1.12776475,6.08992965,97541.13159,30000,-386000,-321000,41.44,0,-0.949999988,-260.2390137,-61.07482147,24,-0.179027364,38.57021332,-81.61852264,0
34:20.1,-0.0045,0.07,-0.411,-1.14737805,1.176798,5.761406875,97539.61792,38500,-388500,-319000,41.44,0,-0.939999998,-240.4220581,-59.19459915,26,-0.179027364,38.57021332,-81.61852264,0
34:20.1,-0.019,0.143,-0.445,-1.2160246,1.22583125,5.4328841,97538.10425,47000,-391000,-317000,41.44,0,-0.939999998,-240.4220581,-59.19459915,26,-0.179027364,38.57021332,-81.61852264,0
34:20.2,0.024333333,0.118666667,-0.467,-1.278133383,1.091807033,5.03081145,97538.7207,54666.66667,-389666.6667,-315333.3333,41.43666667,0,-0.905000002,-240.4220581,-58.27027893,27,-2.77029004,40.2151413,-79.7628746,0
34:20.2,0.067666667,0.094333333,-0.489,-1.340242167,0.957782817,4.6287388,97539.33716,62333.33333,-388333.3333,-313666.6667,41.43333333,0,-0.870000005,-240.4220581,-57.34595871,28,-5.361552715,41.86006927,-77.90722656,0
34:20.2,0.111,0.07,-0.511,-1.40235095,0.8237586,4.22666615,97539.95361,70000,-387000,-312000,41.43,0,-0.810000003,-234.0187989,-56.41765976,28.5,-5.361552715,41.86006927,-77.90722656,0
34:20.3,0.093,0.004,-0.5185,-1.38273765,0.7060788,4.903325,97540.094,82500,-384500,-314000,41.43,0,-0.75,-227.6155396,-55.48936081,29,-5.361552715,41.86006927,-77.90722656,0
34:20.3,0.075,-0.062,-0.526,-1.36312435,0.588399,5.57998385,97540.23438,95000,-382000,-316000,41.43,0,-0.75,-227.6155396,-55.48936081,29,-5.361552715,41.86006927,-77.90722656,0
34:20.4,0.035333333,-0.073,-0.511333333,-1.379468767,0.5687857,6.390666917,97540.64738,103000,-381666.6667,-312333.3333,41.42666667,0,-0.75,-227.6155396,-55.48936081,29,-5.361552715,41.86006927,-77.90722656,0
34:20.4,-0.004333333,-0.084,-0.496666667,-1.395813183,0.5491724,7.201349983,97541.06039,111000,-381333.3333,-308666.6667,41.42333333,0,-0.560000002,-227.6155396,-53.65638733,31,-5.361552715,41.86006927,-77.90722656,0
34:20.4,-0.044,-0.095,-0.482,-1.4121576,0.5295591,8.01203305,97541.47339,119000,-381000,-305000,41.42,0,-0.560000002,-227.6155396,-53.65638733,31,-5.361552715,41.86006927,-77.90722656,0
34:20.5,0.018333333,-0.117333333,-0.451666667,-1.418695367,0.424954833,8.42391235,97542.49471,124333.3333,-378666.6667,-305666.6667,41.42,0,-0.560000002,-227.6155396,-53.65638733,31,-5.361552715,41.86006927,-77.90722656,0
34:20.5,0.080666667,-0.139666667,-0.421333333,-1.425233133,0.320350567,8.83579165,97543.51603,129666.6667,-376333.3333,-306333.3333,41.42,0,-0.340000004,-206.7256927,-51.82335663,33,-5.361552715,41.86006927,-77.90722656,0
34:20.6,0.143,-0.162,-0.391,-1.4317709,0.2157463,9.24767095,97544.53735,135000,-374000,-307000,41.42,0,-0.340000004,-206.7256927,-51.82335663,33,-12.78863144,42.0561676,-69.14147949,0
34:20.6,0.1605,-0.1685,-0.3525,-1.36312435,0.1569064,10.395049,97544.98291,142500,-371000,-305500,41.42,0,-0.07,-206.7256927,-50.0059967,35,-12.78863144,42.0561676,-69.14147949,0
34:20.6,0.178,-0.175,-0.314,-1.2944778,0.0980665,11.54242705,97545.42847,150000,-368000,-304000,41.42,0,-0.07,-206.7256927,-50.0059967,35,-12.78863144,42.0561676,-69.14147949,0
34:20.7,0.156,-0.1775,-0.278,-1.250347875,0.18632635,12.0817928,97548.87696,155500,-366500,-302000,41.415,0,0.069999997,-203.0899048,-49.09128952,36,-12.78863144,42.0561676,-69.14147949,0
34:20.7,0.134,-0.18,-0.242,-1.20621795,0.2745862,12.62115855,97552.32544,161000,-365000,-300000,41.41,0,0.209999993,-199.4541168,-48.17658234,37,-12.78863144,42.0561676,-69.14147949,0
34:20.8,0.108666667,-0.199333333,-0.218333333,-1.202949067,0.346501633,12.42829443,97554.33553,162333.3333,-365000,-299333.3333,41.41,0,0.209999993,-199.4541168,-48.17658234,37,-14.16527081,43.36195374,-63.88734055,0
34:20.8,0.083333333,-0.218666667,-0.194666667,-1.199680183,0.418417067,12.23543032,97556.34562,163666.6667,-365000,-298666.6667,41.41,0,0.359999991,-199.4541168,-47.26573372,37.5,-14.16527081,43.36195374,-63.88734055,0
34:20.8,0.058,-0.238,-0.171,-1.1964113,0.4903325,12.0425662,97558.35571,165000,-365000,-298000,41.41,0,0.50999999,-199.4541168,-46.3548851,38,-14.16527081,43.36195374,-63.88734055,0
34:20.9,0.0685,-0.246,-0.178,-1.2160246,0.4707192,12.51818873,97561.15418,166000,-364500,-297000,41.41,0,0.654999971,-204.4878922,-45.44590569,39,-14.16527081,43.36195374,-63.88734055,0
34:20.9,0.079,-0.254,-0.185,-1.2356379,0.4511059,12.99381125,97563.95264,167000,-364000,-296000,41.41,0,0.799999952,-209.5216675,-44.53692627,40,-14.16527081,43.36195374,-63.88734055,0
34:21.0,0.111,-0.266333333,-0.183666667,-1.193142417,0.545903517,13.47760598,97565.37679,167000,-362666.6667,-297000,41.40666667,0,0.949999988,-209.5216675,-43.62978745,41,-14.16527081,43.36195374,-63.88734055,0
34:21.0,0.143,-0.278666667,-0.182333333,-1.150646933,0.640701133,13.96140072,97566.80095,167000,-361333.3333,-298000,41.40333333,0,1.100000024,-209.5216675,-42.72264862,42,-14.16527081,43.36195374,-63.88734055,0
34:21.0,0.175,-0.291,-0.181,-1.10815145,0.73549875,14.44519545,97568.2251,167000,-360000,-299000,41.4,0,1.100000024,-209.5216675,-42.72264862,42,-14.16527081,43.36195374,-63.88734055,0
34:21.1,0.1145,-0.286,-0.189,-1.086086488,0.77472535,14.17060925,97570.67261,167500,-360250,-297500,41.4,0,1.389999986,-212.0138245,-40.91608047,44,-14.16527081,43.36195374,-63.88734055,0
34:21.1,0.054,-0.281,-0.197,-1.064021525,0.81395195,13.89602305,97573.12012,168000,-360500,-296000,41.4,0,1.48666664,-212.0138245,-40.31907653,44.33333333,-14.16527081,43.36195374,-63.88734055,0
34:21.2,-0.0065,-0.276,-0.205,-1.041956563,0.85317855,13.62143685,97575.56763,168500,-360750,-294500,41.4,0,1.583333294,-212.0138245,-39.7220726,44.66666667,-14.16527081,43.36195374,-63.88734055,0
34:21.2,-0.067,-0.271,-0.213,-1.0198916,0.89240515,13.34685065,97578.01514,169000,-361000,-293000,41.4,0,1.679999948,-212.0138245,-39.12506866,45,-14.16527081,43.36195374,-63.88734055,0
34:21.2,-0.066,-0.258,-0.248,-0.99047165,0.9218251,12.5917386,97578.01514,169000,-361000,-293000,41.4,0,1.679999948,-212.0138245,-39.12506866,45,-13.01584053,43.94501877,-55.04821777,0
34:21.3,-0.075,-0.252,-0.2755,-1.005181625,0.784532,12.7878716,97581.30799,168500,-358500,-294500,41.395,0,1.969999909,-212.0138245,-37.32989883,47,-13.01584053,43.94501877,-55.04821777,0
34:21.3,-0.084,-0.246,-0.303,-1.0198916,0.6472389,12.9840046,97584.60083,168000,-356000,-296000,41.39,0,1.969999909,-212.0138245,-37.32989883,47,-13.01584053,43.94501877,-55.04821777,0
34:21.4,-0.063333333,-0.267666667,-0.298,-1.0002783,0.634163367,12.71595617,97586.3973,169000,-354000,-300000,41.39,0,2.11499995,-222.3136902,-36.45985603,48,-13.01584053,43.94501877,-55.04821777,0
34:21.4,-0.042666667,-0.289333333,-0.293,-0.980665,0.621087833,12.44790773,97588.19376,170000,-352000,-304000,41.39,0,2.25999999,-232.6135559,-35.58981323,49,-13.01584053,43.94501877,-55.04821777,0
34:21.4,-0.022,-0.311,-0.288,-0.9610517,0.6080123,12.1798593,97589.99023,171000,-350000,-308000,41.39,0,2.25999999,-232.6135559,-35.58981323,49,-13.01584053,43.94501877,-55.04821777,0
34:21.5,0.01,-0.308,-0.2845,-0.926728425,0.6668522,12.3759923,97590.49683,171500,-347500,-309500,41.39,0,2.559999943,-263.5183411,-33.84954834,50,-13.01584053,43.94501877,-55.04821777,0
34:21.5,0.042,-0.305,-0.281,-0.89240515,0.7256921,12.5721253,97591.00342,172000,-345000,-311000,41.39,0,2.559999943,-263.5183411,-33.84954834,50,-13.01584053,43.94501877,-55.04821777,0
34:21.6,0.0205,-0.29625,-0.281,-0.877695175,0.747757063,12.55741533,97593.02674,172750,-343750,-311750,41.3875,0,2.709999919,-263.5183411,-33.00105286,51,-13.01584053,43.94501877,-55.04821777,0
34:21.6,-0.001,-0.2875,-0.281,-0.8629852,0.769822025,12.54270535,97595.05005,173500,-342500,-312500,41.385,0,2.859999895,-263.5183411,-32.15255737,52,-13.01584053,43.94501877,-55.04821777,0
34:21.6,-0.0225,-0.27875,-0.281,-0.848275225,0.791886988,12.52799538,97597.07337,174250,-341250,-313250,41.3825,0,2.959999879,-270.3755697,-31.58946609,52.66666667,-12.99798171,43.24887339,-51.51507441,0
34:21.7,-0.044,-0.27,-0.281,-0.83356525,0.81395195,12.5132854,97599.09668,175000,-340000,-314000,41.38,0,3.059999863,-277.2327983,-31.02637482,53.33333333,-12.98012288,42.55272802,-47.98193105,0
34:21.7,-0.029,-0.247,-0.264,-0.7649187,0.73549875,13.9646696,97602.87476,176000,-336000,-314000,41.38,0,3.159999847,-284.0900269,-30.46328354,54,-12.96226406,41.85658264,-44.44878769,0
34:21.8,0.023333333,-0.287666667,-0.269666667,-0.768187583,0.8237586,13.59528578,97604.67326,176666.6667,-331666.6667,-319000,41.37666667,0,3.314999938,-284.0900269,-29.64028359,54.5,-12.96226406,41.85658264,-44.44878769,0
34:21.8,0.075666667,-0.328333333,-0.275333333,-0.771456467,0.91201845,13.22590197,97606.47176,177333.3333,-327333.3333,-324000,41.37333333,0,3.470000029,-284.0900269,-28.81728363,55,-12.96226406,41.85658264,-44.44878769,0
34:21.8,0.128,-0.369,-0.281,-0.77472535,1.0002783,12.85651815,97608.27026,178000,-323000,-329000,41.37,0,3.620000005,-298.4414063,-28.00407696,56,-12.96226406,41.85658264,-44.44878769,0
34:21.9,0.078,-0.395666667,-0.290333333,-0.7453054,0.99047165,13.5527903,97610.16439,178666.6667,-321666.6667,-331333.3333,41.37,0,3.769999981,-312.7927856,-27.19087029,57,-12.96226406,41.85658264,-44.44878769,0
34:21.9,0.028,-0.422333333,-0.299666667,-0.71588545,0.980665,14.24906245,97612.05851,179333.3333,-320333.3333,-333666.6667,41.37,0,3.842499972,-312.7927856,-26.79508496,57.25,-12.96226406,41.85658264,-44.44878769,0
34:22.0,-0.022,-0.449,-0.309,-0.6864655,0.97085835,14.9453346,97613.95264,180000,-319000,-336000,41.37,0,3.914999962,-312.7927856,-26.39929963,57.5,-12.96226406,41.85658264,-44.44878769,0
34:22.0,0.0055,-0.408,-0.32,-0.63743225,1.054214875,14.89630135,97618.01453,178000,-318500,-334500,41.37,0,3.987499953,-312.7927856,-26.00351429,57.75,-12.96226406,41.85658264,-44.44878769,0
34:22.0,0.033,-0.367,-0.331,-0.588399,1.1375714,14.8472681,97622.07642,176000,-318000,-333000,41.37,0,4.059999943,-312.7927856,-25.60772896,58,-12.96226406,41.85658264,-44.44878769,0
34:22.1,0.039,-0.379,-0.335333333,-0.57859235,1.095075917,14.91918353,97622.08659,174666.6667,-314666.6667,-338333.3333,41.37,0,4.349999905,-312.7927856,-24.05996895,60,-11.45531178,41.09225082,-33.49219131,0
34:22.1,0.045,-0.391,-0.339666667,-0.5687857,1.052580433,14.99109897,97622.09676,173333.3333,-311333.3333,-343666.6667,41.37,0,4.349999905,-312.7927856,-24.05996895,60,-11.45531178,41.09225082,-33.49219131,0
34:22.2,0.051,-0.403,-0.344,-0.55897905,1.01008495,15.0630144,97622.10693,172000,-308000,-349000,41.37,0,4.48000002,-304.4279175,-23.32155514,60.5,-11.45531178,41.09225082,-33.49219131,0
34:22.2,0.02,-0.376,-0.348666667,-0.516483567,0.830296367,15.60891792,97626.2268,171333.3333,-305000,-351333.3333,41.36666667,0,4.610000134,-296.0630493,-22.58314133,61,-11.45531178,41.09225082,-33.49219131,0
34:22.2,-0.011,-0.349,-0.353333333,-0.473988083,0.650507783,16.15482143,97630.34668,170666.6667,-302000,-353666.6667,41.36333333,0,4.73000002,-312.9385986,-21.87429142,62,-11.45531178,41.09225082,-33.49219131,0
34:22.3,-0.042,-0.322,-0.358,-0.4314926,0.4707192,16.70072495,97634.46655,170000,-299000,-356000,41.36,0,4.849999905,-329.8141479,-21.16544151,63,-11.45531178,41.09225082,-33.49219131,0
34:22.3,-0.032,-0.396,-0.34,-0.392266,0.196133,17.259704,97634.46655,170000,-299000,-356000,41.36,0,4.849999905,-329.8141479,-21.16544151,63,-11.45531178,41.09225082,-33.49219131,0
34:22.4,0.0155,-0.3975,-0.311,-0.3530394,0.269682875,17.16899249,97633.461,170250,-296250,-357750,41.36,0,5.059999943,-329.8141479,-19.79878616,64,-11.45531178,41.09225082,-33.49219131,0
34:22.4,0.063,-0.399,-0.282,-0.3138128,0.34323275,17.07828098,97632.45545,170500,-293500,-359500,41.36,0,5.059999943,-329.8141479,-19.79878616,64,-11.45531178,41.09225082,-33.49219131,0
34:22.4,0.1105,-0.4005,-0.253,-0.2745862,0.416782625,16.98756946,97631.44989,170750,-290750,-361250,41.36,0,5.059999943,-329.8141479,-19.79878616,64,-11.45531178,41.09225082,-33.49219131,0
34:22.5,0.158,-0.402,-0.224,-0.2353596,0.4903325,16.89685795,97630.44434,171000,-288000,-363000,41.36,0,5.239999771,-367.2941284,-18.5150032,66,-11.45531178,41.09225082,-33.49219131,0
34:22.5,0.0825,-0.4225,-0.19,-0.220649625,0.779628675,17.08808763,97634.23157,168500,-284000,-369000,41.355,0,5.239999771,-367.2941284,-18.5150032,66,-9.175800323,40.67550659,-19.82514,0
34:22.6,0.007,-0.443,-0.156,-0.20593965,1.06892485,17.2793173,97638.0188,166000,-280000,-375000,41.35,0,5.309999943,-367.2941284,-17.91644192,66.5,-9.175800323,40.67550659,-19.82514,0
34:22.6,-0.053666667,-0.433,-0.169333333,-0.261510667,1.1375714,17.23028405,97640.49276,164333.3333,-280666.6667,-374333.3333,41.35,0,5.380000114,-367.2941284,-17.31788063,67,-9.175800323,40.67550659,-19.82514,0
34:22.6,-0.114333333,-0.423,-0.182666667,-0.317081683,1.20621795,17.1812508,97642.96671,162666.6667,-281333.3333,-373666.6667,41.35,0,5.380000114,-367.2941284,-17.31788063,67,-9.175800323,40.67550659,-19.82514,0
34:22.7,-0.175,-0.413,-0.196,-0.3726527,1.2748645,17.13221755,97645.44067,161000,-282000,-373000,41.35,0,5.489999771,-419.8776245,-16.17591095,68,-9.175800323,40.67550659,-19.82514,0
34:22.7,-0.2115,-0.374,-0.2395,-0.436395925,1.044408225,15.8083198,97645.4834,155500,-281500,-378000,41.345,0,5.489999771,-419.8776245,-16.17591095,68,-9.175800323,40.67550659,-19.82514,0
34:22.8,-0.248,-0.335,-0.283,-0.50013915,0.81395195,14.48442205,97645.52612,150000,-281000,-383000,41.34,0,5.489999771,-419.8776245,-16.17591095,68,-9.175800323,40.67550659,-19.82514,0
34:22.8,-0.196333333,-0.35,-0.288666667,-0.483794733,0.8629852,15.21665192,97644.80591,144666.6667,-277000,-384666.6667,41.34,0,5.559999943,-419.8776245,-15.13253498,70,-9.175800323,40.67550659,-19.82514,0
34:22.8,-0.144666667,-0.365,-0.294333333,-0.467450317,0.91201845,15.94888178,97644.08569,139333.3333,-273000,-386333.3333,41.34,0,5.559999943,-419.8776245,-15.13253498,70,-6.468956947,37.85587311,-12.46274567,0
34:22.9,-0.093,-0.38,-0.3,-0.4511059,0.9610517,16.68111165,97643.36548,134000,-269000,-388000,41.34,0,5.619999886,-419.8776245,-14.13255787,71,-6.468956947,37.85587311,-12.46274567,0
34:22.9,-0.051,-0.278,-0.334,-0.6668522,1.0002783,15.102241,97648.31543,135000,-255000,-412000,41.34,0,5.619999886,-419.8776245,-14.13255787,71,-6.468956947,37.85587311,-12.46274567,0
34:23.0,-0.072666667,-0.297,-0.340666667,-0.693003267,0.9022118,14.3961622,97648.96444,134000,-254000,-411333.3333,41.34,0,5.634999991,-433.9516602,-13.68982077,71.5,-6.468956947,37.85587311,-12.46274567,0
34:23.0,-0.094333333,-0.316,-0.347333333,-0.719154333,0.8041453,13.6900834,97649.61344,133000,-253000,-410666.6667,41.34,0,5.650000095,-448.0256958,-13.24708366,72,-6.468956947,37.85587311,-12.46274567,0
34:23.0,-0.116,-0.335,-0.354,-0.7453054,0.7060788,12.9840046,97650.26245,132000,-252000,-410000,41.34,0,5.650000095,-448.0256958,-13.24708366,72,-6.468956947,37.85587311,-12.46274567,0
34:23.1,-0.164,-0.342666667,-0.359,-0.719154333,0.532827983,13.44491715,97650.33569,130333.3333,-248666.6667,-414666.6667,41.33666667,0,5.650000095,-449.1497192,-12.4089222,73,-6.468956947,37.85587311,-12.46274567,0
34:23.1,-0.212,-0.350333333,-0.364,-0.693003267,0.359577167,13.9058297,97650.40894,128666.6667,-245333.3333,-419333.3333,41.33333333,0,5.650000095,-449.1497192,-12.4089222,73,-6.468956947,37.85587311,-12.46274567,0
34:23.2,-0.26,-0.358,-0.369,-0.6668522,0.18632635,14.36674225,97650.48218,127000,-242000,-424000,41.33,0,5.644999981,-449.1497192,-12.03724194,73.5,-6.468956947,37.85587311,-12.46274567,0
34:23.2,-0.123,-0.336,-0.283,-0.661948875,0.0784532,14.35203228,97649.67347,124500,-233500,-433000,41.33,0,5.639999866,-449.1497192,-11.66556168,74,-6.468956947,37.85587311,-12.46274567,0
34:23.2,0.014,-0.314,-0.197,-0.65704555,-0.02941995,14.3373223,97648.86475,122000,-225000,-442000,41.33,0,5.639999866,-449.1497192,-11.66556168,74,-6.468956947,37.85587311,-12.46274567,0
34:23.3,0.004,-0.309,-0.175,-0.653776667,0.16671305,14.03658503,97648.47209,121333.3333,-221666.6667,-442666.6667,41.33,0,5.629999876,-450.3900604,-11.32148314,74.5,-6.468956947,37.85587311,-12.46274567,0
34:23.3,-0.006,-0.304,-0.153,-0.650507783,0.36284605,13.73584777,97648.07943,120666.6667,-218333.3333,-443333.3333,41.33,0,5.619999886,-451.6304016,-10.97740459,75,-6.468956947,37.85587311,-12.46274567,0
34:23.4,-0.016,-0.299,-0.131,-0.6472389,0.55897905,13.4351105,97647.68677,120000,-215000,-444000,41.33,0,5.619999886,-451.6304016,-10.97740459,75,-4.181842327,35.10020065,0.494616091,0
34:23.4,0.0255,-0.286,-0.124,-0.612915625,0.701175475,13.12620103,97649.18213,116500,-215000,-445500,41.325,0,5.589999676,-451.6304016,-10.38802814,76,-4.181842327,35.10020065,0.494616091,0
34:23.4,0.067,-0.273,-0.117,-0.57859235,0.8433719,12.81729155,97650.67749,113000,-215000,-447000,41.32,0,5.564999819,-453.6370239,-10.11702442,77,-4.181842327,35.10020065,0.494616091,0
34:23.5,0.075666667,-0.236,-0.137333333,-0.588399,0.777994233,12.39887448,97650.90739,109000,-212666.6667,-452000,41.32,0,5.539999962,-455.6436462,-9.846020699,78,-4.181842327,35.10020065,0.494616091,0
34:23.5,0.084333333,-0.199,-0.157666667,-0.59820565,0.712616567,11.98045742,97651.13729,105000,-210333.3333,-457000,41.32,0,5.539999962,-455.6436462,-9.846020699,78,-4.181842327,35.10020065,0.494616091,0
34:23.6,0.093,-0.162,-0.178,-0.6080123,0.6472389,11.56204035,97651.36719,101000,-208000,-462000,41.32,0,5.539999962,-455.6436462,-9.846020699,78,-4.181842327,35.10020065,0.494616091,0
34:23.6,-0.0265,-0.1805,-0.179,-0.573689025,0.661948875,11.07170785,97649.7345,98500,-209500,-459500,41.32,0,5.489999771,-455.6436462,-9.383023262,79,-2.213662148,35.46608734,4.528028965,0
34:23.6,-0.146,-0.199,-0.18,-0.53936575,0.67665885,10.58137535,97648.10181,96000,-211000,-457000,41.32,0,5.489999771,-455.6436462,-9.383023262,79,-2.213662148,35.46608734,4.528028965,0
34:23.7,-0.307666667,-0.227333333,-0.166666667,-0.523021333,0.758380933,11.19592542,97647.6766,95333.33333,-212333.3333,-458333.3333,41.31666667,0,5.46999979,-448.7814534,-9.181799889,79.33333333,-2.213662148,35.46608734,4.528028965,0
34:23.7,-0.469333333,-0.255666667,-0.153333333,-0.506676917,0.840103017,11.81047548,97647.25138,94666.66667,-213666.6667,-459666.6667,41.31333333,0,5.449999809,-441.9192606,-8.980576515,79.66666667,-2.213662148,35.46608734,4.528028965,0
34:23.8,-0.631,-0.284,-0.14,-0.4903325,0.9218251,12.42502555,97646.82617,94000,-215000,-461000,41.31,0,5.429999828,-435.0570679,-8.779353142,80,-2.213662148,35.46608734,4.528028965,0
34:23.8,-0.628666667,-0.285333333,-0.153666667,-0.434761483,1.013353833,13.05918892,97646.45182,91666.66667,-207333.3333,-464333.3333,41.31,0,5.419999838,-424.7637787,-8.691266537,80,-2.213662148,35.46608734,4.528028965,0
34:23.8,-0.626333333,-0.286666667,-0.167333333,-0.379190467,1.104882567,13.69335228,97646.07748,89333.33333,-199666.6667,-467666.6667,41.31,0,5.409999847,-414.4704895,-8.603179932,80,-2.213662148,35.46608734,4.528028965,0
34:23.9,-0.624,-0.288,-0.181,-0.32361945,1.1964113,14.32751565,97645.70313,87000,-192000,-471000,41.31,0,5.359999657,-405.6556702,-8.290309906,81,-2.213662148,35.46608734,4.528028965,0
34:23.9,-0.529,-0.096,-0.293,-0.4707192,0.9414384,12.6898051,97644.99512,70000,-165000,-491000,41.31,0,5.359999657,-405.6556702,-8.290309906,81,0.011486564,27.62366867,10.20005894,0
34:24.0,-0.5265,-0.1005,-0.281,-0.517300788,0.867888525,12.09895444,97644.44428,67750,-152500,-496750,41.3075,0,5.289999962,-405.6556702,-8.040657997,82,0.011486564,27.62366867,10.20005894,0
34:24.0,-0.524,-0.105,-0.269,-0.563882375,0.79433865,11.50810378,97643.89344,65500,-140000,-502500,41.305,0,5.289999962,-405.6556702,-8.040657997,82,0.011486564,27.62366867,10.20005894,0
34:24.0,-0.5215,-0.1095,-0.257,-0.610463963,0.720788775,10.91725311,97643.34259,63250,-127500,-508250,41.3025,0,5.289999962,-405.6556702,-8.040657997,82,0.011486564,27.62366867,10.20005894,0
34:24.1,-0.519,-0.114,-0.245,-0.65704555,0.6472389,10.32640245,97642.79175,61000,-115000,-514000,41.3,0,5.244999886,-397.3408661,-7.933612347,82.5,0.011486564,27.62366867,10.20005894,0
34:24.1,-0.4855,-0.139,-0.2365,-0.612915625,0.61781895,11.36100403,97642.79175,61000,-115000,-514000,41.3,0,5.199999809,-389.026062,-7.826566696,83,0.011486564,27.62366867,10.20005894,0
34:24.2,-0.452,-0.164,-0.228,-0.5687857,0.588399,12.3956056,97642.79175,61000,-115000,-514000,41.3,0,5.149999857,-389.026062,-7.74127698,83.5,0.011486564,27.62366867,10.20005894,0
34:24.2,-0.4005,-0.14,-0.2225,-0.554075725,0.475622525,12.17495598,97638.34534,60000,-104500,-513500,41.3,0,5.099999905,-389.026062,-7.655987263,84,0.011486564,27.62366867,10.20005894,0
34:24.2,-0.349,-0.116,-0.217,-0.53936575,0.36284605,11.95430635,97633.89893,59000,-94000,-513000,41.3,0,5.099999905,-389.026062,-7.655987263,84,0.011486564,27.62366867,10.20005894,0
34:24.3,-0.348666667,-0.129,-0.188,-0.585130117,0.326888333,11.79086218,97634.91822,56666.66667,-86333.33333,-519000,41.3,0,4.980000019,-371.54599,-7.513069153,85,0.011486564,27.62366867,10.20005894,0
34:24.3,-0.348333333,-0.142,-0.159,-0.630894483,0.290930617,11.62741802,97635.9375,54333.33333,-78666.66667,-525000,41.3,0,4.980000019,-371.54599,-7.513069153,85,0.29724279,18.51014709,16.39533806,0
34:24.4,-0.348,-0.155,-0.13,-0.67665885,0.2549729,11.46397385,97636.95679,52000,-71000,-531000,41.3,0,4.919999838,-371.54599,-7.463366509,85.5,0.29724279,18.51014709,16.39533806,0
34:24.4,-0.336,-0.1835,-0.105,-0.59820565,0.38245935,12.3171524,97636.29456,48000,-63000,-530500,41.295,0,4.859999657,-371.54599,-7.413663864,86,0.29724279,18.51014709,16.39533806,0
34:24.4,-0.324,-0.212,-0.08,-0.51975245,0.5099458,13.17033095,97635.63232,44000,-55000,-530000,41.29,0,4.859999657,-371.54599,-7.413663864,86,0.29724279,18.51014709,16.39533806,0
34:24.5,-0.345666667,-0.203,-0.071,-0.523021333,0.454374783,12.84344262,97634.47265,41333.33333,-50666.66667,-532333.3333,41.29,0,4.784999848,-359.8585205,-7.371856689,86.5,0.29724279,18.51014709,16.39533806,0
34:24.5,-0.367333333,-0.194,-0.062,-0.526290217,0.398803767,12.51655428,97633.31299,38666.66667,-46333.33333,-534666.6667,41.29,0,4.710000038,-348.171051,-7.330049515,87,0.29724279,18.51014709,16.39533806,0
34:24.6,-0.389,-0.185,-0.053,-0.5295591,0.34323275,12.18966595,97632.15332,36000,-42000,-537000,41.29,0,4.625,-348.171051,-7.306080819,87.5,0.29724279,18.51014709,16.39533806,0
34:24.6,-0.254666667,-0.175,-0.056666667,-0.51975245,0.424954833,12.3367657,97633.99658,32666.66667,-35333.33333,-539000,41.29,0,4.539999962,-348.171051,-7.282112122,88,0.29724279,18.51014709,16.39533806,0
34:24.6,-0.120333333,-0.165,-0.060333333,-0.5099458,0.506676917,12.48386545,97635.83985,29333.33333,-28666.66667,-541000,41.29,0,4.539999962,-348.171051,-7.282112122,88,0.29724279,18.51014709,16.39533806,0
34:24.7,0.014,-0.155,-0.064,-0.50013915,0.588399,12.6309652,97637.68311,26000,-22000,-543000,41.29,0,4.439999819,-348.171051,-7.264050484,88.5,0.29724279,18.51014709,16.39533806,0
34:24.7,-0.023,-0.1025,-0.0565,-0.495235825,0.61781895,11.87585315,97635.22645,20000,-17500,-545500,41.29,0,4.339999676,-348.171051,-7.245988846,89,0.29724279,18.51014709,16.39533806,0
34:24.8,-0.06,-0.05,-0.049,-0.4903325,0.6472389,11.1207411,97632.76978,14000,-13000,-548000,41.29,0,4.339999676,-348.171051,-7.245988846,89,3.610384703,13.665452,19.58065224,0
34:24.8,-0.2165,0.003,-0.062,-0.505042475,0.75511205,10.7480884,97629.33045,13500,-12500,-546500,41.285,0,4.110000134,-336.8898315,-7.23366785,90,3.610384703,13.665452,19.58065224,0
34:24.8,-0.373,0.056,-0.075,-0.51975245,0.8629852,10.3754357,97625.89111,13000,-12000,-545000,41.28,0,4.110000134,-336.8898315,-7.23366785,90,3.610384703,13.665452,19.58065224,0
34:24.9,-0.388333333,0.06,-0.081666667,-0.513214683,0.738767633,10.3362091,97625.177,11666.66667,-10000,-547000,41.28,0,4,-325.2053223,-7.237422466,90.5,3.610384703,13.665452,19.58065224,0
34:24.9,-0.403666667,0.064,-0.088333333,-0.506676917,0.614550067,10.2969825,97624.46289,10333.33333,-8000,-549000,41.28,0,3.889999866,-313.520813,-7.241177082,91,3.610384703,13.665452,19.58065224,0
34:25.0,-0.419,0.068,-0.095,-0.50013915,0.4903325,10.2577559,97623.74878,9000,-6000,-551000,41.28,0,3.774999857,-313.520813,-7.252855778,91.5,3.610384703,13.665452,19.58065224,0
34:25.0,-0.594,0.097,-0.1,-0.59820565,0.65704555,9.18883105,97619.97681,11000,13000,-547000,41.27,0,3.659999847,-313.520813,-7.264534473,92,3.610384703,13.665452,19.58065224,0
34:25.0,-0.629333333,0.087,-0.106333333,-0.562247933,0.653776667,8.803102817,97620.12126,11333.33333,22333.33333,-548333.3333,41.27,0,3.549999833,-297.9033509,-7.276182413,92,3.610384703,13.665452,19.58065224,0
34:25.1,-0.664666667,0.077,-0.112666667,-0.526290217,0.650507783,8.417374583,97620.26571,11666.66667,31666.66667,-549666.6667,41.27,0,3.439999819,-282.2858887,-7.287830353,92,3.610384703,13.665452,19.58065224,0
34:25.1,-0.7,0.067,-0.119,-0.4903325,0.6472389,8.03164635,97620.41016,12000,41000,-551000,41.27,0,3.439999819,-282.2858887,-7.287830353,92,3.610384703,13.665452,19.58065224,0
34:25.2,-0.641333333,0.073,-0.114333333,-0.493601383,0.611281183,8.123175083,97620.52816,12000,50666.66667,-549333.3333,41.27,0,3.339999915,-282.2858887,-7.301528931,92.5,2.847833515,8.306758998,20.55871582,0
34:25.2,-0.582666667,0.079,-0.109666667,-0.496870267,0.575323467,8.214703817,97620.64616,12000,60333.33333,-547666.6667,41.27,0,3.24000001,-282.2858887,-7.315227509,93,2.085282326,2.948065996,21.5367794,0
34:25.2,-0.524,0.085,-0.105,-0.50013915,0.53936575,8.30623255,97620.76416,12000,70000,-546000,41.27,0,3.176666657,-282.2858887,-7.320381165,93.33333333,2.085282326,2.948065996,21.5367794,0
34:25.3,-0.522333333,0.084333333,-0.100666667,-0.48052585,0.4903325,9.094033433,97617.91585,12666.66667,78000,-543666.6667,41.27,0,3.113333305,-282.2858887,-7.325534821,93.66666667,2.085282326,2.948065996,21.5367794,0
34:25.3,-0.520666667,0.083666667,-0.096333333,-0.46091255,0.44129925,9.881834317,97615.06755,13333.33333,86000,-541333.3333,41.27,0,3.049999952,-282.2858887,-7.330688477,94,2.085282326,2.948065996,21.5367794,0
34:25.4,-0.519,0.083,-0.092,-0.44129925,0.392266,10.6696352,97612.21924,14000,94000,-539000,41.27,0,2.969999909,-267.5903321,-7.334532022,94.5,2.085282326,2.948065996,21.5367794,0
34:25.4,-0.389,0.0965,-0.091,-0.406975975,0.269682875,9.860586575,97612.72583,15000,106500,-537000,41.265,0,2.889999866,-252.8947754,-7.338375568,95,2.085282326,2.948065996,21.5367794,0
34:25.4,-0.259,0.11,-0.09,-0.3726527,0.14709975,9.05153795,97613.23242,16000,119000,-535000,41.26,0,2.889999866,-252.8947754,-7.338375568,95,2.085282326,2.948065996,21.5367794,0
34:25.5,-0.195,0.098,-0.069,-0.38245935,0.084990967,9.201906583,97610.89477,16333.33333,124333.3333,-532333.3333,41.26,0,2.720000029,-252.8947754,-7.338107586,96,0.382291019,-4.915011883,23.39656067,0
34:25.5,-0.131,0.086,-0.048,-0.392266,0.022882183,9.352275217,97608.55713,16666.66667,129666.6667,-529666.6667,41.26,0,2.720000029,-252.8947754,-7.338107586,96,0.382291019,-4.915011883,23.39656067,0
34:25.6,-0.067,0.074,-0.027,-0.40207265,-0.0392266,9.50264385,97606.21948,17000,135000,-527000,41.26,0,2.579999924,-232.6835632,-7.326087952,97,0.382291019,-4.915011883,23.39656067,0
34:25.6,-0.121,0.0555,0.013,-0.4314926,-0.004903325,9.2574776,97607.12891,18000,138500,-526500,41.26,0,2.579999924,-232.6835632,-7.326087952,97,0.382291019,-4.915011883,23.39656067,0
34:25.6,-0.175,0.037,0.053,-0.46091255,0.02941995,9.01231135,97608.03833,19000,142000,-526000,41.26,0,2.579999924,-232.6835632,-7.326087952,97,0.382291019,-4.915011883,23.39656067,0
34:25.7,-0.153333333,0.029,0.069,-0.46091255,0.071915433,8.734456267,97607.38118,20000,144333.3333,-526333.3333,41.25666667,0,2.440000057,-203.5966797,-7.29821682,98,0.382291019,-4.915011883,23.39656067,0
34:25.7,-0.131666667,0.021,0.085,-0.46091255,0.114410917,8.456601183,97606.72404,21000,146666.6667,-526666.6667,41.25333333,0,2.440000057,-203.5966797,-7.29821682,98,0.382291019,-4.915011883,23.39656067,0
34:25.8,-0.11,0.013,0.101,-0.46091255,0.1569064,8.1787461,97606.06689,22000,149000,-527000,41.25,0,2.440000057,-203.5966797,-7.29821682,98,0.382291019,-4.915011883,23.39656067,0
34:25.8,-0.093,0.0295,0.1005,-0.485429175,0.171616375,8.409202375,97603.09143,25000,149000,-521000,41.25,0,2.309999943,-203.5966797,-7.2625103,99,0.382291019,-4.915011883,23.39656067,0
34:25.8,-0.076,0.046,0.1,-0.5099458,0.18632635,8.63965865,97600.11597,28000,149000,-515000,41.25,0,2.309999943,-203.5966797,-7.2625103,99,0.382291019,-4.915011883,23.39656067,0
34:25.9,-0.0638,0.0538,0.1028,-0.47660319,0.18436502,8.61220003,97599.9878,29000,150000,-514600,41.25,0,2.259999991,-196.4433594,-7.238720894,100,0.382291019,-4.915011883,23.39656067,0
34:25.9,-0.0516,0.0616,0.1056,-0.44326058,0.18240369,8.58474141,97599.85962,30000,151000,-514200,41.25,0,2.210000038,-189.2900391,-7.214931488,101,0.382291019,-4.915011883,23.39656067,0
34:26.0,-0.0394,0.0694,0.1084,-0.40991797,0.18044236,8.55728279,97599.73145,31000,152000,-513800,41.25,0,2.164999962,-189.2900391,-7.187195063,101.5,-0.411209733,-6.040455342,22.63231373,0
34:26.0,-0.0272,0.0772,0.1112,-0.37657536,0.17848103,8.52982417,97599.60327,32000,153000,-513400,41.25,0,2.119999886,-189.2900391,-7.159458637,102,-1.204710484,-7.1658988,21.86806679,0
34:26.0,-0.015,0.085,0.114,-0.34323275,0.1765197,8.50236555,97599.4751,33000,154000,-513000,41.25,0,2.099999905,-189.2900391,-7.143616438,102.25,-1.204710484,-7.1658988,21.86806679,0
34:26.1,-0.033,0.118,0.118,-0.392266,0.2941995,8.58081875,97599.4751,33000,154000,-513000,41.25,0,2.079999924,-189.2900391,-7.127774239,102.5,-1.204710484,-7.1658988,21.86806679,0
34:26.1,-0.09,0.126,0.109,-0.3334261,0.2745862,8.09048625,97599.93286,38000,153000,-516000,41.24,0,2.039999962,-189.2900391,-7.09608984,103,-1.204710484,-7.1658988,21.86806679,0
34:26.2,-0.0975,0.11525,0.11625,-0.360394387,0.230456275,8.154229475,97599.40796,42250,154000,-515250,41.2375,0,1.9799999,-177.3139954,-7.013013363,104,-1.204710484,-7.1658988,21.86806679,0
34:26.2,-0.105,0.1045,0.1235,-0.387362675,0.18632635,8.2179727,97598.88306,46500,155000,-514500,41.235,0,1.966666579,-171.6315613,-6.985321204,104.3333333,-1.204710484,-7.1658988,21.86806679,0
34:26.2,-0.1125,0.09375,0.13075,-0.414330963,0.142196425,8.281715925,97598.35815,50750,156000,-513750,41.2325,0,1.953333259,-165.9491272,-6.957629045,104.6666667,-1.204710484,-7.1658988,21.86806679,0
34:26.3,-0.12,0.083,0.138,-0.44129925,0.0980665,8.34545915,97597.83325,55000,157000,-513000,41.23,0,1.939999938,-160.2666931,-6.929936886,105,-1.204710484,-7.1658988,21.86806679,0
34:26.3,-0.0895,0.0675,0.1435,-0.446202575,0.122583125,8.399395725,97597.83325,55000,157000,-513000,41.23,0,1.939999938,-160.2666931,-6.929936886,105,-1.204710484,-7.1658988,21.86806679,0
34:26.4,-0.059,0.052,0.149,-0.4511059,0.14709975,8.4533323,97597.83325,55000,157000,-513000,41.23,0,1.939999938,-160.2666931,-6.929936886,105,-1.204710484,-7.1658988,21.86806679,0
34:26.4,-0.081,0.0045,0.154,-0.46091255,0.308909475,9.12999115,97597.70813,58000,158000,-511500,41.23,0,1.909999967,-160.2666931,-6.823174953,106,-3.947234154,-8.417676926,18.52735329,0
34:26.4,-0.103,-0.043,0.159,-0.4707192,0.4707192,9.80665,97597.58301,61000,159000,-510000,41.23,0,1.909999967,-160.2666931,-6.823174953,106,-3.947234154,-8.417676926,18.52735329,0
34:26.5,-0.07025,-0.02325,0.1475,-0.468267538,0.532010763,9.693873525,97597.86225,62000,158000,-508750,41.23,0,1.899999976,-149.9528809,-7.493392944,107,-3.947234154,-8.417676926,18.52735329,0
34:26.5,-0.0375,-0.0035,0.136,-0.465815875,0.593302325,9.58109705,97598.14148,63000,157000,-507500,41.23,0,1.899999976,-149.9528809,-7.462252934,107.3333333,-3.947234154,-8.417676926,18.52735329,0
34:26.6,-0.00475,0.01625,0.1245,-0.463364213,0.654593888,9.468320575,97598.42072,64000,156000,-506250,41.23,0,1.899999976,-149.9528809,-7.431112925,107.6666667,-3.947234154,-8.417676926,18.52735329,0
34:26.6,0.028,0.036,0.113,-0.46091255,0.71588545,9.3555441,97598.69995,65000,155000,-505000,41.23,0,1.899999976,-149.9528809,-7.399972915,108,-3.947234154,-8.417676926,18.52735329,0
34:26.6,-0.009,0.069,0.06,-0.44129925,0.65704555,9.18883105,97598.69995,65000,155000,-505000,41.23,0,1.899999976,-149.9528809,-7.306552887,109,-3.947234154,-8.417676926,18.52735329,0
34:26.7,0.024,0.058666667,0.046333333,-0.395534883,0.624356717,9.388232933,97598.81999,68000,153000,-505666.6667,41.22666667,0,1.899999976,-135.4118347,-7.095460892,110,-3.947234154,-8.417676926,18.52735329,0
34:26.7,0.057,0.048333333,0.032666667,-0.349770517,0.591667883,9.587634817,97598.94002,71000,151000,-506333.3333,41.22333333,0,1.899999976,-135.4118347,-7.095460892,110,-3.947234154,-8.417676926,18.52735329,0
34:26.8,0.09,0.038,0.019,-0.30400615,0.55897905,9.7870367,97599.06006,74000,149000,-507000,41.22,0,1.899999976,-135.4118347,-7.095460892,110,-3.947234154,-8.417676926,18.52735329,0
34:26.8,0.116,0.035,0.0095,-0.318716125,0.465815875,10.05181625,97599.06006,74000,149000,-507000,41.22,0,1.919999957,-135.4118347,-9.824962616,111,-4.974971294,-7.461174965,16.19006538,0
34:26.8,0.142,0.032,-3.92E-18,-0.3334261,0.3726527,10.3165958,97599.06006,74000,149000,-507000,41.22,0,1.919999957,-135.4118347,-9.824962616,111,-4.974971294,-7.461174965,16.19006538,0
34:26.9,0.191333333,0.028666667,0.007666667,-0.349770517,0.349770517,10.24794925,97599.00716,75333.33333,145666.6667,-505000,41.21666667,0,1.924999953,-135.4118347,-9.589258194,111.5,-4.974971294,-7.461174965,16.19006538,0
34:26.9,0.240666667,0.025333333,0.015333333,-0.366114933,0.326888333,10.1793027,97598.95427,76666.66667,142333.3333,-503000,41.21333333,0,1.929999948,-135.4118347,-9.353553772,112,-4.974971294,-7.461174965,16.19006538,0
34:27.0,0.29,0.022,0.023,-0.38245935,0.30400615,10.11065615,97598.90137,78000,139000,-501000,41.21,0,1.939999938,-131.6370011,-9.48599577,113,-4.974971294,-7.461174965,16.19006538,0
34:27.0,0.297666667,0.014333333,0.024333333,-0.418417067,0.183057467,9.69877685,97599.20248,79000,136333.3333,-502666.6667,41.21,0,1.949999928,-127.8621674,-9.618437767,114,-4.974971294,-7.461174965,16.19006538,0
34:27.0,0.305333333,0.006666667,0.025666667,-0.454374783,0.062108783,9.28689755,97599.50358,80000,133666.6667,-504333.3333,41.21,0,1.949999928,-127.8621674,-9.618437767,114,-4.974971294,-7.461174965,16.19006538,0
34:27.1,0.313,-0.001,0.027,-0.4903325,-0.0588399,8.87501825,97599.80469,81000,131000,-506000,41.21,0,1.954999924,-130.2626572,-9.345098973,114.5,-4.974971294,-7.461174965,16.19006538,0
34:27.1,0.3885,-0.034,0.0655,-0.4511059,-0.0392266,9.6497436,97600.26856,82000,123000,-508000,41.21,0,1.959999919,-132.663147,-9.071760178,115,-4.974971294,-7.461174965,16.19006538,0
34:27.2,0.464,-0.067,0.104,-0.4118793,-0.0196133,10.42446895,97600.73242,83000,115000,-510000,41.21,0,1.96999991,-132.663147,-9.895255089,115.5,-4.974971294,-7.461174965,16.19006538,0
34:27.2,0.4905,-0.038,0.126,-0.436395925,0.073549875,10.07142955,97599.06311,84000,106500,-510000,41.21,0,1.974999905,-132.663147,-10.30700254,115.75,-4.979656935,-3.218123317,15.49306059,0
34:27.2,0.517,-0.009,0.148,-0.46091255,0.16671305,9.71839015,97597.3938,85000,98000,-510000,41.21,0,1.9799999,-132.663147,-10.71875,116,-4.984342575,1.024928331,14.79605579,0
34:27.3,0.446666667,0.004666667,0.157333333,-0.467450317,0.297468383,9.822994417,97599.16382,85666.66667,89333.33333,-513000,41.21,0,2,-124.61586,-10.0222702,118,-4.984342575,1.024928331,14.79605579,0
34:27.3,0.376333333,0.018333333,0.166666667,-0.473988083,0.428223717,9.927598683,97600.93384,86333.33333,80666.66667,-516000,41.21,0,2.004999995,-124.61586,-9.851667164,118.25,-4.984342575,1.024928331,14.79605579,0
34:27.4,0.306,0.032,0.176,-0.48052585,0.55897905,10.03220295,97602.70386,87000,72000,-519000,41.21,0,2.009999991,-124.61586,-9.681064128,118.5,-4.984342575,1.024928331,14.79605579,0
34:27.4,0.231,0.012,0.1385,-0.4314926,0.73549875,10.17439938,97602.62452,89500,61500,-518000,41.205,0,2.019999981,-124.61586,-9.339858055,119,-4.984342575,1.024928331,14.79605579,0
34:27.4,0.156,-0.008,0.101,-0.38245935,0.91201845,10.3165958,97602.54517,92000,51000,-517000,41.2,0,2.019999981,-124.61586,-9.339858055,119,-4.984342575,1.024928331,14.79605579,0
34:27.5,0.161333333,-0.002666667,0.074,-0.395534883,0.89240515,10.14988275,97602.09147,93000,47333.33333,-520000,41.2,0,2.019999981,-124.61586,-9.339858055,119,-4.984342575,1.024928331,14.79605579,0
34:27.5,0.166666667,0.002666667,0.047,-0.408610417,0.87279185,9.9831697,97601.63778,94000,43666.66667,-523000,41.2,0,2.039999962,-126.5113831,-10.04451847,120,-4.984342575,1.024928331,14.79605579,0
34:27.6,0.172,0.008,0.02,-0.42168595,0.85317855,9.81645665,97601.18408,95000,40000,-526000,41.2,0,2.039999962,-126.5113831,-10.04451847,120,-4.984342575,1.024928331,14.79605579,0
34:27.6,0.226,0.0275,-0.026,-0.44129925,0.769822025,9.370254075,97603.9978,96000,36000,-524500,41.195,0,2.059999943,-126.5113831,-9.267643929,122,-5.286717892,7.333023548,12.20479202,0
34:27.6,0.28,0.047,-0.072,-0.46091255,0.6864655,8.9240515,97606.81152,97000,32000,-523000,41.19,0,2.059999943,-126.5113831,-9.267643929,122,-5.286717892,7.333023548,12.20479202,0
34:27.7,0.331,0.025666667,-0.086,-0.454374783,0.650507783,8.956740333,97605.21443,99000,29000,-523333.3333,41.19,0,2.069999934,-124.559784,-10.32688236,122.5,-5.286717892,7.333023548,12.20479202,0
34:27.7,0.382,0.004333333,-0.1,-0.447837017,0.614550067,8.989429167,97603.61735,101000,26000,-523666.6667,41.19,0,2.079999924,-122.6081848,-11.3861208,123,-5.286717892,7.333023548,12.20479202,0
34:27.8,0.433,-0.017,-0.114,-0.44129925,0.57859235,9.022118,97602.02026,103000,23000,-524000,41.19,0,2.079999924,-122.6081848,-11.3861208,123,-5.286717892,7.333023548,12.20479202,0
34:27.8,0.469,-0.026,-0.1255,-0.4314926,0.514849125,9.203541025,97602.07825,104000,15500,-524000,41.19,0,2.099999905,-122.6081848,-10.91022635,123.5,-5.286717892,7.333023548,12.20479202,0
34:27.8,0.505,-0.035,-0.137,-0.42168595,0.4511059,9.38496405,97602.13623,105000,8000,-524000,41.19,0,2.119999886,-122.6081848,-10.43433189,124,-5.286717892,7.333023548,12.20479202,0
34:27.9,0.499,-0.0215,-0.139,-0.3530394,0.5099458,9.6301303,97603.09754,106000,1000,-523000,41.19,0,2.159999847,-122.6081848,-9.48440361,125,-5.286717892,7.333023548,12.20479202,0
34:27.9,0.493,-0.008,-0.141,-0.28439285,0.5687857,9.87529655,97604.05884,107000,-6000,-522000,41.19,0,2.159999847,-122.6081848,-9.48440361,125,-5.286717892,7.333023548,12.20479202,0
34:28.0,0.536,0.008666667,-0.147333333,-0.346501633,0.457643667,9.6301303,97604.11174,107333.3333,-13333.33333,-521666.6667,41.19,0,2.189999938,-120.4051018,-10.14275599,126,-5.286717892,7.333023548,12.20479202,0
34:28.0,0.579,0.025333333,-0.153666667,-0.408610417,0.346501633,9.38496405,97604.16463,107666.6667,-20666.66667,-521333.3333,41.19,0,2.220000029,-118.2020187,-10.80110836,127,-5.286717892,7.333023548,12.20479202,0
34:28.0,0.622,0.042,-0.16,-0.4707192,0.2353596,9.1397978,97604.21753,108000,-28000,-521000,41.19,0,2.220000029,-118.2020187,-10.80110836,127,-5.286717892,7.333023548,12.20479202,0
34:28.1,0.6285,0.009,-0.148,-0.446202575,0.220649625,9.007408025,97605.98755,111500,-39500,-521000,41.185,0,2.289999962,-118.2020187,-9.76133728,128,-6.299097061,20.21969604,14.96426106,0
34:28.1,0.635,-0.024,-0.136,-0.42168595,0.20593965,8.87501825,97607.75757,115000,-51000,-521000,41.18,0,2.289999962,-118.2020187,-9.76133728,128,-6.299097061,20.21969604,14.96426106,0
34:28.2,0.568333333,-0.029333333,-0.124333333,-0.4314926,0.34323275,8.878287133,97607.59277,117000,-59000,-517000,41.18,0,2.329999924,-122.8775978,-10.03606463,128.5,-6.299097061,20.21969604,14.96426106,0
34:28.2,0.501666667,-0.034666667,-0.112666667,-0.44129925,0.48052585,8.881556017,97607.42798,119000,-67000,-513000,41.18,0,2.369999886,-127.5531769,-10.31079197,129,-6.299097061,20.21969604,14.96426106,0
34:28.2,0.435,-0.04,-0.101,-0.4511059,0.61781895,8.8848249,97607.26318,121000,-75000,-509000,41.18,0,2.369999886,-127.5531769,-10.31079197,129,-6.299097061,20.21969604,14.96426106,0
34:28.3,0.385666667,-0.060333333,-0.109666667,-0.42168595,0.624356717,9.005773583,97607.2937,121333.3333,-83000,-506333.3333,41.17666667,0,2.419999958,-128.9065323,-9.78038025,130,-6.299097061,20.21969604,14.96426106,0
34:28.3,0.336333333,-0.080666667,-0.118333333,-0.392266,0.630894483,9.126722267,97607.32422,121666.6667,-91000,-503666.6667,41.17333333,0,2.470000029,-130.2598877,-9.249968529,131,-6.299097061,20.21969604,14.96426106,0
34:28.4,0.287,-0.101,-0.127,-0.36284605,0.63743225,9.24767095,97607.35474,122000,-99000,-501000,41.17,0,2.470000029,-130.2598877,-9.249968529,131,-6.299097061,20.21969604,14.96426106,0
34:28.4,0.215333333,-0.105333333,-0.141666667,-0.330157217,0.689734383,9.646474717,97609.34245,121000,-105333.3333,-499000,41.17,0,2.599999905,-130.2598877,-8.97136879,132,-6.299097061,20.21969604,14.96426106,0
34:28.4,0.143666667,-0.109666667,-0.156333333,-0.297468383,0.742036517,10.04527848,97611.33016,120000,-111666.6667,-497000,41.17,0,2.669999958,-134.7841187,-8.446254254,132.5,-6.363682747,24.87382984,16.50091506,0
34:28.5,0.072,-0.114,-0.171,-0.26477955,0.79433865,10.44408225,97613.31787,119000,-118000,-495000,41.17,0,2.74000001,-139.3083496,-7.921139717,133,-6.428268433,29.52796364,18.03756905,0
34:28.5,0.05,-0.096,-0.189,-0.14709975,0.9022118,10.5127288,97613.31787,119000,-118000,-495000,41.17,0,2.74000001,-139.3083496,-7.921139717,133,-6.428268433,29.52796364,18.03756905,0
34:28.6,0.036333333,-0.105333333,-0.198666667,-0.163444167,0.859716317,10.4146623,97613.48673,118333.3333,-116666.6667,-497000,41.17,0,2.809999943,-139.3083496,-7.410428047,133.5,-6.428268433,29.52796364,18.03756905,0
34:28.6,0.022666667,-0.114666667,-0.208333333,-0.179788583,0.817220833,10.3165958,97613.6556,117666.6667,-115333.3333,-499000,41.17,0,2.879999876,-139.3083496,-6.899716377,134,-6.428268433,29.52796364,18.03756905,0
34:28.6,0.009,-0.124,-0.218,-0.196133,0.77472535,10.2185293,97613.82446,117000,-114000,-501000,41.17,0,2.879999876,-139.3083496,-6.899716377,134,-6.428268433,29.52796364,18.03756905,0
34:28.7,0.038333333,-0.138666667,-0.226333333,-0.192864117,0.768187583,10.13353833,97615.47851,115000,-114333.3333,-501666.6667,41.16666667,0,3.029999971,-162.1112823,-8.858375549,136,-6.428268433,29.52796364,18.03756905,0
34:28.7,0.067666667,-0.153333333,-0.234666667,-0.189595233,0.761649817,10.04854737,97617.13257,113000,-114666.6667,-502333.3333,41.16333333,0,3.029999971,-162.1112823,-8.858375549,136,-6.428268433,29.52796364,18.03756905,0
34:28.8,0.097,-0.168,-0.243,-0.18632635,0.75511205,9.9635564,97618.78662,111000,-115000,-503000,41.16,0,3.029999971,-162.1112823,-8.858375549,136,-6.428268433,29.52796364,18.03756905,0
34:28.8,0.133,-0.177,-0.255,-0.179788583,0.75511205,10.14988275,97620.16601,110666.6667,-115000,-501000,41.16,0,3.189999819,-162.1112823,-7.724873543,137,-6.428268433,29.52796364,18.03756905,0
34:28.8,0.169,-0.186,-0.267,-0.173250817,0.75511205,10.3362091,97621.54541,110333.3333,-115000,-499000,41.16,0,3.189999819,-162.1112823,-7.724873543,137,-6.428268433,29.52796364,18.03756905,0
34:28.9,0.205,-0.195,-0.279,-0.16671305,0.75511205,10.52253545,97622.9248,110000,-115000,-497000,41.16,0,3.274999857,-158.741951,-7.939741612,137.5,-6.379590035,30.50451947,20.9978838,0
34:28.9,0.2,-0.1985,-0.2885,-0.10787315,0.784532,11.0226746,97622.63184,106500,-113500,-500500,41.16,0,3.359999895,-155.3726196,-8.15460968,138,-6.330911636,31.48107529,23.95819855,0
34:29.0,0.195,-0.202,-0.298,-0.04903325,0.81395195,11.52281375,97622.33887,103000,-112000,-504000,41.16,0,3.359999895,-155.3726196,-8.15460968,138,-6.330911636,31.48107529,23.95819855,0
34:29.0,0.199,-0.2025,-0.293,-0.024516625,0.83356525,11.42965058,97625.72022,101500,-114500,-502000,41.16,0,3.539999962,-155.3726196,-6.988211155,139,-6.330911636,31.48107529,23.95819855,0
34:29.0,0.203,-0.203,-0.288,0,0.85317855,11.3364874,97629.10156,100000,-117000,-500000,41.16,0,3.539999962,-155.3726196,-6.988211155,139,-6.330911636,31.48107529,23.95819855,0
34:29.1,0.1725,-0.191,-0.296,-0.02941995,0.809048625,11.58165365,97629.32434,97500,-118500,-502000,41.155,0,3.624999881,-165.9966431,-7.503772974,139.5,-6.330911636,31.48107529,23.95819855,0
34:29.1,0.142,-0.179,-0.304,-0.0588399,0.7649187,11.8268199,97629.54712,95000,-120000,-504000,41.15,0,3.7099998,-176.6206665,-8.019334793,140,-6.330911636,31.48107529,23.95819855,0
34:29.2,0.17775,-0.194,-0.30575,-0.046581588,0.7453054,11.86359484,97629.87061,94000,-119750,-503500,41.15,0,3.799999833,-176.6206665,-7.414673805,140.5,-6.330911636,31.48107529,23.95819855,0
34:29.2,0.2135,-0.209,-0.3075,-0.034323275,0.7256921,11.90036978,97630.19409,93000,-119500,-503000,41.15,0,3.889999866,-176.6206665,-6.810012817,141,-6.330911636,31.48107529,23.95819855,0
34:29.2,0.24925,-0.224,-0.30925,-0.022064963,0.7060788,11.93714471,97630.51758,92000,-119250,-502500,41.15,0,3.889999866,-176.6206665,-6.810012817,141,-6.330911636,31.48107529,23.95819855,0
34:29.3,0.285,-0.239,-0.311,-0.00980665,0.6864655,11.97391965,97630.84106,91000,-119000,-502000,41.15,0,3.979999781,-185.0529633,-6.220379591,141.5,-6.330911636,31.48107529,23.95819855,0
34:29.3,0.274,-0.234333333,-0.306333333,0.00980665,0.738767633,12.03929732,97634.03727,88000,-123000,-501000,41.15,0,4.069999695,-193.48526,-5.630746365,142,-6.330911636,31.48107529,23.95819855,0
34:29.4,0.263,-0.229666667,-0.301666667,0.02941995,0.791069767,12.10467498,97637.23348,85000,-127000,-500000,41.15,0,4.069999695,-193.48526,-5.630746365,142,-6.323589802,36.47197723,33.12439728,0
34:29.4,0.252,-0.225,-0.297,0.04903325,0.8433719,12.17005265,97640.42969,82000,-131000,-499000,41.15,0,4.159999848,-193.48526,-5.668390036,143,-6.323589802,36.47197723,33.12439728,0
34:29.4,0.223,-0.197,-0.301,0.0784532,0.8825985,11.87585315,97640.42969,82000,-131000,-499000,41.15,0,4.25,-193.48526,-5.706033707,144,-6.323589802,36.47197723,33.12439728,0
34:29.5,0.183,-0.232,-0.2875,0.122583125,0.848275225,11.83172323,97639.29444,79000,-134000,-500000,41.145,0,4.429999828,-193.48526,-4.533203125,145,-6.323589802,36.47197723,33.12439728,0
34:29.5,0.143,-0.267,-0.274,0.16671305,0.81395195,11.7875933,97638.15918,76000,-137000,-501000,41.14,0,4.429999828,-193.48526,-4.533203125,145,-6.323589802,36.47197723,33.12439728,0
34:29.6,0.128,-0.267333333,-0.268,0.192864117,0.827027483,11.83989543,97641.11532,74333.33333,-137333.3333,-500333.3333,41.14,0,4.519999981,-191.2620545,-4.709100724,145.5,-6.323589802,36.47197723,33.12439728,0
34:29.6,0.113,-0.267666667,-0.262,0.219015183,0.840103017,11.89219757,97644.07145,72666.66667,-137666.6667,-499666.6667,41.14,0,4.610000134,-189.0388489,-4.884998322,146,-6.323589802,36.47197723,33.12439728,0
34:29.6,0.098,-0.268,-0.256,0.24516625,0.85317855,11.9444997,97647.02759,71000,-138000,-499000,41.14,0,4.610000134,-189.0388489,-4.884998322,146,-6.323589802,36.47197723,33.12439728,0
34:29.7,0.093666667,-0.275333333,-0.247,0.261510667,0.918556217,12.21254813,97646.92383,68333.33333,-139666.6667,-498666.6667,41.14,0,4.799999714,-219.090271,-3.734181166,147,-6.323589802,36.47197723,33.12439728,0
34:29.7,0.089333333,-0.282666667,-0.238,0.277855083,0.983933883,12.48059657,97646.82007,65666.66667,-141333.3333,-498333.3333,41.14,0,4.799999714,-219.090271,-3.734181166,147,-6.323589802,36.47197723,33.12439728,0
34:29.8,0.085,-0.29,-0.229,0.2941995,1.04931155,12.748645,97646.71631,63000,-143000,-498000,41.14,0,4.894999743,-219.090271,-3.51739204,147,-6.007712365,38.33587456,38.09085846,0
34:29.8,0.0685,-0.2835,-0.251,0.2745862,1.132668075,12.64567518,97648.27576,56500,-141500,-499000,41.14,0,4.989999771,-219.090271,-3.300602913,147,-5.691834927,40.19977188,43.05731964,0
34:29.8,0.052,-0.277,-0.273,0.2549729,1.2160246,12.54270535,97649.83521,50000,-140000,-500000,41.14,0,5.089999914,-219.090271,-2.743283511,147.5,-5.691834927,40.19977188,43.05731964,0
34:29.9,0.0315,-0.2765,-0.293,0.2549729,1.176798,12.4348322,97649.11194,45500,-140000,-502000,41.135,0,5.190000057,-219.090271,-2.185964108,148,-5.691834927,40.19977188,43.05731964,0
34:29.9,0.011,-0.276,-0.313,0.2549729,1.1375714,12.32695905,97648.38867,41000,-140000,-504000,41.13,0,5.190000057,-219.090271,-2.185964108,148,-5.691834927,40.19977188,43.05731964,0
34:30.0,0.020333333,-0.301,-0.310666667,0.297468383,1.193142417,12.7878716,97650.37028,37333.33333,-140000,-503666.6667,41.13,0,5.285000086,-237.3138428,-1.925530077,148.5,-5.691834927,40.19977188,43.05731964,0
34:30.0,0.029666667,-0.326,-0.308333333,0.339963867,1.248713433,13.24878415,97652.35189,33666.66667,-140000,-503333.3333,41.13,0,5.380000114,-255.5374146,-1.665096045,149,-5.691834927,40.19977188,43.05731964,0
34:30.0,0.039,-0.351,-0.306,0.38245935,1.30428445,13.7096967,97654.3335,30000,-140000,-503000,41.13,0,5.380000114,-255.5374146,-1.665096045,149,-5.691834927,40.19977188,43.05731964,0
34:30.1,0.0485,-0.309,-0.3325,0.44129925,1.40235095,13.88131308,97657.3639,25500,-139500,-504000,41.125,0,5.559999943,-250.868988,-0.635215878,150,-5.691834927,40.19977188,43.05731964,0
34:30.1,0.058,-0.267,-0.359,0.50013915,1.50041745,14.05292945,97660.39429,21000,-139000,-505000,41.12,0,5.559999943,-250.868988,-0.635215878,150,-5.070661068,41.01774979,51.82617569,0
34:30.2,0.046333333,-0.293666667,-0.373666667,0.483794733,1.46119085,13.93524965,97659.77783,15666.66667,-137333.3333,-507000,41.12,0,5.559999943,-250.868988,-0.635215878,150,-5.070661068,41.01774979,51.82617569,0
34:30.2,0.034666667,-0.320333333,-0.388333333,0.467450317,1.42196425,13.81756985,97659.16138,10333.33333,-135666.6667,-509000,41.12,0,5.559999943,-250.868988,-0.635215878,150,-5.070661068,41.01774979,51.82617569,0
34:30.2,0.023,-0.347,-0.403,0.4511059,1.38273765,13.69989005,97658.54492,5000,-134000,-511000,41.12,0,5.730000019,-250.868988,0.316528976,151,-5.070661068,41.01774979,51.82617569,0
34:30.3,0.04,-0.367333333,-0.413,0.48052585,1.330435517,14.0038962,97660.55094,4666.666667,-131000,-511666.6667,41.12,0,5.730000019,-250.868988,0.316528976,151,-5.070661068,41.01774979,51.82617569,0
34:30.3,0.057,-0.387666667,-0.423,0.5099458,1.278133383,14.30790235,97662.55697,4333.333333,-128000,-512333.3333,41.12,0,5.879999638,-280.1672058,1.107684731,151,-5.070661068,41.01774979,51.82617569,0
34:30.4,0.074,-0.408,-0.433,0.53936575,1.22583125,14.6119085,97664.56299,4000,-125000,-513000,41.12,0,5.954999686,-280.1672058,1.524960577,151.5,-5.070661068,41.01774979,51.82617569,0
34:30.4,0.0785,-0.3675,-0.433,0.593302325,1.16699135,14.76391158,97662.71057,-5500,-127000,-515000,41.12,0,6.029999733,-280.1672058,1.942236423,152,-5.070661068,41.01774979,51.82617569,0
34:30.4,0.083,-0.327,-0.433,0.6472389,1.10815145,14.91591465,97660.85815,-15000,-129000,-517000,41.12,0,6.029999733,-280.1672058,1.942236423,152,-5.070661068,41.01774979,51.82617569,0
34:30.5,0.044,-0.352333333,-0.424666667,0.663583317,1.055849317,14.8276548,97663.41349,-15666.66667,-127666.6667,-514666.6667,41.12,0,6.029999733,-280.1672058,1.942236423,152,-5.070661068,41.01774979,51.82617569,0
34:30.5,0.005,-0.377666667,-0.416333333,0.679927733,1.003547183,14.73939495,97665.96883,-16333.33333,-126333.3333,-512333.3333,41.12,0,6.150000095,-303.2406006,2.72111845,153,-5.070661068,41.01774979,51.82617569,0
34:30.6,-0.034,-0.403,-0.408,0.69627215,0.95124505,14.6511351,97668.52417,-17000,-125000,-510000,41.12,0,6.150000095,-303.2406006,2.72111845,153,-5.515921593,41.90839386,65.03138733,0
34:30.6,-0.0665,-0.418,-0.394,0.632528925,0.897308475,15.23463078,97670.05005,-23000,-121000,-516500,41.115,0,6.259999752,-303.2406006,3.39522481,153,-5.515921593,41.90839386,65.03138733,0
34:30.6,-0.099,-0.433,-0.38,0.5687857,0.8433719,15.81812645,97671.57593,-29000,-117000,-523000,41.11,0,6.259999752,-303.2406006,3.39522481,153,-5.515921593,41.90839386,65.03138733,0
34:30.7,-0.0505,-0.4405,-0.353,0.57859235,0.789435325,16.02896943,97673.99903,-34000,-115500,-526000,41.11,0,6.259999752,-303.2406006,3.39522481,153,-5.515921593,41.90839386,65.03138733,0
34:30.7,-0.002,-0.448,-0.326,0.588399,0.73549875,16.2398124,97676.42212,-39000,-114000,-529000,41.11,0,6.349999905,-303.2406006,4.018610477,154,-5.515921593,41.90839386,65.03138733,0
34:30.8,-0.095666667,-0.436666667,-0.303333333,0.634163367,0.817220833,16.88378242,97676.53605,-47333.33333,-113666.6667,-530333.3333,41.11,0,6.349999905,-303.2406006,4.018610477,154,-5.515921593,41.90839386,65.03138733,0
34:30.8,-0.189333333,-0.425333333,-0.280666667,0.679927733,0.898942917,17.52775243,97676.64999,-55666.66667,-113333.3333,-531666.6667,41.11,0,6.379999876,-309.6316376,4.263511896,154,-5.515921593,41.90839386,65.03138733,0
34:30.8,-0.283,-0.414,-0.258,0.7256921,0.980665,18.17172245,97676.76392,-64000,-113000,-533000,41.11,0,6.409999847,-316.0226746,4.508413315,154,-5.515921593,41.90839386,65.03138733,0
34:30.9,-0.254333333,-0.391666667,-0.258,0.6276256,0.954513933,17.53755908,97676.57064,-71666.66667,-111000,-529666.6667,41.11,0,6.419999917,-326.854065,4.645706495,154,-5.515921593,41.90839386,65.03138733,0
34:30.9,-0.225666667,-0.369333333,-0.258,0.5295591,0.928362867,16.90339572,97676.37736,-79333.33333,-109000,-526333.3333,41.11,0,6.429999987,-337.6854553,4.782999674,154,-5.515921593,41.90839386,65.03138733,0
34:31.0,-0.197,-0.347,-0.258,0.4314926,0.9022118,16.26923235,97676.18408,-87000,-107000,-523000,41.11,0,6.440000057,-348.5168457,4.920292854,154,-5.515921593,41.90839386,65.03138733,0
34:31.0,-0.166,-0.368,-0.2245,0.387362675,0.8629852,14.85707475,97674.78943,-95000,-102000,-524500,41.105,0,6.420000076,-348.5168457,5.209722042,155,-2.726886272,38.07299805,77.56490326,0
34:31.0,-0.135,-0.389,-0.191,0.34323275,0.8237586,13.44491715,97673.39478,-103000,-97000,-526000,41.1,0,6.420000076,-348.5168457,5.209722042,155,-2.726886272,38.07299805,77.56490326,0
34:31.1,-0.2195,-0.3655,-0.209,0.289296175,0.809048625,13.76363328,97675.10376,-110500,-95000,-530000,41.1,0,6.389999866,-348.8615112,5.421227932,155,-2.726886272,38.07299805,77.56490326,0
34:31.1,-0.304,-0.342,-0.227,0.2353596,0.79433865,14.0823494,97676.81274,-118000,-93000,-534000,41.1,0,6.389999866,-348.8615112,5.421227932,155,-2.726886272,38.07299805,77.56490326,0
