time,field.angular_velocity.x,field.angular_velocity.y,field.angular_velocity.z,field.linear_acceleration.x,field.linear_acceleration.y,field.linear_acceleration.z,field.magnetic_field.x,field.magnetic_field.y,field.magnetic_field.z,field.fluid_pressure,field.temperature,field.alt_error,field.aspd_error,field.xtrack_error,field.wp_dist,field.measured.pitch,field.measured.roll,field.measured.yaw,fault_state,field.airspeed
18:07.0,0.707,-0.187,-0.23,-0.6276256,1.0198916,14.68055505,509000,-409000,-272000,98397.79663,32.64,0.930000007,-527.7538452,-34.46241379,6,-6.275187016,-2.169070482,-75.69083405,0,0
18:07.0,0.7655,-0.19,-0.2345,-0.701175475,0.93163175,13.94015298,441000,-385000,-298000,98398.19031,32.64,0.930000007,-527.7538452,-34.46241379,6,-6.275187016,-2.169070482,-75.69083405,0,0
18:07.1,0.824,-0.193,-0.239,-0.77472535,0.8433719,13.1997509,373000,-361000,-324000,98398.58398,32.64,1.090000033,-527.7538452,-32.7443428,8,-6.275187016,-2.169070482,-75.69083405,0,0
18:07.1,0.788666667,-0.213666667,-0.228666667,-0.712616567,0.77472535,13.50375705,398333.3333,-390333.3333,-305333.3333,98397.40193,32.64,1.090000033,-527.7538452,-32.7443428,8,-3.292975903,8.510416985,-72.92127991,0,0
18:07.2,0.753333333,-0.234333333,-0.218333333,-0.650507783,0.7060788,13.8077632,423666.6667,-419666.6667,-286666.6667,98396.21989,32.64,1.209999919,-556.9820557,-414.0871582,10,-3.292975903,8.510416985,-72.92127991,0,0
18:07.2,0.718,-0.255,-0.208,-0.588399,0.63743225,14.11176935,449000,-449000,-268000,98395.03784,32.64,1.209999919,-556.9820557,-414.0871582,10,-3.292975903,8.510416985,-72.92127991,0,0
18:07.2,0.76,-0.237,-0.2085,-0.38245935,0.612915625,14.37164558,510000,-527000,-223500,98398.80676,32.635,1.209999919,-556.9820557,-414.0871582,10,-3.292975903,8.510416985,-72.92127991,0,0
18:07.3,0.802,-0.219,-0.209,-0.1765197,0.588399,14.6315218,571000,-605000,-179000,98402.57568,32.63,1.299999952,-456.9820557,-412.3880005,12,-3.292975903,8.510416985,-72.92127991,0,0
18:07.3,0.901,-0.2015,-0.214,-0.12748645,0.4314926,14.24415913,588500,-623500,-161500,98404.54102,32.63,1.309999943,-455.6547776,-411.9738007,12.25,-3.292975903,8.510416985,-72.92127991,0,0
18:07.4,1,-0.184,-0.219,-0.0784532,0.2745862,13.85679645,606000,-642000,-144000,98406.50635,32.63,1.319999933,-454.3274994,-411.5596009,12.5,-3.292975903,8.510416985,-72.92127991,0,0
18:07.4,0.875,-0.202333333,-0.183333333,-0.094797617,0.2549729,14.40269997,572333.3333,-630666.6667,-152000,98403.42611,32.62666667,1.329999924,-453.0002213,-411.145401,12.75,-3.292975903,8.510416985,-72.92127991,0,0
18:07.4,0.75,-0.220666667,-0.147666667,-0.111142033,0.2353596,14.94860348,538666.6667,-619333.3333,-160000,98400.34587,32.62333333,1.339999914,-451.6729431,-410.7312012,13,-3.292975903,8.510416985,-72.92127991,0,0
18:07.5,0.625,-0.239,-0.112,-0.12748645,0.2157463,15.494507,505000,-608000,-168000,98397.26563,32.62,1.339999914,-451.6729431,-410.1901957,13.66666667,-2.231311369,14.42330424,-71.15773519,0,0
18:07.5,0.494,-0.2115,-0.0845,-0.112776475,0.1569064,14.85707475,472000,-589500,-179500,98399.71619,32.62,1.339999914,-451.6729431,-409.6491903,14.33333333,-1.169646834,20.3361915,-69.39419047,0,0
18:07.6,0.363,-0.184,-0.057,-0.0980665,0.0980665,14.2196425,439000,-571000,-191000,98402.16675,32.62,1.339999914,-451.6729431,-409.1081848,15,-0.1079823,26.24907875,-67.63064575,0,0
18:07.6,0.345,-0.161666667,-0.046666667,-0.26477955,0.169981933,12.98073572,423333.3333,-563666.6667,-191000,98402.06096,32.62,1.319999933,-449.6035614,-408.305069,16,-0.1079823,26.24907875,-67.63064575,0,0
18:07.6,0.327,-0.139333333,-0.036333333,-0.4314926,0.241897367,11.74182893,407666.6667,-556333.3333,-191000,98401.95516,32.62,1.299999952,-447.5341797,-407.5019531,17,-0.1079823,26.24907875,-67.63064575,0,0
18:07.7,0.309,-0.117,-0.026,-0.59820565,0.3138128,10.50292215,392000,-549000,-191000,98401.84937,32.62,1.24000001,-447.5341797,-405.929657,18,-0.1079823,26.24907875,-67.63064575,0,0
18:07.7,0.3735,-0.0825,-0.0705,-0.563882375,0.46091255,8.193456075,369000,-545500,-195500,98400.2472,32.615,1.24000001,-447.5341797,-405.929657,18,-0.1079823,26.24907875,-67.63064575,0,0
18:07.8,0.438,-0.048,-0.115,-0.5295591,0.6080123,5.88399,346000,-542000,-200000,98398.64502,32.61,1.24000001,-447.5341797,-405.929657,18,-0.1079823,26.24907875,-67.63064575,0,0
18:07.8,0.266,-0.06,-0.145666667,-0.621087833,0.75511205,6.779664033,335000,-538666.6667,-200666.6667,98398.37647,32.61,1.179999948,-432.4277954,-404.3911743,20,-0.1079823,26.24907875,-67.63064575,0,0
18:07.8,0.094,-0.072,-0.176333333,-0.712616567,0.9022118,7.675338067,324000,-535333.3333,-201333.3333,98398.10791,32.61,1.149999976,-432.4277954,-402.8778992,22,-0.1079823,26.24907875,-67.63064575,0,0
18:07.9,-0.078,-0.084,-0.207,-0.8041453,1.04931155,8.5710121,313000,-532000,-202000,98397.83936,32.61,1.149999976,-432.4277954,-402.8778992,22,1.210835814,36.15477753,-64.61774445,0,0
18:07.9,-0.025,-0.0525,-0.239,-0.779628675,0.75511205,8.62004535,303000,-518500,-209000,98394.90357,32.605,1.157499969,-426.8550949,-402.5059662,22.25,1.210835814,36.15477753,-64.61774445,0,0
18:08.0,0.028,-0.021,-0.271,-0.75511205,0.46091255,8.6690786,293000,-505000,-216000,98391.96777,32.6,1.164999962,-421.2823944,-402.1340332,22.5,1.210835814,36.15477753,-64.61774445,0,0
18:08.0,0.132666667,-0.029,-0.269333333,-0.77472535,0.467450317,8.9240515,287000,-497666.6667,-220666.6667,98391.02173,32.6,1.202499986,-415.7096939,-401.0351105,23.75,1.210835814,36.15477753,-64.61774445,0,0
18:08.0,0.237333333,-0.037,-0.267666667,-0.79433865,0.473988083,9.1790244,281000,-490333.3333,-225333.3333,98390.07568,32.6,1.24000001,-410.1369934,-399.9361877,25,1.210835814,36.15477753,-64.61774445,0,0
18:08.1,0.342,-0.045,-0.266,-0.81395195,0.48052585,9.4339973,275000,-483000,-230000,98389.12964,32.6,1.24000001,-410.1369934,-399.9361877,25,1.210835814,36.15477753,-64.61774445,0,0
18:08.1,0.301,-0.042,-0.253333333,-0.9022118,0.447837017,9.24767095,270666.6667,-477333.3333,-232000,98389.72982,32.59666667,1.289999962,-397.5452423,-399.2218933,26,1.210835814,36.15477753,-64.61774445,0,0
18:08.2,0.26,-0.039,-0.240666667,-0.99047165,0.415148183,9.0613446,266333.3333,-471666.6667,-234000,98390.33,32.59333333,1.339999914,-384.9534912,-398.5075989,27,1.210835814,36.15477753,-64.61774445,0,0
18:08.2,0.219,-0.036,-0.228,-1.0787315,0.38245935,8.87501825,262000,-466000,-236000,98390.93018,32.59,1.339999914,-384.9534912,-398.5075989,27,1.210835814,36.15477753,-64.61774445,0,0
18:08.2,0.1445,-0.0385,-0.2305,-1.04931155,0.44129925,9.8262633,254000,-464000,-235000,98390.58838,32.59,1.339999914,-384.9534912,-398.5075989,27,1.210835814,36.15477753,-64.61774445,0,0
18:08.3,0.07,-0.041,-0.233,-1.0198916,0.50013915,10.77750835,246000,-462000,-234000,98390.24658,32.59,1.449999928,-384.9534912,-397.1212769,28,-1.473524451,39.98037338,-60.35886002,0,0
18:08.3,0.008,-0.038666667,-0.223666667,-1.016622717,0.487063617,11.4345539,242333.3333,-462333.3333,-233666.6667,98390.77555,32.59,1.449999928,-384.9534912,-397.1212769,28,-1.473524451,39.98037338,-60.35886002,0,0
18:08.4,-0.054,-0.036333333,-0.214333333,-1.013353833,0.473988083,12.09159945,238666.6667,-462666.6667,-233333.3333,98391.30453,32.59,1.589999914,-362.5600891,-395.7686157,30,-1.473524451,39.98037338,-60.35886002,0,0
18:08.4,-0.116,-0.034,-0.205,-1.01008495,0.46091255,12.748645,235000,-463000,-233000,98391.8335,32.59,1.589999914,-362.5600891,-395.7686157,30,-1.473524451,39.98037338,-60.35886002,0,0
18:08.4,-0.172,-0.0085,-0.202,-1.1179581,0.55897905,11.62088025,234500,-457000,-239500,98392.53235,32.59,1.589999914,-362.5600891,-395.7686157,30,-1.473524451,39.98037338,-60.35886002,0,0
18:08.5,-0.228,0.017,-0.199,-1.22583125,0.65704555,10.4931155,234000,-451000,-246000,98393.2312,32.59,1.730000019,-362.5600891,-394.4668579,32,-1.473524451,39.98037338,-60.35886002,0,0
18:08.5,-0.279333333,0.031,-0.216333333,-1.2356379,0.630894483,10.31332692,231666.6667,-446000,-250000,98393.75,32.58666667,1.870000005,-362.2909546,-393.198761,33,-1.473524451,39.98037338,-60.35886002,0,0
18:08.6,-0.330666667,0.045,-0.233666667,-1.24544455,0.604743417,10.13353833,229333.3333,-441000,-254000,98394.2688,32.58333333,1.870000005,-362.2909546,-393.198761,33,-1.473524451,39.98037338,-60.35886002,0,0
18:08.6,-0.382,0.059,-0.251,-1.2552512,0.57859235,9.95374975,227000,-436000,-258000,98394.7876,32.58,1.870000005,-362.2909546,-393.198761,33,-1.473524451,39.98037338,-60.35886002,0,0
18:08.6,-0.409,0.059,-0.2565,-1.34351105,0.544269075,9.69877685,224000,-419500,-267500,98395.79468,32.58,1.870000005,-362.2909546,-393.198761,33,-4.704349518,36.53031921,-56.71215057,0,0
18:08.7,-0.436,0.059,-0.262,-1.4317709,0.5099458,9.44380395,221000,-403000,-277000,98396.80176,32.58,2.029999971,-362.2909546,-391.973053,35,-4.704349518,36.53031921,-56.71215057,0,0
18:08.7,-0.475333333,0.066333333,-0.265666667,-1.415426483,0.679927733,9.371888517,218666.6667,-394333.3333,-286000,98396.84652,32.57666667,2.029999971,-362.2909546,-391.973053,35,-4.704349518,36.53031921,-56.71215057,0,0
18:08.8,-0.514666667,0.073666667,-0.269333333,-1.399082067,0.849909667,9.299973083,216333.3333,-385666.6667,-295000,98396.89128,32.57333333,2.11500001,-357.1955719,-391.3771057,35.5,-4.704349518,36.53031921,-56.71215057,0,0
18:08.8,-0.554,0.081,-0.273,-1.38273765,1.0198916,9.22805765,214000,-377000,-304000,98396.93604,32.57,2.200000048,-352.1001892,-390.7811584,36,-4.704349518,36.53031921,-56.71215057,0,0
18:08.8,-0.595,0.092,-0.265,-1.44157755,0.985568325,8.5121722,211000,-354500,-318000,98398.37037,32.57,2.200000048,-352.1001892,-390.7811584,36,-4.704349518,36.53031921,-56.71215057,0,0
18:08.9,-0.636,0.103,-0.257,-1.50041745,0.95124505,7.79628675,208000,-332000,-332000,98399.80469,32.57,2.389999866,-352.1001892,-389.6229553,38,-4.704349518,36.53031921,-56.71215057,0,0
18:08.9,-0.59,0.112,-0.2415,-1.573967325,0.79433865,6.869558325,206000,-314500,-344000,98401.17798,32.57,2.389999866,-352.1001892,-389.6229553,38,-4.704349518,36.53031921,-56.71215057,0,0
18:09.0,-0.544,0.121,-0.226,-1.6475172,0.63743225,5.9428299,204000,-297000,-356000,98402.55127,32.57,2.389999866,-352.1001892,-389.6229553,38,-4.704349518,36.53031921,-56.71215057,0,0
18:09.0,-0.529,0.121,-0.218,-1.71616375,0.4511059,6.080123,207000,-288500,-360000,98403.50342,32.5675,2.609999895,-339.6833496,-388.481781,39,-4.704349518,36.53031921,-56.71215057,0,0
18:09.0,-0.514,0.121,-0.21,-1.7848103,0.26477955,6.2174161,210000,-280000,-364000,98404.45557,32.565,2.609999895,-339.6833496,-388.481781,39,-9.605287552,24.71565437,-53.08067322,0,0
18:09.1,-0.499,0.121,-0.202,-1.85345685,0.0784532,6.3547092,213000,-271500,-368000,98405.40771,32.5625,2.859999895,-339.6833496,-387.3658447,41,-9.605287552,24.71565437,-53.08067322,0,0
18:09.1,-0.484,0.121,-0.194,-1.9221034,-0.10787315,6.4920023,216000,-263000,-372000,98406.35986,32.56,3.004999876,-337.7241211,-386.8121643,42,-9.605287552,24.71565437,-53.08067322,0,0
18:09.2,-0.464,0.097,-0.19,-1.6671305,0.8825985,6.34490255,225000,-239000,-382000,98409.40552,32.56,3.149999857,-335.7648926,-386.2584839,43,-9.605287552,24.71565437,-53.08067322,0,0
18:09.2,-0.4596,0.108,-0.1894,-1.66516917,0.87279185,6.29194664,224800,-235600,-384400,98409.89746,32.558,3.149999857,-335.7648926,-386.2584839,43,-9.605287552,24.71565437,-53.08067322,0,0
18:09.2,-0.4552,0.119,-0.1888,-1.66320784,0.8629852,6.23899073,224600,-232200,-386800,98410.3894,32.556,3.149999857,-335.7648926,-386.2584839,43,-9.605287552,24.71565437,-53.08067322,0,0
18:09.3,-0.4508,0.13,-0.1882,-1.66124651,0.85317855,6.18603482,224400,-228800,-389200,98410.88135,32.554,3.319999934,-335.7648926,-385.7131806,43.5,-9.605287552,24.71565437,-53.08067322,0,0
18:09.3,-0.4464,0.141,-0.1876,-1.65928518,0.8433719,6.13307891,224200,-225400,-391600,98411.37329,32.552,3.49000001,-335.7648926,-385.1678772,44,-9.605287552,24.71565437,-53.08067322,0,0
18:09.4,-0.442,0.152,-0.187,-1.65732385,0.83356525,6.080123,224000,-222000,-394000,98411.86523,32.55,3.859999895,-311.8263245,-384.0774231,46,-9.605287552,24.71565437,-53.08067322,0,0
18:09.4,-0.458,0.128,-0.18,-1.8240369,0.44129925,6.5116156,239000,-196000,-402000,98415.52734,32.55,3.859999895,-311.8263245,-384.0774231,46,-11.72122717,19.37960005,-51.53289605,0,0
18:09.4,-0.432,0.129,-0.175,-1.8044236,0.436395925,6.46258235,239000,-187500,-405500,98417.59338,32.545,3.859999895,-311.8263245,-384.0774231,46,-13.83716679,14.04354572,-49.98511887,0,0
18:09.5,-0.406,0.13,-0.17,-1.7848103,0.4314926,6.4135491,239000,-179000,-409000,98419.65942,32.54,4.269999981,-311.8263245,-383.0038757,47,-13.83716679,14.04354572,-49.98511887,0,0
18:09.5,-0.399,0.1335,-0.1625,-1.799520275,0.465815875,6.271352675,243000,-169500,-410500,98421.41419,32.54,4.379999995,-310.1178666,-382.7375564,47.5,-13.83716679,14.04354572,-49.98511887,0,0
18:09.6,-0.392,0.137,-0.155,-1.81423025,0.50013915,6.12915625,247000,-160000,-412000,98423.16895,32.54,4.49000001,-308.4094086,-382.4712372,48,-13.83716679,14.04354572,-49.98511887,0,0
18:09.6,-0.385,0.133,-0.15075,-1.819133575,0.44129925,6.026186425,250250,-157250,-412000,98425.53101,32.54,4.600000024,-306.7009507,-382.2049179,48.5,-13.83716679,14.04354572,-49.98511887,0,0
18:09.6,-0.378,0.129,-0.1465,-1.8240369,0.38245935,5.9232166,253500,-154500,-412000,98427.89307,32.54,4.710000038,-304.9924927,-381.9385986,49,-13.83716679,14.04354572,-49.98511887,0,0
18:09.7,-0.371,0.125,-0.14225,-1.828940225,0.32361945,5.820246775,256750,-151750,-412000,98430.25513,32.54,5.190000057,-304.9924927,-380.8735352,50,-13.83716679,14.04354572,-49.98511887,0,0
18:09.7,-0.364,0.121,-0.138,-1.83384355,0.26477955,5.71727695,260000,-149000,-412000,98432.61719,32.54,5.190000057,-304.9924927,-380.8735352,50,-13.83716679,14.04354572,-49.98511887,0,0
18:09.8,-0.3325,0.144,-0.131,-1.9024901,0.191229675,5.369140875,265000,-140500,-413000,98435.28138,32.535,5.444999933,-302.0622254,-380.3409119,51,-14.83041072,11.92551183,-49.3035574,0,0
18:09.8,-0.301,0.167,-0.124,-1.97113665,0.1176798,5.0210048,270000,-132000,-414000,98437.94556,32.53,5.699999809,-299.131958,-379.8082886,52,-15.82365466,9.80747795,-48.62199593,0,0
18:09.8,-0.202,0.139,-0.0855,-1.917200075,0.171616375,5.61921045,269000,-122500,-416000,98441.03394,32.53,5.699999809,-299.131958,-379.8082886,52,-17.81014252,5.571410179,-47.25887299,0,0
18:09.9,-0.103,0.111,-0.047,-1.8632635,0.22555295,6.2174161,268000,-113000,-418000,98444.12231,32.53,6.083333174,-297.9108785,-379.1066386,53,-17.81014252,5.571410179,-47.25887299,0,0
18:09.9,-0.048,0.111,-0.026,-1.907393425,0.142196425,7.085304625,274000,-109000,-416500,98446.71326,32.525,6.46666654,-296.689799,-378.4049886,54,-17.81014252,5.571410179,-47.25887299,0,0
18:10.0,0.007,0.111,-0.005,-1.95152335,0.0588399,7.95319315,280000,-105000,-415000,98449.3042,32.52,6.849999905,-295.4687195,-377.7033386,55,-17.81014252,5.571410179,-47.25887299,0,0
18:10.0,0.02975,0.10975,-0.005,-1.929458388,0.196133,7.808545062,281500,-104500,-414500,98451.24054,32.52,6.849999905,-295.4687195,-377.7033386,55,-17.81014252,5.571410179,-47.25887299,0,0
18:10.0,0.0525,0.1085,-0.005,-1.907393425,0.3334261,7.663896975,283000,-104000,-414000,98453.17688,32.52,7.004999876,-295.4687195,-377.4391785,55.25,-17.81014252,5.571410179,-47.25887299,0,0
18:10.1,0.07525,0.10725,-0.005,-1.885328463,0.4707192,7.519248888,284500,-103500,-413500,98455.11322,32.52,7.159999848,-295.4687195,-377.1750183,55.5,-17.81014252,5.571410179,-47.25887299,0,0
18:10.1,0.098,0.106,-0.005,-1.8632635,0.6080123,7.3746008,286000,-103000,-413000,98457.04956,32.52,7.46999979,-295.4687195,-376.646698,56,-17.81014252,5.571410179,-47.25887299,0,0
18:10.2,0.0705,0.1085,-0.008,-1.917200075,0.63743225,7.487377275,287500,-105000,-410500,98461.65161,32.52,8.109999657,-297.7384644,-375.5900574,58,-20.2623291,5.659663677,-46.97811127,0,0
18:10.2,0.043,0.111,-0.011,-1.97113665,0.6668522,7.60015375,289000,-107000,-408000,98466.25366,32.52,8.109999657,-297.7384644,-375.5900574,58,-20.2623291,5.659663677,-46.97811127,0,0
18:10.2,-0.111,0.0885,-0.0085,-2.025073225,0.5491724,8.3748791,290500,-106500,-406500,98469.95239,32.515,8.109999657,-297.7384644,-375.5900574,58,-20.2623291,5.659663677,-46.97811127,0,0
18:10.3,-0.265,0.066,-0.006,-2.0790098,0.4314926,9.14960445,292000,-106000,-405000,98473.65112,32.51,8.769999504,-297.7384644,-374.5247803,59,-20.2623291,5.659663677,-46.97811127,0,0
18:10.3,-0.2565,0.082,-0.0155,-2.0593965,0.612915625,8.87501825,290000,-105000,-405500,98476.34277,32.51,9.104999542,-302.4828949,-373.9922333,60,-20.2623291,5.659663677,-46.97811127,0,0
18:10.4,-0.248,0.098,-0.025,-2.0397832,0.79433865,8.60043205,288000,-104000,-406000,98479.03442,32.51,9.43999958,-307.2273254,-373.4596863,61,-20.2623291,5.659663677,-46.97811127,0,0
18:10.4,-0.255,0.101333333,-0.041666667,-2.052858733,0.722423217,8.057797417,290000,-100333.3333,-406333.3333,98482.34049,32.50666667,9.43999958,-307.2273254,-373.4596863,61,-20.2623291,5.659663677,-46.97811127,0,0
18:10.4,-0.262,0.104666667,-0.058333333,-2.065934267,0.650507783,7.515162783,292000,-96666.66667,-406666.6667,98485.64657,32.50333333,9.43999958,-307.2273254,-373.4596863,61,-20.2623291,5.659663677,-46.97811127,0,0
18:10.5,-0.269,0.108,-0.075,-2.0790098,0.57859235,6.97252815,294000,-93000,-407000,98488.95264,32.5,10.11999989,-307.2273254,-372.3775024,63,-21.76047516,2.59400177,-46.82706451,0,0
18:10.5,-0.257333333,0.090333333,-0.071666667,-2.160731883,0.392266,7.495549483,299333.3333,-88000,-405666.6667,98492.03898,32.5,10.11999989,-307.2273254,-372.3775024,63,-21.76047516,2.59400177,-46.82706451,0,0
18:10.6,-0.245666667,0.072666667,-0.068333333,-2.242453967,0.20593965,8.018570817,304666.6667,-83000,-404333.3333,98495.12533,32.5,10.11999989,-307.2273254,-372.3775024,63,-21.76047516,2.59400177,-46.82706451,0,0
18:10.6,-0.234,0.055,-0.065,-2.32417605,0.0196133,8.54159215,310000,-78000,-403000,98498.21167,32.5,10.80999947,-331.7094727,-371.2870483,64,-21.76047516,2.59400177,-46.82706451,0,0
18:10.6,-0.18,0.0385,-0.066,-2.309466075,-0.0784532,8.360169125,307000,-73500,-404000,98501.33972,32.5,10.80999947,-331.7094727,-371.2870483,64,-21.76047516,2.59400177,-46.82706451,0,0
18:10.7,-0.126,0.022,-0.067,-2.2947561,-0.1765197,8.1787461,304000,-69000,-405000,98504.46777,32.5,11.5199995,-331.7094727,-370.1881409,66,-21.76047516,2.59400177,-46.82706451,0,0
18:10.7,-0.079666667,0.018333333,-0.056666667,-2.330713817,-0.232090717,8.2179727,304666.6667,-67333.33333,-405333.3333,98508.83992,32.49666667,11.70249963,-335.8808442,-369.9091416,66.25,-21.76047516,2.59400177,-46.82706451,0,0
18:10.8,-0.033333333,0.014666667,-0.046333333,-2.366671533,-0.287661733,8.2571993,305333.3333,-65666.66667,-405666.6667,98513.21208,32.49333333,11.88499975,-340.0522156,-369.6301423,66.5,-21.76047516,2.59400177,-46.82706451,0,0
18:10.8,0.013,0.011,-0.036,-2.40262925,-0.34323275,8.2964259,306000,-64000,-406000,98517.58423,32.49,12.06749988,-344.2235871,-369.3511429,66.75,-21.76047516,2.59400177,-46.82706451,0,0
18:10.8,0.022333333,0.005666667,-0.009,-2.3928226,-0.22555295,8.3356525,305000,-64666.66667,-405666.6667,98519.70418,32.49,12.25,-348.3949585,-369.0721436,67,-21.76047516,2.59400177,-46.82706451,0,0
18:10.9,0.031666667,0.000333333,0.018,-2.38301595,-0.10787315,8.3748791,304000,-65333.33333,-405333.3333,98521.82414,32.49,12.61999989,-348.3949585,-368.5142365,68,-21.76047516,2.59400177,-46.82706451,0,0
18:10.9,0.041,-0.005,0.045,-2.3732093,0.00980665,8.4141057,303000,-66000,-405000,98523.94409,32.49,12.98999977,-348.3949585,-367.9563293,69,-21.76047516,2.59400177,-46.82706451,0,0
18:11.0,-0.022,-0.017,0.055,-2.329079375,0.196133,8.5906254,304500,-71000,-403500,98530.12695,32.485,13.36999989,-357.7093048,-367.3899078,70,-23.2540493,-0.116484717,-45.91992569,0,0
18:11.0,-0.085,-0.029,0.065,-2.28494945,0.38245935,8.7671451,306000,-76000,-402000,98536.30981,32.48,13.75,-367.0236511,-366.8234863,71,-23.2540493,-0.116484717,-45.91992569,0,0
18:11.0,-0.1155,-0.044,0.076,-2.3732093,0.299102825,9.6301303,307000,-77000,-401000,98541.08276,32.48,14.5199995,-367.0236511,-365.6907654,72,-23.2540493,-0.116484717,-45.91992569,0,0
18:11.1,-0.146,-0.059,0.087,-2.46146915,0.2157463,10.4931155,308000,-78000,-400000,98545.85571,32.48,14.77666632,-376.62677,-365.307546,72.66666667,-23.2540493,-0.116484717,-45.91992569,0,0
18:11.1,-0.0645,-0.0795,0.0865,-2.5105024,0.083356525,10.36072573,309000,-78500,-401000,98549.92371,32.48,15.03333314,-386.2298889,-364.9243266,73.33333333,-23.2540493,-0.116484717,-45.91992569,0,0
18:11.2,0.017,-0.1,0.086,-2.55953565,-0.04903325,10.22833595,310000,-79000,-402000,98553.9917,32.48,15.28999996,-395.8330078,-364.5411072,74,-23.2540493,-0.116484717,-45.91992569,0,0
18:11.2,0.001666667,-0.114,0.078333333,-2.503964633,0.317081683,9.626861417,313000,-83333.33333,-400000,98557.66805,32.47666667,15.28999996,-395.8330078,-364.5411072,74,-23.2540493,-0.116484717,-45.91992569,0,0
18:11.2,-0.013666667,-0.128,0.070666667,-2.448393617,0.683196617,9.025386883,316000,-87666.66667,-398000,98561.3444,32.47333333,15.28999996,-395.8330078,-364.5411072,74,-23.2540493,-0.116484717,-45.91992569,0,0
18:11.3,-0.029,-0.142,0.063,-2.3928226,1.04931155,8.42391235,319000,-92000,-396000,98565.02075,32.47,16.05999947,-395.8330078,-363.3661499,76,-23.2540493,-0.116484717,-45.91992569,0,0
18:11.3,-0.073,-0.156,0.0405,-2.436952525,0.612915625,8.85540495,328000,-101500,-392500,98569.76319,32.47,16.05999947,-395.8330078,-363.3661499,76,-21.81090546,-0.172915787,-48.07232666,0,0
18:11.4,-0.117,-0.17,0.018,-2.48108245,0.1765197,9.28689755,337000,-111000,-389000,98574.50562,32.47,16.82999992,-413.8566895,-362.1826782,77,-21.81090546,-0.172915787,-48.07232666,0,0
18:11.4,-0.175666667,-0.181,-0.021333333,-2.425511433,0.104604267,10.13026945,342000,-115333.3333,-387000,98577.87883,32.47,16.82999992,-413.8566895,-362.1826782,77,-21.81090546,-0.172915787,-48.07232666,0,0
18:11.4,-0.234333333,-0.192,-0.060666667,-2.369940417,0.032688833,10.97364135,347000,-119666.6667,-385000,98581.25203,32.47,16.82999992,-413.8566895,-362.1826782,77,-21.81090546,-0.172915787,-48.07232666,0,0
18:11.5,-0.293,-0.203,-0.1,-2.3143694,-0.0392266,11.81701325,352000,-124000,-383000,98584.62524,32.47,17.21999931,-413.8566895,-361.5866089,78,-21.81090546,-0.172915787,-48.07232666,0,0
18:11.5,-0.1465,-0.234,-0.099,-2.14765635,0.014709975,12.55741533,369500,-127500,-376500,98589.57825,32.465,17.6099987,-413.8566895,-360.9905396,79,-21.81090546,-0.172915787,-48.07232666,0,0
18:11.6,0,-0.265,-0.098,-1.9809433,0.06864655,13.2978174,387000,-131000,-370000,98594.53125,32.46,18.36999893,-425.7589417,-359.7817383,81,-21.81090546,-0.172915787,-48.07232666,0,0
18:11.6,-0.028333333,-0.264,-0.090333333,-1.889414567,-0.10787315,13.68027675,397666.6667,-141666.6667,-365000,98598.56974,32.46,18.36999893,-425.7589417,-359.7817383,81,-19.0158844,-2.606922865,-47.58472061,0,0
18:11.6,-0.056666667,-0.263,-0.082666667,-1.797885833,-0.28439285,14.0627361,408333.3333,-152333.3333,-360000,98602.60824,32.46,18.73499966,-425.7589417,-359.1646271,82,-19.0158844,-2.606922865,-47.58472061,0,0
18:11.7,-0.085,-0.262,-0.075,-1.7063571,-0.46091255,14.44519545,419000,-163000,-355000,98606.64673,32.46,19.10000038,-425.7589417,-358.5475159,83,-19.0158844,-2.606922865,-47.58472061,0,0
18:11.7,0.001,-0.282333333,-0.057666667,-1.634441667,-0.307275033,15.01071227,432000,-170666.6667,-348333.3333,98608.48592,32.45666667,19.10000038,-425.7589417,-358.5475159,83,-19.0158844,-2.606922865,-47.58472061,0,0
18:11.8,0.087,-0.302666667,-0.040333333,-1.562526233,-0.153637517,15.57622908,445000,-178333.3333,-341666.6667,98610.32512,32.45333333,19.78999901,-469.8503418,-357.2879944,84,-19.0158844,-2.606922865,-47.58472061,0,0
18:11.8,0.173,-0.323,-0.023,-1.4906108,1.98E-15,16.1417459,458000,-186000,-335000,98612.16431,32.45,19.78999901,-469.8503418,-357.2879944,84,-19.0158844,-2.606922865,-47.58472061,0,0
18:11.8,0.183,-0.3265,0.012,-1.38273765,-0.024516625,15.68083335,480500,-206000,-325500,98618.23426,32.45,19.78999901,-469.8503418,-357.2879944,84,-19.0158844,-2.606922865,-47.58472061,0,0
18:11.9,0.193,-0.33,0.047,-1.2748645,-0.04903325,15.2199208,503000,-226000,-316000,98624.3042,32.45,20.10499955,-469.8503418,-356.6455536,85,-19.0158844,-2.606922865,-47.58472061,0,0
18:11.9,0.1285,-0.3335,0.0625,-1.1375714,-0.00980665,16.0044528,518500,-253000,-305000,98630.46265,32.45,20.42000008,-469.8503418,-356.0031128,86,-19.0158844,-2.606922865,-47.58472061,0,0
18:12.0,0.064,-0.337,0.078,-1.0002783,0.02941995,16.7889848,534000,-280000,-294000,98636.62109,32.45,20.69999981,-494.5214234,-355.3521424,87,-13.00708294,-0.625249028,-47.30711746,0,0
18:12.0,0.088666667,-0.336333333,0.086333333,-0.8433719,0.094797617,16.92300902,562666.6667,-301666.6667,-282333.3333,98639.63826,32.44666667,20.83999968,-506.8569641,-355.0266571,87.5,-13.00708294,-0.625249028,-47.30711746,0,0
18:12.0,0.113333333,-0.335666667,0.094666667,-0.6864655,0.160175283,17.05703323,591333.3333,-323333.3333,-270666.6667,98642.65544,32.44333333,20.97999954,-519.1925049,-354.7011719,88,-13.00708294,-0.625249028,-47.30711746,0,0
18:12.1,0.138,-0.335,0.103,-0.5295591,0.22555295,17.19105745,620000,-345000,-259000,98645.67261,32.44,21.47999954,-519.1925049,-353.3740234,90,-13.00708294,-0.625249028,-47.30711746,0,0
18:12.1,0.083666667,-0.361666667,0.100333333,-0.483794733,0.2745862,18.07692483,623333.3333,-357333.3333,-252666.6667,98648.11198,32.44,21.47999954,-519.1925049,-353.3740234,90,-13.00708294,-0.625249028,-47.30711746,0,0
18:12.2,0.029333333,-0.388333333,0.097666667,-0.438030367,0.32361945,18.96279222,626666.6667,-369666.6667,-246333.3333,98650.55135,32.44,21.6949997,-544.8630371,-352.7019043,91,-13.00708294,-0.625249028,-47.30711746,0,0
18:12.2,-0.025,-0.415,0.095,-0.392266,0.3726527,19.8486596,630000,-382000,-240000,98652.99072,32.44,21.90999985,-570.5335693,-352.0297852,92,-13.00708294,-0.625249028,-47.30711746,0,0
18:12.2,-0.045666667,-0.390666667,0.091666667,-0.290930617,0.438030367,19.28641167,649666.6667,-408333.3333,-232666.6667,98654.33349,32.43666667,22.23999977,-570.5335693,-350.6688232,94,-13.00708294,-0.625249028,-47.30711746,0,0
18:12.3,-0.066333333,-0.366333333,0.088333333,-0.189595233,0.503408033,18.72416373,669333.3333,-434666.6667,-225333.3333,98655.67627,32.43333333,22.23999977,-570.5335693,-350.6688232,94,-13.00708294,-0.625249028,-47.30711746,0,0
18:12.3,-0.087,-0.342,0.085,-0.08825985,0.5687857,18.1619158,689000,-461000,-218000,98657.01904,32.43,22.23999977,-570.5335693,-350.6688232,94,-13.00708294,-0.625249028,-47.30711746,0,0
18:12.4,-0.0645,-0.3435,0.074,-0.014709975,0.544269075,18.21094905,710500,-472500,-211500,98662.08191,32.43,22.36499977,-591.6178589,-349.9883118,95,-9.466018439,-0.108539134,-48.39310455,0,0
18:12.4,-0.042,-0.345,0.063,0.0588399,0.51975245,18.2599823,732000,-484000,-205000,98667.14478,32.43,22.48999977,-612.7021484,-349.3078003,96,-5.924953938,0.40817076,-49.47909164,0,0
18:12.4,-0.081,-0.329,0.0525,0.14709975,0.593302325,17.97068613,719000,-483000,-200000,98670.4773,32.43,22.48999977,-612.7021484,-349.3078003,96,-5.924953938,0.40817076,-49.47909164,0,0
18:12.5,-0.12,-0.313,0.042,0.2353596,0.6668522,17.68138995,706000,-482000,-195000,98673.80981,32.43,22.65999985,-612.7021484,-347.9046021,98,-5.924953938,0.40817076,-49.47909164,0,0
18:12.5,-0.1195,-0.2985,0.036,0.12748645,0.603108975,17.47054697,709000,-492000,-193500,98670.46509,32.425,22.65999985,-612.7021484,-347.9046021,98,-5.924953938,0.40817076,-49.47909164,0,0
18:12.6,-0.119,-0.284,0.03,0.0196133,0.53936575,17.259704,712000,-502000,-192000,98667.12036,32.42,22.75,-639.3064575,-346.5013733,100,-5.924953938,0.40817076,-49.47909164,0,0
18:12.6,-0.11225,-0.26,0.0135,-0.026968288,0.63743225,15.85490139,700750,-495750,-194750,98667.37366,32.42,22.75,-639.3064575,-346.5013733,100,-5.924953938,0.40817076,-49.47909164,0,0
18:12.6,-0.1055,-0.236,-0.003,-0.073549875,0.73549875,14.45009878,689500,-489500,-197500,98667.62695,32.42,22.76999855,-639.3064575,-345.1148376,102,0.009712849,-0.599573135,-50.71622849,0,0
18:12.7,-0.09875,-0.212,-0.0195,-0.120131463,0.83356525,13.04529616,678250,-483250,-200250,98667.88025,32.42,22.76999855,-639.3064575,-345.1148376,102,0.009712849,-0.599573135,-50.71622849,0,0
18:12.7,-0.092,-0.188,-0.036,-0.16671305,0.93163175,11.64049355,667000,-477000,-203000,98668.13354,32.42,22.76999855,-639.3064575,-345.1148376,102,0.009712849,-0.599573135,-50.71622849,0,0
18:12.8,-0.103,-0.173,-0.108,-0.04903325,0.4707192,10.1204628,685000,-461000,-209000,98673.33984,32.41,22.76999855,-586.8640747,-343.7116394,104,0.009712849,-0.599573135,-50.71622849,0,0
18:12.8,-0.008,-0.193666667,-0.112333333,0,0.483794733,11.49993157,688000,-471000,-203666.6667,98673.62874,32.41,22.76999855,-586.8640747,-343.7116394,104,0.009712849,-0.599573135,-50.71622849,0,0
18:12.8,0.087,-0.214333333,-0.116666667,0.04903325,0.496870267,12.87940033,691000,-481000,-198333.3333,98673.91764,32.41,22.76999855,-586.8640747,-343.0057831,104.5,0.009712849,-0.599573135,-50.71622849,0,0
18:12.9,0.182,-0.235,-0.121,0.0980665,0.5099458,14.2588691,694000,-491000,-193000,98674.20654,32.41,22.76499875,-587.7919413,-342.5366262,105,0.009712849,-0.599573135,-50.71622849,0,0
18:12.9,0.149,-0.222333333,-0.109333333,0.045764367,0.536096867,14.02677838,692333.3333,-494666.6667,-192333.3333,98673.01636,32.41,22.75999896,-588.7198079,-342.0674693,105.5,0.009712849,-0.599573135,-50.71622849,0,0
18:13.0,0.116,-0.209666667,-0.097666667,-0.006537767,0.562247933,13.79468767,690666.6667,-498333.3333,-191666.6667,98671.82617,32.41,22.75499916,-589.6476745,-341.5983124,106,0.009712849,-0.599573135,-50.71622849,0,0
18:13.0,0.083,-0.197,-0.086,-0.0588399,0.588399,13.56259695,689000,-502000,-191000,98670.63599,32.41,22.74749947,-591.0394745,-341.2475052,106.5,0.009712849,-0.599573135,-50.71622849,0,0
18:13.0,0.1445,-0.201,-0.1025,-0.053936575,0.456009225,14.34222563,693000,-498500,-196000,98673.36121,32.41,22.73999977,-592.4312744,-340.896698,107,0.009712849,-0.599573135,-50.71622849,0,0
18:13.1,0.206,-0.205,-0.119,-0.04903325,0.32361945,15.1218543,697000,-495000,-201000,98676.08643,32.41,22.68000031,-592.4312744,-339.4934692,109,4.542001724,1.515784025,-48.73332977,0,0
18:13.1,0.205333333,-0.178,-0.113333333,-0.071915433,0.071915433,13.52663923,699333.3333,-507333.3333,-191666.6667,98673.01839,32.40666667,22.68000031,-592.4312744,-339.4934692,109,4.542001724,1.515784025,-48.73332977,0,0
18:13.2,0.204666667,-0.151,-0.107666667,-0.094797617,-0.179788583,11.93142417,701666.6667,-519666.6667,-182333.3333,98669.95036,32.40333333,22.57999992,-567.1369629,-338.1069336,111,4.542001724,1.515784025,-48.73332977,0,0
18:13.2,0.204,-0.124,-0.102,-0.1176798,-0.4314926,10.3362091,704000,-532000,-173000,98666.88232,32.4,22.57999992,-567.1369629,-338.1069336,111,4.542001724,1.515784025,-48.73332977,0,0
18:13.2,0.2155,-0.144,-0.05,0.044129925,-0.053936575,12.01314625,694500,-525000,-175000,98669.04602,32.4,22.57999992,-567.1369629,-338.1069336,111,4.542001724,1.515784025,-48.73332977,0,0
18:13.3,0.227,-0.164,0.002,0.20593965,0.32361945,13.6900834,685000,-518000,-177000,98671.20972,32.4,22.46999931,-567.1369629,-336.7375183,113,4.542001724,1.515784025,-48.73332977,0,0
18:13.3,0.108333333,-0.171333333,0.022666667,0.22555295,0.38245935,14.10523158,682666.6667,-527333.3333,-178666.6667,98670.94116,32.4,22.46999931,-567.1369629,-336.7375183,113,4.542001724,1.515784025,-48.73332977,0,0
18:13.4,-0.010333333,-0.178666667,0.043333333,0.24516625,0.44129925,14.52037977,680333.3333,-536666.6667,-180333.3333,98670.67261,32.4,22.39999962,-553.8380737,-336.061203,114,4.542001724,1.515784025,-48.73332977,0,0
18:13.4,-0.129,-0.186,0.064,0.26477955,0.50013915,14.93552795,678000,-546000,-182000,98670.40405,32.4,22.32999992,-540.5391846,-335.3848877,115,4.542001724,1.515784025,-48.73332977,0,0
18:13.4,-0.151,-0.1825,0.058,0.22555295,0.622722275,15.21011415,679000,-542500,-183000,98669.30542,32.395,22.32999992,-540.5391846,-335.3848877,115,7.99358654,4.114686489,-48.23232269,0,0
18:13.5,-0.173,-0.179,0.052,0.18632635,0.7453054,15.48470035,680000,-539000,-184000,98668.20679,32.39,22.15999985,-540.5391846,-334.0661926,117,7.99358654,4.114686489,-48.23232269,0,0
18:13.5,-0.055,-0.160333333,0.040666667,0.199401883,0.604743417,15.44220487,672000,-536666.6667,-185333.3333,98666.30453,32.39,22.15999985,-540.5391846,-334.0661926,117,7.99358654,4.114686489,-48.23232269,0,0
18:13.6,0.063,-0.141666667,0.029333333,0.212477417,0.464181433,15.39970938,664000,-534333.3333,-186666.6667,98664.40226,32.39,21.93000031,-501.0913696,-332.7728882,119,7.99358654,4.114686489,-48.23232269,0,0
18:13.6,0.181,-0.123,0.018,0.22555295,0.32361945,15.3572139,656000,-532000,-188000,98662.5,32.39,21.85750008,-501.0913696,-332.4558716,119.25,7.99358654,4.114686489,-48.23232269,0,0
18:13.6,0.126666667,-0.103666667,0.019,0.219015183,0.3334261,14.22944915,645000,-526666.6667,-195666.6667,98662.13175,32.38666667,21.78499985,-501.0913696,-332.138855,119.5,7.99358654,4.114686489,-48.23232269,0,0
18:13.7,0.072333333,-0.084333333,0.02,0.212477417,0.34323275,13.1016844,634000,-521333.3333,-203333.3333,98661.76351,32.38333333,21.71249962,-501.0913696,-331.8218384,119.75,7.99358654,4.114686489,-48.23232269,0,0
18:13.7,0.018,-0.065,0.021,0.20593965,0.3530394,11.97391965,623000,-516000,-211000,98661.39526,32.38,21.63999939,-501.0913696,-331.5048218,120,7.99358654,4.114686489,-48.23232269,0,0
18:13.8,-0.028,-0.053,0.023,0.1569064,0.36284605,11.29235748,616500,-521500,-201500,98659.14307,32.38,21.30999947,-459.4055176,-330.2537842,122,7.99358654,4.114686489,-48.23232269,0,0
18:13.8,-0.074,-0.041,0.025,0.10787315,0.3726527,10.6107953,610000,-527000,-192000,98656.89087,32.38,21.30999947,-459.4055176,-330.2537842,122,8.545536518,4.18949604,-48.4214468,0,0
18:13.8,-0.1285,-0.0315,0.0245,0.1176798,0.40207265,10.30188583,587500,-507000,-207500,98652.20948,32.38,21.30999947,-459.4055176,-330.2537842,122,9.097486495,4.264305592,-48.61057091,0,0
18:13.9,-0.183,-0.022,0.024,0.12748645,0.4314926,9.99297635,565000,-487000,-223000,98647.52808,32.38,20.96999931,-459.4055176,-329.0363159,124,10.20138645,4.413924694,-48.98881912,0,0
18:13.9,-0.1655,0.0035,0.0025,0.142196425,0.416782625,9.340834125,540000,-474000,-236000,98646.0846,32.375,20.80499935,-439.119812,-328.4277039,125,10.20138645,4.413924694,-48.98881912,0,0
18:14.0,-0.148,0.029,-0.019,0.1569064,0.40207265,8.6886919,515000,-461000,-249000,98644.64111,32.37,20.63999939,-418.8341064,-327.8190918,126,10.20138645,4.413924694,-48.98881912,0,0
18:14.0,-0.125666667,0.030666667,-0.024,0.1176798,0.326888333,8.50236555,517000,-447333.3333,-247666.6667,98643.13761,32.36666667,20.63999939,-418.8341064,-327.8190918,126,10.20138645,4.413924694,-48.98881912,0,0
18:14.0,-0.103333333,0.032333333,-0.029,0.0784532,0.251704017,8.3160392,519000,-433666.6667,-246333.3333,98641.63412,32.36333333,20.32999992,-418.8341064,-326.6186523,127,10.20138645,4.413924694,-48.98881912,0,0
18:14.1,-0.081,0.034,-0.034,0.0392266,0.1765197,8.12971285,521000,-420000,-245000,98640.13062,32.36,20.32999992,-418.8341064,-326.6186523,127,10.20138645,4.413924694,-48.98881912,0,0
18:14.1,-0.077,0.0375,-0.037,0.004903325,0.26477955,8.38468575,524000,-438500,-243500,98638.974,32.36,20.32999992,-418.8341064,-326.6186523,127,10.20138645,4.413924694,-48.98881912,0,0
18:14.2,-0.073,0.041,-0.04,-0.02941995,0.3530394,8.63965865,527000,-457000,-242000,98637.81738,32.36,20.32999992,-418.8341064,-326.6186523,127,10.20138645,4.413924694,-48.98881912,0,0
18:14.2,-0.092333333,0.033666667,-0.037333333,-0.02941995,0.317081683,9.035193533,521000,-441000,-248333.3333,98635.96802,32.36,20.03999901,-389.3909302,-325.4267883,129,10.20138645,4.413924694,-48.98881912,0,0
18:14.2,-0.111666667,0.026333333,-0.034666667,-0.02941995,0.281123967,9.430728417,515000,-425000,-254666.6667,98634.11865,32.36,19.90499974,-389.3909302,-324.8307953,130,9.780050754,3.245451808,-48.92808914,0,0
18:14.3,-0.131,0.019,-0.032,-0.02941995,0.24516625,9.8262633,509000,-409000,-261000,98632.26929,32.36,19.77000046,-389.3909302,-324.2348022,131,9.358715057,2.076978922,-48.86735916,0,0
18:14.3,-0.132,0.0245,-0.021,0.0980665,0.308909475,9.801746675,506000,-404500,-272500,98628.59497,32.355,19.77000046,-389.3909302,-324.2348022,131,9.358715057,2.076978922,-48.86735916,0,0
18:14.4,-0.133,0.03,-0.01,0.22555295,0.3726527,9.77723005,503000,-400000,-284000,98624.92065,32.35,19.64000035,-378.5856171,-323.6472626,131.5,9.358715057,2.076978922,-48.86735916,0,0
18:14.4,-0.125,0.032,-0.01,0.16671305,0.36284605,9.535332683,501666.6667,-399000,-281666.6667,98623.85254,32.35,19.51000023,-367.780304,-323.0597229,132,9.358715057,2.076978922,-48.86735916,0,0
18:14.4,-0.117,0.034,-0.01,0.10787315,0.3530394,9.293435317,500333.3333,-398000,-279333.3333,98622.78442,32.35,19.51000023,-367.780304,-323.0597229,132,9.358715057,2.076978922,-48.86735916,0,0
18:14.5,-0.109,0.036,-0.01,0.04903325,0.34323275,9.05153795,499000,-397000,-277000,98621.71631,32.35,19.38000012,-367.780304,-322.4764557,133,9.358715057,2.076978922,-48.86735916,0,0
18:14.5,-0.1095,0.0465,-0.023,0.004903325,0.397169325,8.772048425,488500,-376500,-277000,98618.07556,32.35,19.25,-367.780304,-321.8931885,134,9.358715057,2.076978922,-48.86735916,0,0
18:14.6,-0.11,0.057,-0.036,-0.0392266,0.4511059,8.4925589,478000,-356000,-277000,98614.43481,32.35,19.25,-367.780304,-321.8931885,134,9.358715057,2.076978922,-48.86735916,0,0
18:14.6,-0.0785,0.0655,-0.03475,-0.0196133,0.426589275,8.691143563,470750,-355500,-282750,98613.63678,32.3475,19.11999989,-349.6172944,-321.3098603,135,9.358715057,2.076978922,-48.86735916,0,0
18:14.6,-0.047,0.074,-0.0335,0,0.40207265,8.889728225,463500,-355000,-288500,98612.83875,32.345,18.98999977,-331.4542847,-320.726532,136,9.358715057,2.076978922,-48.86735916,0,0
18:14.7,-0.0155,0.0825,-0.03225,0.0196133,0.377556025,9.088312888,456250,-354500,-294250,98612.04071,32.3425,18.75,-331.4542847,-319.5769043,137,8.237295151,-0.110239998,-48.53657913,0,0
18:14.7,0.016,0.091,-0.031,0.0392266,0.3530394,9.28689755,449000,-354000,-300000,98611.24268,32.34,18.63000012,-317.7470246,-318.9978791,138,8.237295151,-0.110239998,-48.53657913,0,0
18:14.8,0.036,0.034,-0.006,0.12748645,0.10787315,11.18938765,451000,-334000,-302000,98609.7168,32.33,18.51000023,-304.0397644,-318.4188538,139,8.237295151,-0.110239998,-48.53657913,0,0
18:14.8,-0.079,0.0555,0.012,-0.04903325,0.08825985,10.3362091,447500,-342000,-304000,98607.32727,32.33,18.51000023,-304.0397644,-318.4188538,139,8.237295151,-0.110239998,-48.53657913,0,0
18:14.8,-0.194,0.077,0.03,-0.22555295,0.06864655,9.48303055,444000,-350000,-306000,98604.93774,32.33,18.51000023,-304.0397644,-318.4188538,139,8.237295151,-0.110239998,-48.53657913,0,0
18:14.9,-0.110333333,0.080666667,0.041666667,-0.1765197,0.10787315,9.162679983,435000,-342333.3333,-311000,98602.92562,32.33,18.39000035,-304.0397644,-317.8482666,140,8.237295151,-0.110239998,-48.53657913,0,0
18:14.9,-0.026666667,0.084333333,0.053333333,-0.12748645,0.14709975,8.842329417,426000,-334666.6667,-316000,98600.91349,32.33,18.27000046,-304.0397644,-317.2776794,141,8.237295151,-0.110239998,-48.53657913,0,0
18:15.0,0.057,0.088,0.065,-0.0784532,0.18632635,8.52197885,417000,-327000,-321000,98598.90137,32.33,18.27000046,-304.0397644,-317.2776794,141,8.237295151,-0.110239998,-48.53657913,0,0
18:15.0,0.066666667,0.083333333,0.073333333,-0.10787315,0.330157217,8.495827783,426666.6667,-327000,-320000,98597.67253,32.33,18.03999901,-280.8137817,-316.1365356,142,8.237295151,-0.110239998,-48.53657913,0,0
18:15.0,0.076333333,0.078666667,0.081666667,-0.1372931,0.473988083,8.469676717,436333.3333,-327000,-319000,98596.44368,32.33,18.03999901,-280.8137817,-316.1365356,142,6.221010685,-0.796363711,-49.02117538,0,0
18:15.1,0.086,0.074,0.09,-0.16671305,0.61781895,8.44352565,446000,-327000,-318000,98595.21484,32.33,17.80999947,-280.8137817,-315.012085,144,6.221010685,-0.796363711,-49.02117538,0,0
18:15.1,-0.0435,0.0825,0.0685,-0.1765197,0.720788775,8.026743025,430500,-324000,-317000,98594.23523,32.325,17.80999947,-280.8137817,-315.012085,144,6.221010685,-0.796363711,-49.02117538,0,0
18:15.2,-0.173,0.091,0.047,-0.18632635,0.8237586,7.6099604,415000,-321000,-316000,98593.25562,32.32,17.59000015,-257.1149902,-313.879364,145,6.221010685,-0.796363711,-49.02117538,0,0
18:15.2,-0.15475,0.09375,0.0255,-0.2157463,0.75511205,7.117176238,409250,-314750,-320250,98591.95252,32.32,17.59000015,-257.1149902,-313.879364,145,6.221010685,-0.796363711,-49.02117538,0,0
18:15.2,-0.1365,0.0965,0.004,-0.24516625,0.6864655,6.624392075,403500,-308500,-324500,98590.64942,32.32,17.59000015,-257.1149902,-313.879364,145,6.221010685,-0.796363711,-49.02117538,0,0
18:15.3,-0.11825,0.09925,-0.0175,-0.2745862,0.61781895,6.131607913,397750,-302250,-328750,98589.34631,32.32,17.49499989,-257.1149902,-313.3181458,146,6.221010685,-0.796363711,-49.02117538,0,0
18:15.3,-0.1,0.102,-0.039,-0.30400615,0.5491724,5.63882375,392000,-296000,-333000,98588.04321,32.32,17.39999962,-257.1149902,-312.7569275,147,6.221010685,-0.796363711,-49.02117538,0,0
18:15.4,0.0185,0.0985,-0.0635,-0.240262925,0.534462425,6.4527757,404000,-288500,-333500,98589.17236,32.315,17.23999977,-236.0534668,-311.6326294,149,6.221010685,-0.796363711,-49.02117538,0,0
18:15.4,0.137,0.095,-0.088,-0.1765197,0.51975245,7.26672765,416000,-281000,-334000,98590.30151,32.31,17.23999977,-236.0534668,-311.6326294,149,3.893644094,-2.816951036,-49.42263412,0,0
18:15.4,0.056,0.092,-0.101,-0.26477955,0.426589275,7.457957325,407500,-275500,-337500,98587.51221,32.31,17.18499947,-236.0534668,-311.0662232,149.5,3.893644094,-2.816951036,-49.42263412,0,0
18:15.5,-0.025,0.089,-0.114,-0.3530394,0.3334261,7.649187,399000,-270000,-341000,98584.7229,32.31,17.12999916,-236.0534668,-310.4998169,150,3.893644094,-2.816951036,-49.42263412,0,0
18:15.5,0.015,0.091,-0.0995,-0.230456275,0.152003075,7.281437625,405500,-274000,-339500,98583.2428,32.305,17.10749912,-233.7611694,-310.2198868,150.5,3.893644094,-2.816951036,-49.42263412,0,0
18:15.6,0.055,0.093,-0.085,-0.10787315,-0.02941995,6.91368825,412000,-278000,-338000,98581.7627,32.3,17.08499909,-231.4688721,-309.9399567,151,3.893644094,-2.816951036,-49.42263412,0,0
18:15.6,0.098,0.079333333,-0.066666667,-0.084990967,-0.016344417,7.430171817,414333.3333,-276000,-337666.6667,98581.90715,32.3,17.04999924,-229.1765747,-309.376709,151.75,3.893644094,-2.816951036,-49.42263412,0,0
18:15.6,0.141,0.065666667,-0.048333333,-0.062108783,-0.003268883,7.946655383,416666.6667,-274000,-337333.3333,98582.05159,32.3,17.01499939,-226.8842773,-308.8134613,152.5,3.893644094,-2.816951036,-49.42263412,0,0
18:15.7,0.184,0.052,-0.03,-0.0392266,0.00980665,8.46313895,419000,-272000,-337000,98582.19604,32.3,17.00249958,-226.8842773,-308.5301438,152.75,3.893644094,-2.816951036,-49.42263412,0,0
18:15.7,0.16325,0.0525,-0.0155,-0.056388238,-0.044129925,8.244940988,419000,-276250,-337250,98581.89697,32.2975,16.98999977,-226.8842773,-308.2468262,153,3.893644094,-2.816951036,-49.42263412,0,0
18:15.8,0.1425,0.053,-0.001,-0.073549875,-0.0980665,8.026743025,419000,-280500,-337500,98581.5979,32.295,16.96999932,-217.9997482,-307.7280579,154,3.893644094,-2.816951036,-49.42263412,0,0
18:15.8,0.12175,0.0535,0.0135,-0.090711513,-0.152003075,7.808545062,419000,-284750,-337750,98581.29883,32.2925,16.94999886,-209.1152191,-307.2092896,155,3.893644094,-2.816951036,-49.42263412,0,0
18:15.8,0.101,0.054,0.028,-0.10787315,-0.20593965,7.5903471,419000,-289000,-338000,98580.99976,32.29,16.94999886,-209.1152191,-307.2092896,155,3.893644094,-2.816951036,-49.42263412,0,0
18:15.9,0.06,0.037,0.05,-0.08825985,9.64E-16,7.87473995,436000,-291000,-330000,98578.38745,32.29,16.93000031,-209.1152191,-306.089447,156,1.388239264,0.538678885,-48.03119659,0,0
18:15.9,0.008,0.0255,0.0705,-0.014709975,-0.044129925,9.831166625,432500,-296000,-328500,98578.55225,32.29,16.93000031,-209.1152191,-306.089447,156,1.388239264,0.538678885,-48.03119659,0,0
18:16.0,-0.044,0.014,0.091,0.0588399,-0.08825985,11.7875933,429000,-301000,-327000,98578.71704,32.29,16.92000008,-199.6871948,-304.9695435,158,1.388239264,0.538678885,-48.03119659,0,0
18:16.0,-0.027,0.0134,0.108,0.08629852,-0.02941995,11.86408517,431400,-301400,-327200,98578.72192,32.288,16.91499997,-199.6871948,-304.7436142,158.25,1.388239264,0.538678885,-48.03119659,0,0
18:16.0,-0.01,0.0128,0.125,0.11375714,0.02941995,11.94057704,433800,-301800,-327400,98578.72681,32.286,16.90999985,-199.6871948,-304.517685,158.5,1.388239264,0.538678885,-48.03119659,0,0
18:16.1,0.007,0.0122,0.142,0.14121576,0.08825985,12.01706891,436200,-302200,-327600,98578.73169,32.284,16.90499974,-199.6871948,-304.2917557,158.75,1.388239264,0.538678885,-48.03119659,0,0
18:16.1,0.024,0.0116,0.159,0.16867438,0.14709975,12.09356078,438600,-302600,-327800,98578.73658,32.282,16.89999962,-199.6871948,-304.0658264,159,1.388239264,0.538678885,-48.03119659,0,0
18:16.2,0.041,0.011,0.176,0.196133,0.20593965,12.17005265,441000,-303000,-328000,98578.74146,32.28,16.87999916,-195.205307,-303.5055847,160,1.388239264,0.538678885,-48.03119659,0,0
18:16.2,0.055,0.039,0.178,0.196133,0.3530394,11.24822755,461000,-327000,-306000,98576.59302,32.28,16.8599987,-190.7234192,-302.945343,161,1.388239264,0.538678885,-48.03119659,0,0
18:16.2,0.0095,0.0075,0.188,0.18632635,0.652142225,12.30244243,456500,-330000,-313000,98577.80762,32.275,16.8599987,-190.7234192,-302.945343,161,1.388239264,0.538678885,-48.03119659,0,0
18:16.3,-0.036,-0.024,0.198,0.1765197,0.95124505,13.3566573,452000,-333000,-320000,98579.02222,32.27,16.79999924,-190.7234192,-301.8247986,163,1.388239264,0.538678885,-48.03119659,0,0
18:16.3,-0.073,0.003,0.160666667,0.18632635,0.93163175,12.8074849,445333.3333,-326333.3333,-322000,98578.4668,32.27,16.74499989,-187.7118073,-301.3417816,163.5,1.388239264,0.538678885,-48.03119659,0,0
18:16.4,-0.11,0.03,0.123333333,0.196133,0.91201845,12.2583125,438666.6667,-319666.6667,-324000,98577.91138,32.27,16.69000053,-184.7001953,-300.8587646,164,1.388239264,0.538678885,-48.03119659,0,0
18:16.4,-0.147,0.057,0.086,0.20593965,0.89240515,11.7091401,432000,-313000,-326000,98577.35596,32.27,16.65750027,-184.7001953,-300.574768,164.5,0.926169068,0.608218492,-50.30545616,0,0
18:16.4,-0.04,0.0795,0.0535,0.1569064,0.91201845,10.9638347,433000,-316500,-326000,98576.58692,32.27,16.625,-184.7001953,-300.2907715,165,0.464098871,0.677758098,-52.57971573,0,0
18:16.5,0.067,0.102,0.021,0.10787315,0.93163175,10.2185293,434000,-320000,-326000,98575.81787,32.27,16.59249974,-184.7001953,-300.0067749,165.5,0.464098871,0.677758098,-52.57971573,0,0
18:16.5,0.044666667,0.109333333,-0.003666667,0.0588399,0.8629852,9.165948867,425666.6667,-315000,-328333.3333,98574.98983,32.26666667,16.55999947,-184.7001953,-299.7227783,166,0.464098871,0.677758098,-52.57971573,0,0
18:16.6,0.022333333,0.116666667,-0.028333333,0.00980665,0.79433865,8.113368433,417333.3333,-310000,-330666.6667,98574.16178,32.26333333,16.48999978,-185.0258789,-299.3451233,166.5,0.464098871,0.677758098,-52.57971573,0,0
18:16.6,0,0.124,-0.053,-0.0392266,0.7256921,7.060788,409000,-305000,-333000,98573.33374,32.26,16.42000008,-185.3515625,-298.9674683,167,0.464098871,0.677758098,-52.57971573,0,0
18:16.6,0.053,0.1305,-0.0835,0.024516625,0.642335575,6.48219565,418500,-302500,-331500,98571.71021,32.26,16.42000008,-185.3515625,-298.9674683,167,0.464098871,0.677758098,-52.57971573,0,0
18:16.7,0.106,0.137,-0.114,0.08825985,0.55897905,5.9036033,428000,-300000,-330000,98570.08667,32.26,16.29999924,-185.3515625,-297.7939453,169,0.464098871,0.677758098,-52.57971573,0,0
18:16.7,0.178,0.119,-0.125,0.04903325,0.5491724,7.03136805,419500,-298500,-334000,98569.98902,32.26,16.27999926,-186.2550736,-297.5005646,169.25,-0.731498808,1.214894236,-52.36258126,0,0
18:16.8,0.25,0.101,-0.136,0.00980665,0.53936575,8.1591328,411000,-297000,-338000,98569.89136,32.26,16.25999928,-187.1585846,-297.2071839,169.5,-1.927096486,1.752030373,-52.14544678,0,0
18:16.8,0.235333333,0.090666667,-0.142,-0.032688833,0.369383817,8.4925589,410000,-297000,-337666.6667,98570.38981,32.25666667,16.21999931,-188.9656067,-296.6204224,170,-1.927096486,1.752030373,-52.14544678,0,0
18:16.8,0.220666667,0.080333333,-0.148,-0.075184317,0.199401883,8.825985,409000,-297000,-337333.3333,98570.88827,32.25333333,16.18999958,-188.9656067,-296.2015534,171,-1.927096486,1.752030373,-52.14544678,0,0
18:16.9,0.206,0.07,-0.154,-0.1176798,0.02941995,9.1594111,408000,-297000,-337000,98571.38672,32.25,16.15999985,-188.9656067,-295.7826843,172,-1.927096486,1.752030373,-52.14544678,0,0
18:16.9,0.214,0.063333333,-0.126666667,-0.104604267,0.022882183,9.594172583,411666.6667,-299000,-334666.6667,98569.6818,32.25,16.14999962,-189.3338204,-295.4817734,172.25,-1.927096486,1.752030373,-52.14544678,0,0
18:17.0,0.222,0.056666667,-0.099333333,-0.091528733,0.016344417,10.02893407,415333.3333,-301000,-332333.3333,98567.97689,32.25,16.13999939,-189.702034,-295.1808624,172.5,-1.927096486,1.752030373,-52.14544678,0,0
18:17.0,0.23,0.05,-0.072,-0.0784532,0.00980665,10.46369555,419000,-303000,-330000,98566.27197,32.25,16.11999893,-190.4384613,-294.5790405,173,-1.927096486,1.752030373,-52.14544678,0,0
18:17.0,0.187,0.0505,-0.0245,-0.024516625,0.16671305,10.64511858,424500,-311500,-327500,98567.29431,32.245,16.07999992,-190.4384613,-293.3737793,175,-1.927096486,1.752030373,-52.14544678,0,0
18:17.1,0.144,0.051,0.023,0.02941995,0.32361945,10.8265416,430000,-320000,-325000,98568.31665,32.24,16.0716664,-191.729482,-293.1741842,175.1666667,-2.554286957,3.420495987,-51.55724971,0,0
18:17.1,0.036,0.043333333,0.038333333,0.026151067,0.473988083,10.49638438,430666.6667,-322333.3333,-323666.6667,98568.24748,32.24,16.06333287,-193.0205027,-292.974589,175.3333333,-3.181477427,5.088961602,-50.96905263,0,0
18:17.2,-0.072,0.035666667,0.053666667,0.022882183,0.624356717,10.16622717,431333.3333,-324666.6667,-322333.3333,98568.1783,32.24,16.05499935,-194.3115235,-292.7749939,175.5,-3.808667898,6.757427216,-50.38085556,0,0
18:17.2,-0.18,0.028,0.069,0.0196133,0.77472535,9.83606995,432000,-327000,-321000,98568.10913,32.24,16.04249907,-196.2480545,-292.4756012,175.75,-3.808667898,6.757427216,-50.38085556,0,0
18:17.2,-0.343,0.0365,0.072,0.0588399,0.95124505,9.909619825,434500,-330500,-321000,98566.76331,32.235,16.02999878,-198.1845856,-292.1762085,176,-3.808667898,6.757427216,-50.38085556,0,0
18:17.3,-0.506,0.045,0.075,0.0980665,1.12776475,9.9831697,437000,-334000,-321000,98565.41748,32.23,15.97999954,-198.1845856,-290.7717285,178,-3.808667898,6.757427216,-50.38085556,0,0
18:17.3,-0.397,0.083,0.041,0.003268883,1.22583125,9.62032365,432666.6667,-332333.3333,-322000,98565.83659,32.23,15.97999954,-198.1845856,-290.7717285,178,-3.808667898,6.757427216,-50.38085556,0,0
18:17.4,-0.288,0.121,0.007,-0.091528733,1.32389775,9.2574776,428333.3333,-330666.6667,-323000,98566.25569,32.23,15.90999985,-208.5870667,-289.5074158,180,-3.808667898,6.757427216,-50.38085556,0,0
18:17.4,-0.179,0.159,-0.027,-0.18632635,1.42196425,8.89463155,424000,-329000,-324000,98566.6748,32.23,15.90999985,-208.5870667,-289.5074158,180,-4.857271194,3.992366314,-51.48796844,0,0
18:17.4,-0.009,0.1575,-0.1225,-0.1569064,1.1571847,8.2571993,429500,-321500,-323500,98563.9801,32.225,15.88499976,-208.5870667,-288.8668671,180.5,-4.857271194,3.992366314,-51.48796844,0,0
18:17.5,0.161,0.156,-0.218,-0.12748645,0.89240515,7.61976705,435000,-314000,-323000,98561.2854,32.22,15.85999966,-208.5870667,-288.2263184,181,-4.857271194,3.992366314,-51.48796844,0,0
18:17.5,0.1525,0.1335,-0.235,-0.220649625,0.887501825,7.399117425,434500,-304000,-324500,98563.48267,32.22,15.84999967,-212.1168061,-287.7941285,181.5,-4.857271194,3.992366314,-51.48796844,0,0
18:17.6,0.144,0.111,-0.252,-0.3138128,0.8825985,7.1784678,434000,-294000,-326000,98565.67993,32.22,15.83999968,-215.6465455,-287.3619385,182,-4.857271194,3.992366314,-51.48796844,0,0
18:17.6,0.133,0.099666667,-0.264,-0.3530394,0.817220833,6.8842683,436000,-299333.3333,-326333.3333,98565.30762,32.22,15.82999968,-219.1762848,-286.9297486,182.5,-4.857271194,3.992366314,-51.48796844,0,0
18:17.6,0.122,0.088333333,-0.276,-0.392266,0.751843167,6.5900688,438000,-304666.6667,-326666.6667,98564.9353,32.22,15.81999969,-222.7060242,-286.4975586,183,-4.857271194,3.992366314,-51.48796844,0,0
18:17.7,0.111,0.077,-0.288,-0.4314926,0.6864655,6.2958693,440000,-310000,-327000,98564.56299,32.22,15.81999969,-222.7060242,-286.4975586,183,-4.857271194,3.992366314,-51.48796844,0,0
18:17.7,0.076,0.055,-0.296,-0.348136075,0.57859235,6.820525075,445500,-308000,-323000,98565.30457,32.22,15.80999947,-222.7060242,-285.1829224,184,-7.423958778,5.524572372,-48.38166046,0,0
18:17.8,0.041,0.033,-0.304,-0.26477955,0.4707192,7.34518085,451000,-306000,-319000,98566.04614,32.22,15.80999947,-222.7060242,-285.1829224,184,-7.423958778,5.524572372,-48.38166046,0,0
18:17.8,0.127333333,0.014666667,-0.295666667,-0.2549729,0.375921583,7.7080269,452666.6667,-306666.6667,-319333.3333,98565.77148,32.21666667,15.84999943,-227.3101807,-283.1174316,186,-7.423958778,5.524572372,-48.38166046,0,0
18:17.8,0.213666667,-0.003666667,-0.287333333,-0.24516625,0.281123967,8.07087295,454333.3333,-307333.3333,-319666.6667,98565.49683,32.21333333,15.87999964,-227.3101807,-282.4459229,187,-7.423958778,5.524572372,-48.38166046,0,0
18:17.9,0.3,-0.022,-0.279,-0.2353596,0.18632635,8.433719,456000,-308000,-320000,98565.22217,32.21,15.90999985,-227.3101807,-281.7744141,188,-7.423958778,5.524572372,-48.38166046,0,0
18:17.9,0.3335,-0.02,-0.2465,-0.24516625,0.181423025,9.027021325,461500,-306500,-318000,98565.71656,32.21,15.90999985,-227.3101807,-281.7744141,188,-7.423958778,5.524572372,-48.38166046,0,0
18:18.0,0.367,-0.018,-0.214,-0.2549729,0.1765197,9.62032365,467000,-305000,-316000,98566.21094,32.21,16,-232.8603821,-279.353302,189,-7.423958778,5.524572372,-48.38166046,0,0
18:18.0,0.398666667,-0.021666667,-0.195333333,-0.26477955,0.1176798,9.509181617,472666.6667,-312666.6667,-310666.6667,98566.47746,32.20666667,16,-232.8603821,-279.353302,189,-7.423958778,5.524572372,-48.38166046,0,0
18:18.0,0.430333333,-0.025333333,-0.176666667,-0.2745862,0.0588399,9.398039583,478333.3333,-320333.3333,-305333.3333,98566.74398,32.20333333,16,-232.8603821,-279.353302,189,-7.423958778,5.524572372,-48.38166046,0,0
18:18.1,0.462,-0.029,-0.158,-0.28439285,1.14E-15,9.28689755,484000,-328000,-300000,98567.0105,32.2,16.1099987,-232.8603821,-277.9781799,191,-7.423958778,5.524572372,-48.38166046,0,0
18:18.1,0.45,-0.052,-0.125,-0.2745862,0.0784532,9.8654899,488500,-336000,-295000,98567.36451,32.2,16.1099987,-232.8603821,-277.9781799,191,-7.423958778,5.524572372,-48.38166046,0,0
18:18.2,0.438,-0.075,-0.092,-0.26477955,0.1569064,10.44408225,493000,-344000,-290000,98567.71851,32.2,16.1099987,-232.8603821,-277.9781799,191,-7.423958778,5.524572372,-48.38166046,0,0
18:18.2,0.41225,-0.0855,-0.07475,-0.2157463,0.22555295,10.7677017,496000,-353500,-285500,98568.25257,32.2,16.21999931,-247.2497864,-276.6253662,192,-8.611727715,13.84373283,-41.71954346,0,0
18:18.2,0.3865,-0.096,-0.0575,-0.16671305,0.2941995,11.09132115,499000,-363000,-281000,98568.78663,32.2,16.27999973,-247.2497864,-273.2522278,193,-8.611727715,13.84373283,-41.71954346,0,0
18:18.3,0.36075,-0.1065,-0.04025,-0.1176798,0.36284605,11.4149406,502000,-372500,-276500,98569.32068,32.2,16.34000015,-247.2497864,-269.8790894,194,-8.611727715,13.84373283,-41.71954346,0,0
18:18.3,0.335,-0.117,-0.023,-0.06864655,0.4314926,11.73856005,505000,-382000,-272000,98569.85474,32.2,16.34000015,-247.2497864,-269.8790894,194,-8.611727715,13.84373283,-41.71954346,0,0
18:18.4,0.235,-0.136,-0.031,0.0196133,0.38245935,12.64077185,540000,-406000,-258000,98572.55249,32.19,16.34000015,-247.2497864,-269.8790894,194,-8.611727715,13.84373283,-41.71954346,0,0
18:18.4,0.178,-0.126333333,-0.029333333,0.071915433,0.320350567,12.07852392,536666.6667,-412000,-254000,98573.07129,32.19,16.44000053,-200.0921326,-268.4347229,196,-8.611727715,13.84373283,-41.71954346,0,0
18:18.4,0.121,-0.116666667,-0.027666667,0.124217567,0.258241783,11.51627598,533333.3333,-418000,-250000,98573.59009,32.19,16.52000046,-200.0921326,-248.3043671,197,-8.611727715,13.84373283,-41.71954346,0,0
18:18.5,0.064,-0.107,-0.026,0.1765197,0.196133,10.95402805,530000,-424000,-246000,98574.10889,32.19,16.52000046,-200.0921326,-248.3043671,197,-8.611727715,13.84373283,-41.71954346,0,0
18:18.5,0.182,-0.1115,0.006,0.0588399,0.279489525,10.69905515,527000,-425500,-247000,98576.00708,32.185,16.52000046,-200.0921326,-248.3043671,197,-8.611727715,13.84373283,-41.71954346,0,0
18:18.6,0.3,-0.116,0.038,-0.0588399,0.36284605,10.44408225,524000,-427000,-248000,98577.90527,32.18,16.52000046,-200.0921326,-248.3043671,197,-8.611727715,13.84373283,-41.71954346,0,0
18:18.6,0.359666667,-0.126666667,0.018,-0.0784532,0.4314926,10.90172592,529000,-438666.6667,-242333.3333,98578.02938,32.18,16.59000015,-216.9816895,-54.80226898,199,-6.673977852,19.62596703,-40.86200714,0,0
18:18.6,0.419333333,-0.137333333,-0.002,-0.0980665,0.50013915,11.35936958,534000,-450333.3333,-236666.6667,98578.15348,32.18,16.625,-216.9816895,-54.1287899,200,-6.673977852,19.62596703,-40.86200714,0,0
18:18.7,0.479,-0.148,-0.022,-0.1176798,0.5687857,11.81701325,539000,-462000,-231000,98578.27759,32.18,16.65999985,-216.9816895,-53.45531082,201,-6.673977852,19.62596703,-40.86200714,0,0
18:18.7,0.4,-0.1465,-0.0185,-0.02941995,0.63743225,12.09159945,535500,-470000,-225500,98576.67237,32.18,16.67499972,-219.6548882,-53.11578846,201.25,-6.673977852,19.62596703,-40.86200714,0,0
18:18.8,0.321,-0.145,-0.015,0.0588399,0.7060788,12.36618565,532000,-478000,-220000,98575.06714,32.18,16.68999958,-222.3280869,-52.7762661,201.5,-6.673977852,19.62596703,-40.86200714,0,0
18:18.8,0.309666667,-0.125333333,-0.023333333,0.08825985,0.9022118,12.0817928,530000,-485333.3333,-221000,98576.40584,32.17666667,16.71999931,-225.0012856,-52.08608913,202.25,-6.673977852,19.62596703,-40.86200714,0,0
18:18.8,0.298333333,-0.105666667,-0.031666667,0.1176798,1.0983448,11.79739995,528000,-492666.6667,-222000,98577.74455,32.17333333,16.74999905,-227.6744843,-51.39591217,203,-6.673977852,19.62596703,-40.86200714,0,0
18:18.9,0.287,-0.086,-0.04,0.14709975,1.2944778,11.5130071,526000,-500000,-223000,98579.08325,32.17,16.76499891,-227.6744843,-51.04525757,203.5,-5.580462933,23.52574349,-40.37796593,0,0
18:18.9,0.262666667,-0.086,-0.08,0.08825985,1.386006533,11.32014298,538333.3333,-506666.6667,-214333.3333,98580.43416,32.17,16.77999878,-227.6744843,-50.69460297,204,-4.486948013,27.42551994,-39.89392471,0,0
18:19.0,0.238333333,-0.086,-0.12,0.02941995,1.477535267,11.12727887,550666.6667,-513333.3333,-205666.6667,98581.78508,32.17,16.80999947,-236.9855957,-49.2585907,206,-4.486948013,27.42551994,-39.89392471,0,0
18:19.0,0.214,-0.086,-0.16,-0.02941995,1.569064,10.93441475,563000,-520000,-197000,98583.13599,32.17,16.80999947,-236.9855957,-49.2585907,206,-4.486948013,27.42551994,-39.89392471,0,0
18:19.0,0.2605,-0.0815,-0.25,0.053936575,1.36312435,10.3362091,572500,-534500,-186500,98584.42994,32.17,16.80999947,-236.9855957,-49.2585907,206,-4.486948013,27.42551994,-39.89392471,0,0
18:19.1,0.307,-0.077,-0.34,0.1372931,1.1571847,9.73800345,582000,-549000,-176000,98585.72388,32.17,16.82499981,-236.9855957,-48.52388573,206.5,-4.486948013,27.42551994,-39.89392471,0,0
18:19.1,0.3095,-0.0675,-0.371,-0.004903325,1.024794925,9.134894475,578500,-547500,-178000,98585.55909,32.165,16.84000015,-236.9855957,-47.78918076,207,-4.486948013,27.42551994,-39.89392471,0,0
18:19.2,0.312,-0.058,-0.402,-0.14709975,0.89240515,8.5317855,575000,-546000,-180000,98585.39429,32.16,16.84000015,-236.9855957,-47.78918076,207,-4.486948013,27.42551994,-39.89392471,0,0
18:19.2,0.3532,-0.084,-0.4048,-0.09414384,0.77080269,8.85148229,577200,-546800,-177800,98584.38355,32.16,16.87999916,-246.3603973,-46.29750824,209,-4.486948013,27.42551994,-39.89392471,0,0
