time,field.angular_velocity.x,field.angular_velocity.y,field.angular_velocity.z,field.linear_acceleration.x,field.linear_acceleration.y,field.linear_acceleration.z,field.fluid_pressure,field.magnetic_field.x,field.magnetic_field.y,field.magnetic_field.z,field.temperature,field.alt_error,field.aspd_error,field.xtrack_error,field.wp_dist,field.measured.pitch,field.measured.roll,field.measured.yaw,fault_state,field.airspeed
2018-09-11 19:21:31.400,0.589,0.001,-0.02,-0.0588399,0.4511059,9.50264385,97734.07593,-558000.0,-55000.0,-924000.0,38.45,0.229999989,-168.1379395,-34.99370193,9.0,-2.088458061,9.60470295,-70.86633301,0.0,0.0
2018-09-11 19:21:31.440,0.589,0.001,-0.02,-0.0588399,0.4511059,9.50264385,97734.07593,-558000.0,-55000.0,-924000.0,38.45,0.229999989,-168.1379395,-34.99370193,9.0,-2.088458061,9.60470295,-70.86633301,0.0,0.0
2018-09-11 19:21:31.480,0.589,0.001,-0.02,-0.0588399,0.4511059,9.50264385,97734.07593,-558000.0,-55000.0,-924000.0,38.45,0.229999989,-168.1379395,-34.99370193,9.0,-2.088458061,9.60470295,-70.86633301,0.0,0.0
2018-09-11 19:21:31.520,0.589,0.001,-0.02,-0.0588399,0.4511059,9.50264385,97734.07593,-558000.0,-55000.0,-924000.0,38.45,0.229999989,-168.1379395,-34.99370193,9.0,-2.088458061,9.60470295,-70.86633301,0.0,0.0
2018-09-11 19:21:31.560,0.55,-0.006,-0.031,-0.0980665,0.4314926,9.3751574,97734.07593,-558000.0,-55000.0,-924000.0,38.45,0.229999989,-168.1379395,-34.99370193,9.0,-2.088458061,9.60470295,-70.86633301,0.0,0.0
2018-09-11 19:21:31.600,0.5293333333333333,-0.008,-0.036,-0.0621087833333333,0.4870636166666667,9.407846233333334,97733.76261666667,-567666.6666666666,-61000.0,-924333.3333333334,38.45,0.299999982,-168.1379395,-33.28031921,10.0,-2.088458061,9.60470295,-70.86633301,0.0,0.0
2018-09-11 19:21:31.640,0.5086666666666667,-0.01,-0.041,-0.0261510666666666,0.5426346333333334,9.440535066666667,97733.44930333331,-577333.3333333334,-67000.0,-924666.6666666666,38.45,0.299999982,-168.1379395,-33.28031921,10.0,-2.088458061,9.60470295,-70.86633301,0.0,0.0
2018-09-11 19:21:31.680,0.488,-0.012,-0.046,0.00980665,0.59820565,9.4732239,97733.13599,-587000.0,-73000.0,-925000.0,38.45,0.299999982,-168.1379395,-33.28031921,10.0,-2.088458061,9.60470295,-70.86633301,0.0,0.0
2018-09-11 19:21:31.720,0.4786666666666667,-0.0223333333333333,-0.054,0.0261510666666666,0.5949367666666667,9.613785883333334,97734.5459,-594000.0,-86333.33333333333,-927000.0,38.45,0.370000005,-169.2520142,-31.54146957,12.0,-2.088458061,9.60470295,-70.86633301,0.0,0.0
2018-09-11 19:21:31.760,0.4693333333333333,-0.0326666666666666,-0.062,0.0424954833333333,0.5916678833333333,9.754347866666668,97735.95581,-601000.0,-99666.66666666669,-929000.0,38.45,0.4099999965,-169.2520142,-30.67453384,13.0,-2.088458061,9.60470295,-70.86633301,0.0,0.0
2018-09-11 19:21:31.800,0.46,-0.043,-0.07,0.0588399,0.588399,9.89490985,97737.36572,-608000.0,-113000.0,-931000.0,38.45,0.449999988,-169.2520142,-29.80759811,14.0,-2.088458061,9.60470295,-70.86633301,0.0,0.0
2018-09-11 19:21:31.840,0.462,-0.047,-0.0785,0.014709975,0.6080123,9.89490985,97737.36572,-608000.0,-113000.0,-931000.0,38.45,0.449999988,-169.2520142,-29.80759811,14.0,-2.122128725,20.99424744,-69.98982239,0.0,0.0
2018-09-11 19:21:31.880,0.464,-0.051,-0.087,-0.02941995,0.6276256,9.89490985,97737.36572,-608000.0,-113000.0,-931000.0,38.45,0.494999975,-169.9603119,-28.93749809,15.0,-2.122128725,20.99424744,-69.98982239,0.0,0.0
2018-09-11 19:21:31.920,0.4435,-0.0515,-0.0975,0.06864655,0.73549875,9.860586575,97735.97412,-614000.0,-121000.0,-928000.0,38.45,0.539999962,-170.6686096,-28.06739807,16.0,-2.122128725,20.99424744,-69.98982239,0.0,0.0
2018-09-11 19:21:31.960,0.423,-0.052,-0.108,0.16671305,0.8433719,9.8262633,97734.58252,-620000.0,-129000.0,-925000.0,38.45,0.539999962,-170.6686096,-28.06739807,16.0,-2.122128725,20.99424744,-69.98982239,0.0,0.0
2018-09-11 19:21:32.000,0.407,-0.0596666666666666,-0.1173333333333333,0.1503686333333333,0.8204897166666666,9.9243298,97736.24267666666,-635333.3333333334,-133000.0,-934000.0,38.45,0.639999986,-170.6686096,-26.3062458,17.0,-2.122128725,20.99424744,-69.98982239,0.0,0.0
2018-09-11 19:21:32.040,0.391,-0.0673333333333333,-0.1266666666666666,0.1340242166666666,0.7976075333333333,10.0223963,97737.90283333334,-650666.6666666666,-137000.0,-943000.0,38.45,0.639999986,-170.6686096,-26.3062458,17.0,-2.122128725,20.99424744,-69.98982239,0.0,0.0
2018-09-11 19:21:32.080,0.375,-0.075,-0.136,0.1176798,0.77472535,10.1204628,97739.56299,-666000.0,-141000.0,-952000.0,38.45,0.729999959,-170.7838135,-24.58678246,19.0,-2.122128725,20.99424744,-69.98982239,0.0,0.0
2018-09-11 19:21:32.120,0.381,-0.0834999999999999,-0.151,0.14709975,0.818855275,10.34601575,97739.56299,-683500.0,-143500.0,-952000.0,38.45,0.729999959,-170.7838135,-24.58678246,19.0,-2.122128725,20.99424744,-69.98982239,0.0,0.0
2018-09-11 19:21:32.160,0.387,-0.092,-0.166,0.1765197,0.8629852,10.5715687,97739.56299,-701000.0,-146000.0,-952000.0,38.45,0.7849999665,-170.7838135,-23.71207619,20.0,-2.1032419205,25.310173035,-68.59408188,0.0,0.0
2018-09-11 19:21:32.200,0.3785,-0.101,-0.183,0.22555295,0.907115125,10.54214875,97741.3208,-722000.0,-148500.0,-976000.0,38.45,0.839999974,-170.7838135,-22.83736992,21.0,-2.084355116,29.62609863,-67.19834137,0.0,0.0
2018-09-11 19:21:32.240,0.37,-0.11,-0.2,0.2745862,0.95124505,10.5127288,97743.07861,-743000.0,-151000.0,-1000000.0,38.45,0.839999974,-170.7838135,-22.83736992,21.0,-2.084355116,29.62609863,-67.19834137,0.0,0.0
2018-09-11 19:21:32.280,0.35125,-0.1205,-0.21225,0.34323275,0.9438900625,10.5642137125,97745.0881925,-672000.0,-155250.0,-1003750.0,38.45,0.8899999860000001,-167.0702057,-21.983029365,21.5,-2.084355116,29.62609863,-67.19834137,0.0,0.0
2018-09-11 19:21:32.320,0.3325,-0.131,-0.2245,0.4118793,0.936535075,10.615698625,97747.097775,-601000.0,-159500.0,-1007500.0,38.45,0.939999998,-163.3565979,-21.12868881,22.0,-2.084355116,29.62609863,-67.19834137,0.0,0.0
2018-09-11 19:21:32.360,0.31375,-0.1415,-0.23675,0.48052585,0.9291800875,10.6671835375,97749.1073575,-530000.0,-163750.0,-1011250.0,38.45,0.994999975,-163.3565979,-20.25711155,23.0,-2.084355116,29.62609863,-67.19834137,0.0,0.0
2018-09-11 19:21:32.400,0.295,-0.152,-0.249,0.5491724,0.9218251,10.71866845,97751.11694,-459000.0,-168000.0,-1015000.0,38.45,1.049999952,-163.3565979,-19.38553429,24.0,-2.084355116,29.62609863,-67.19834137,0.0,0.0
2018-09-11 19:21:32.440,0.291,-0.153,-0.266,0.42168595,1.14737805,10.5519554,97745.06836,-701000.0,-162000.0,-1043000.0,38.45,1.1099999545,-163.3565979,-18.512319565,25.0,-2.084355116,29.62609863,-67.19834137,0.0,0.0
2018-09-11 19:21:32.480,0.287,-0.1704999999999999,-0.276,0.4756225249999999,0.985568325,10.75789505,97745.06836,-701000.0,-162000.0,-1043000.0,38.45,1.169999957,-163.3565979,-17.63910484,26.0,-2.084355116,29.62609863,-67.19834137,0.0,0.0
2018-09-11 19:21:32.520,0.283,-0.188,-0.286,0.5295591,0.8237586,10.9638347,97745.06836,-701000.0,-162000.0,-1043000.0,38.45,1.169999957,-163.3565979,-17.63910484,26.0,-2.084355116,29.62609863,-67.19834137,0.0,0.0
2018-09-11 19:21:32.560,0.2693333333333333,-0.2013333333333333,-0.2853333333333333,0.5589790499999999,0.8825985,11.251496433333331,97746.20158,-792000.0,-165000.0,-1031666.6666666666,38.45,1.169999957,-163.3565979,-17.63910484,26.0,-2.084355116,29.62609863,-67.19834137,0.0,0.0
2018-09-11 19:21:32.600,0.2556666666666666,-0.2146666666666666,-0.2846666666666666,0.588399,0.9414384,11.539158166666668,97747.3348,-883000.0,-168000.0,-1020333.3333333334,38.45,1.289999962,-172.5143433,-15.90359306,28.0,-2.084355116,29.62609863,-67.19834137,0.0,0.0
2018-09-11 19:21:32.640,0.242,-0.228,-0.284,0.61781895,1.0002783,11.8268199,97748.46802,-974000.0,-171000.0,-1009000.0,38.45,1.289999962,-172.5143433,-15.90359306,28.0,-2.38279891,37.74303818,-60.07498169,0.0,0.0
2018-09-11 19:21:32.680,0.2303333333333333,-0.236,-0.2833333333333333,0.61781895,1.0395049,11.8268199,97748.80778,-941333.3333333334,-172000.0,-1021333.3333333334,38.45,1.419999957,-181.9221497,-14.16695023,29.0,-2.38279891,37.74303818,-60.07498169,0.0,0.0
2018-09-11 19:21:32.720,0.2186666666666666,-0.244,-0.2826666666666666,0.61781895,1.0787315,11.8268199,97749.14754,-908666.6666666666,-173000.0,-1033666.6666666666,38.45,1.419999957,-181.9221497,-14.16695023,29.0,-2.38279891,37.74303818,-60.07498169,0.0,0.0
2018-09-11 19:21:32.760,0.207,-0.252,-0.282,0.61781895,1.1179581,11.8268199,97749.4873,-876000.0,-174000.0,-1046000.0,38.45,1.419999957,-181.9221497,-14.16695023,29.0,-2.38279891,37.74303818,-60.07498169,0.0,0.0
2018-09-11 19:21:32.800,0.2284999999999999,-0.2714999999999999,-0.2835,0.7551120499999999,0.980665,12.2779258,97753.741455,-632500.0,-173500.0,-1064000.0,38.45,1.4799999595,-181.9221497,-13.309042935,30.0,-2.38279891,37.74303818,-60.07498169,0.0,0.0
2018-09-11 19:21:32.840,0.25,-0.291,-0.285,0.89240515,0.8433719,12.7290317,97757.99561,-389000.0,-173000.0,-1082000.0,38.45,1.539999962,-181.9221497,-12.45113564,31.0,-2.38279891,37.74303818,-60.07498169,0.0,0.0
2018-09-11 19:21:32.880,0.218,-0.2966666666666666,-0.2803333333333333,0.9250939833333334,0.8172208333333333,12.882669216666669,97756.88680333331,-458666.6666666667,-171000.0,-1080000.0,38.45,1.669999957,-192.7377625,-10.69933319,33.0,-2.38279891,37.74303818,-60.07498169,0.0,0.0
2018-09-11 19:21:32.920,0.186,-0.3023333333333333,-0.2756666666666666,0.9577828166666666,0.7910697666666666,13.036306733333332,97755.77799666669,-528333.3333333334,-169000.0,-1078000.0,38.45,1.669999957,-192.7377625,-10.69933319,33.0,-2.38279891,37.74303818,-60.07498169,0.0,0.0
2018-09-11 19:21:32.960,0.154,-0.308,-0.271,0.99047165,0.7649187,13.18994425,97754.66919,-598000.0,-167000.0,-1076000.0,38.45,1.669999957,-192.7377625,-10.69933319,33.0,-2.38279891,37.74303818,-60.07498169,0.0,0.0
2018-09-11 19:21:33.000,0.1164999999999999,-0.319,-0.2585,1.0983448,0.7992419749999999,13.3566573,97756.02417,-541000.0,-161500.0,-1122000.0,38.45,1.7299999595,-192.7377625,-9.834056854,34.0,-1.96024847,40.237449645,-55.594631195000005,0.0,0.0
2018-09-11 19:21:33.040,0.079,-0.33,-0.246,1.20621795,0.83356525,13.52337035,97757.37915,-484000.0,-156000.0,-1168000.0,38.45,1.789999962,-192.7377625,-8.968780518,35.0,-1.53769803,42.73186111,-51.1142807,0.0,0.0
2018-09-11 19:21:33.080,0.0733333333333333,-0.3326666666666666,-0.2403333333333333,1.2323690166666668,0.8564474333333334,13.516832583333334,97758.01595,-472333.3333333333,-153333.33333333334,-1182333.3333333333,38.45,1.8499999645,-197.4941254,-8.104948044,35.5,-1.53769803,42.73186111,-51.1142807,0.0,0.0
2018-09-11 19:21:33.120,0.0676666666666666,-0.3353333333333333,-0.2346666666666666,1.2585200833333334,0.8793296166666666,13.510294816666669,97758.65275,-460666.6666666667,-150666.66666666666,-1196666.6666666667,38.45,1.909999967,-202.2504883,-7.24111557,36.0,-1.53769803,42.73186111,-51.1142807,0.0,0.0
2018-09-11 19:21:33.160,0.062,-0.338,-0.229,1.28467115,0.9022118,13.50375705,97759.28955,-449000.0,-148000.0,-1211000.0,38.45,1.964999974,-202.2504883,-6.3911972045,37.0,-1.53769803,42.73186111,-51.1142807,0.0,0.0
2018-09-11 19:21:33.200,0.0336666666666666,-0.338,-0.2273333333333333,1.2912089166666667,1.0787315,13.840452033333332,97760.07283333334,-1053666.6666666665,-132333.33333333334,-1253666.6666666667,38.446666666666665,1.9924999775,-202.2504883,-5.96623802175,37.5,-1.53769803,42.73186111,-51.1142807,0.0,0.0
2018-09-11 19:21:33.240,0.0053333333333333,-0.338,-0.2256666666666666,1.297746683333333,1.2552512,14.177147016666668,97760.85611666666,-1658333.3333333333,-116666.66666666669,-1296333.3333333333,38.443333333333335,2.019999981,-202.2504883,-5.541278839,38.0,-1.53769803,42.73186111,-51.1142807,0.0,0.0
2018-09-11 19:21:33.280,-0.023,-0.338,-0.224,1.30428445,1.4317709,14.513842,97761.6394,-2263000.0,-101000.0,-1339000.0,38.44,2.119999886,-230.6358337,-3.835693359,40.0,-1.53769803,42.73186111,-51.1142807,0.0,0.0
2018-09-11 19:21:33.320,-0.017,-0.3315,-0.236,1.3778343249999998,1.318994425,14.087252725,97765.866085,-1885000.0,-104000.0,-1349500.0,38.445,2.119999886,-230.6358337,-3.835693359,40.0,0.002705182,43.6358757,-44.74115753,0.0,0.0
2018-09-11 19:21:33.360,-0.011,-0.325,-0.248,1.4513842,1.20621795,13.66066345,97770.09277,-1507000.0,-107000.0,-1360000.0,38.45,2.200000048,-230.6358337,-2.13041687,41.0,0.002705182,43.6358757,-44.74115753,0.0,0.0
2018-09-11 19:21:33.400,0.009,-0.3175,-0.2565,1.36312435,1.407254275,13.587113575,97770.09277,-1507000.0,-107000.0,-1360000.0,38.45,2.200000048,-230.6358337,-2.13041687,41.0,0.002705182,43.6358757,-44.74115753,0.0,0.0
2018-09-11 19:21:33.440,0.029,-0.31,-0.265,1.2748645,1.6082906,13.5135637,97770.09277,-1507000.0,-107000.0,-1360000.0,38.45,2.2200000286666666,-236.68098446666667,-1.5689544676666665,41.66666666666666,0.002705182,43.6358757,-44.74115753,0.0,0.0
2018-09-11 19:21:33.480,0.02,-0.3133333333333333,-0.2776666666666667,1.3173599833333334,1.4775352666666666,13.461261566666668,97768.73372333334,-1511666.6666666667,-104666.66666666669,-1356666.6666666667,38.45,2.240000009333333,-242.7261352333333,-1.0074920653333332,42.333333333333336,0.002705182,43.6358757,-44.74115753,0.0,0.0
2018-09-11 19:21:33.520,0.011,-0.3166666666666666,-0.2903333333333333,1.359855466666667,1.3467799333333332,13.408959433333331,97767.37467666666,-1516333.3333333333,-102333.33333333331,-1353333.3333333333,38.45,2.25999999,-248.771286,-0.446029663,43.0,0.002705182,43.6358757,-44.74115753,0.0,0.0
2018-09-11 19:21:33.560,0.002,-0.32,-0.303,1.40235095,1.2160246,13.3566573,97766.01563,-1521000.0,-100000.0,-1350000.0,38.45,2.25999999,-248.771286,-0.446029663,43.0,0.002705182,43.6358757,-44.74115753,0.0,0.0
2018-09-11 19:21:33.600,-0.001,-0.3206666666666666,-0.3093333333333333,1.4317709,1.20621795,13.569134716666667,97767.00439666666,-1474666.6666666667,-94666.66666666669,-1364666.6666666667,38.45,2.309999943,-248.771286,1.196968079,45.0,0.002705182,43.6358757,-44.74115753,0.0,0.0
2018-09-11 19:21:33.640,-0.004,-0.3213333333333333,-0.3156666666666666,1.46119085,1.1964113,13.781612133333333,97767.99316333332,-1428333.3333333333,-89333.33333333333,-1379333.3333333333,38.45,2.334999919,-252.02236175,2.022972107,45.5,0.002705182,43.6358757,-44.74115753,0.0,0.0
2018-09-11 19:21:33.680,-0.007,-0.322,-0.322,1.4906108,1.18660465,13.99408955,97768.98193,-1382000.0,-84000.0,-1394000.0,38.45,2.359999895,-255.2734375,2.848976135,46.0,0.002705182,43.6358757,-44.74115753,0.0,0.0
2018-09-11 19:21:33.720,-0.009,-0.3205,-0.321,1.3827376500000002,1.230734575,13.802859875,97768.98193,-1382000.0,-84000.0,-1394000.0,38.45,2.359999895,-255.2734375,2.848976135,46.0,0.002705182,43.6358757,-44.74115753,0.0,0.0
2018-09-11 19:21:33.760,-0.011,-0.319,-0.32,1.2748645,1.2748645,13.6116302,97768.98193,-1382000.0,-84000.0,-1394000.0,38.45,2.3749998805,-255.2734375,3.6614990235,47.0,0.4899939725,43.996418,-38.75588226,0.0,0.0
2018-09-11 19:21:33.800,-0.0204999999999999,-0.329,-0.3165,1.299381125,1.28467115,13.753826625,97767.456055,-737000.0,-93500.0,-1377500.0,38.45,2.389999866,-255.2734375,4.474021912,48.0,0.977282763,44.3569603,-32.77060699,0.0,0.0
2018-09-11 19:21:33.840,-0.03,-0.339,-0.313,1.32389775,1.2944778,13.89602305,97765.93018,-92000.0,-103000.0,-1361000.0,38.45,2.389999866,-255.2734375,4.474021912,48.0,0.977282763,44.3569603,-32.77060699,0.0,0.0
2018-09-11 19:21:33.880,-0.022,-0.3366666666666666,-0.309,1.3663932333333333,1.2912089166666667,13.830645383333334,97768.24748,-602666.6666666667,-94000.0,-1417333.3333333333,38.446666666666665,2.404999852,-258.16278075,5.2789497375,49.0,0.977282763,44.3569603,-32.77060699,0.0,0.0
2018-09-11 19:21:33.920,-0.0139999999999999,-0.3343333333333333,-0.305,1.4088887166666666,1.2879400333333333,13.765267716666669,97770.56478,-1113333.3333333335,-85000.0,-1473666.6666666667,38.443333333333335,2.419999838,-261.052124,6.083877563,50.0,0.977282763,44.3569603,-32.77060699,0.0,0.0
2018-09-11 19:21:33.960,-0.006,-0.332,-0.301,1.4513842,1.28467115,13.69989005,97772.88208,-1624000.0,-76000.0,-1530000.0,38.44,2.419999838,-261.052124,6.8712348935000005,50.5,0.977282763,44.3569603,-32.77060699,0.0,0.0
2018-09-11 19:21:34.000,-0.0076666666666666,-0.3313333333333333,-0.3026666666666666,1.44157755,1.2879400333333333,13.686814516666669,97771.63493,-1638666.6666666667,-69000.0,-1505333.3333333333,38.44,2.419999838,-261.052124,7.264913558750001,50.75,0.977282763,44.3569603,-32.77060699,0.0,0.0
2018-09-11 19:21:34.040,-0.0093333333333333,-0.3306666666666666,-0.3043333333333333,1.4317709,1.2912089166666667,13.673738983333331,97770.38778,-1653333.3333333333,-62000.0,-1480666.6666666667,38.44,2.419999838,-261.052124,7.658592224,51.0,0.977282763,44.3569603,-32.77060699,0.0,0.0
2018-09-11 19:21:34.080,-0.011,-0.33,-0.306,1.42196425,1.2944778,13.66066345,97769.14063,-1668000.0,-55000.0,-1456000.0,38.44,2.419999838,-268.9774475,8.4418964385,52.0,1.2520769835,44.48129845,-28.82161617,0.0,0.0
2018-09-11 19:21:34.120,-0.017,-0.3315,-0.3095,1.40235095,1.211121275,13.704793375,97769.14063,-1668000.0,-55000.0,-1456000.0,38.44,2.419999838,-276.902771,9.225200653,53.0,1.526871204,44.6056366,-24.87262535,0.0,0.0
2018-09-11 19:21:34.160,-0.023,-0.333,-0.313,1.38273765,1.12776475,13.7489233,97769.14063,-1668000.0,-55000.0,-1456000.0,38.44,2.4099998475,-276.902771,9.9895877815,53.5,1.526871204,44.6056366,-24.87262535,0.0,0.0
2018-09-11 19:21:34.200,-0.0153333333333333,-0.3356666666666666,-0.314,1.4056198333333332,1.0852692666666668,13.765267716666669,97768.53638,-1619666.6666666667,-55333.333333333336,-1454000.0,38.44,2.40499985225,-276.902771,10.37178134575,53.75,1.526871204,44.6056366,-24.87262535,0.0,0.0
2018-09-11 19:21:34.240,-0.0076666666666666,-0.3383333333333334,-0.315,1.4285020166666669,1.0427737833333333,13.781612133333333,97767.93213,-1571333.3333333333,-55666.66666666666,-1452000.0,38.44,2.399999857,-276.902771,10.75397491,54.0,1.526871204,44.6056366,-24.87262535,0.0,0.0
2018-09-11 19:21:34.280,0.0,-0.341,-0.316,1.4513842,1.0002783,13.79795655,97767.32788,-1523000.0,-56000.0,-1450000.0,38.44,2.379999876,-289.1199036,12.26036453,56.0,1.526871204,44.6056366,-24.87262535,0.0,0.0
2018-09-11 19:21:34.320,0.009,-0.344,-0.31,1.3778343249999998,1.113054775,13.85679645,97767.32788,-1523000.0,-56000.0,-1450000.0,38.44,2.379999876,-289.1199036,12.26036453,56.0,1.526871204,44.6056366,-24.87262535,0.0,0.0
2018-09-11 19:21:34.360,0.018,-0.347,-0.304,1.30428445,1.22583125,13.91563635,97767.32788,-1523000.0,-56000.0,-1450000.0,38.44,2.339999914,-289.1199036,13.73339081,57.0,1.526871204,44.6056366,-24.87262535,0.0,0.0
2018-09-11 19:21:34.400,0.0013333333333333,-0.3513333333333333,-0.3016666666666666,1.3467799333333332,1.1343025166666667,13.889485283333332,97767.00439333334,-1221333.3333333333,-58000.0,-1446000.0,38.44,2.339999914,-289.1199036,13.73339081,57.0,1.526871204,44.6056366,-24.87262535,0.0,0.0
2018-09-11 19:21:34.440,-0.0153333333333333,-0.3556666666666666,-0.2993333333333333,1.3892754166666668,1.0427737833333333,13.863334216666669,97766.68090666666,-919666.6666666666,-60000.0,-1442000.0,38.44,2.319999933,-291.40586855,14.461120605,58.0,1.526871204,44.6056366,-24.87262535,0.0,0.0
2018-09-11 19:21:34.480,-0.032,-0.36,-0.297,1.4317709,0.95124505,13.83718315,97766.35742,-618000.0,-62000.0,-1438000.0,38.44,2.299999952,-293.6918335,15.1888504,59.0,1.526871204,44.6056366,-24.87262535,0.0,0.0
2018-09-11 19:21:34.520,-0.0295,-0.3605,-0.29,1.3533177,1.0198916,13.9058297,97764.242555,-880500.0,-55000.0,-1443500.0,38.44,2.299999952,-293.6918335,15.1888504,59.0,1.526871204,44.6056366,-24.87262535,0.0,0.0
2018-09-11 19:21:34.560,-0.027,-0.361,-0.283,1.2748645,1.08853815,13.97447625,97762.12769,-1143000.0,-48000.0,-1449000.0,38.44,2.299999952,-293.6918335,15.1888504,59.0,2.610205889,45.46534729,-13.03621387,0.0,0.0
2018-09-11 19:21:34.600,-0.0213333333333333,-0.367,-0.282,1.2617889666666666,1.1343025166666667,14.17060925,97762.12769,-1143000.0,-48000.0,-1449000.0,38.44,2.24000001,-293.6918335,16.59521484,60.0,2.610205889,45.46534729,-13.03621387,0.0,0.0
2018-09-11 19:21:34.640,-0.0156666666666666,-0.373,-0.281,1.2487134333333334,1.1800668833333332,14.36674225,97762.12769,-1143000.0,-48000.0,-1449000.0,38.44,2.24000001,-293.6918335,16.59521484,60.0,2.610205889,45.46534729,-13.03621387,0.0,0.0
2018-09-11 19:21:34.680,-0.01,-0.379,-0.28,1.2356379,1.22583125,14.56287525,97762.12769,-1143000.0,-48000.0,-1449000.0,38.44,2.180000067,-293.3582153,17.98226547,62.0,2.610205889,45.46534729,-13.03621387,0.0,0.0
2018-09-11 19:21:34.720,-0.013,-0.373,-0.275,1.372931,1.30428445,14.5726819,97762.94556,-997000.0,-46000.0,-1462000.0,38.44,2.180000067,-293.3582153,17.98226547,62.0,2.610205889,45.46534729,-13.03621387,0.0,0.0
2018-09-11 19:21:34.760,-0.014,-0.3706666666666666,-0.2756666666666666,1.3467799333333332,1.3271666333333332,14.752470483333331,97763.46842666666,-1046000.0,-43333.333333333336,-1462666.6666666667,38.44,2.139999986,-293.3582153,18.650331495000003,62.5,2.610205889,45.46534729,-13.03621387,0.0,0.0
2018-09-11 19:21:34.800,-0.015,-0.3683333333333333,-0.2763333333333334,1.3206288666666666,1.3500488166666669,14.932259066666663,97763.99129333334,-1095000.0,-40666.66666666666,-1463333.3333333333,38.44,2.099999905,-293.3582153,19.31839752,63.0,2.610205889,45.46534729,-13.03621387,0.0,0.0
2018-09-11 19:21:34.840,-0.016,-0.366,-0.277,1.2944778,1.372931,15.11204765,97764.51416,-1144000.0,-38000.0,-1464000.0,38.44,2.099999905,-293.3582153,19.31839752,63.0,2.610205889,45.46534729,-13.03621387,0.0,0.0
2018-09-11 19:21:34.880,-0.0166666666666666,-0.357,-0.2793333333333333,1.3337044,1.3402421666666666,14.8472681,97764.51416,-1669000.0,-30000.0,-1475000.0,38.44,2.0499999525,-292.54045105,19.972852705,63.5,2.610205889,45.46534729,-13.03621387,0.0,0.0
2018-09-11 19:21:34.920,-0.0173333333333333,-0.348,-0.2816666666666667,1.372931,1.3075533333333331,14.58248855,97764.51416,-2194000.0,-22000.0,-1486000.0,38.44,2.0,-291.7226868,20.62730789,64.0,2.610205889,45.46534729,-13.03621387,0.0,0.0
2018-09-11 19:21:34.960,-0.018,-0.339,-0.284,1.4121576,1.2748645,14.317709,97764.51416,-2719000.0,-14000.0,-1497000.0,38.44,2.0,-291.7226868,20.62730789,64.0,4.249564171,46.27762222,-2.226481915,0.0,0.0
2018-09-11 19:21:35.000,-0.0396666666666666,-0.3346666666666666,-0.289,1.4121576,1.2552512,14.177147016666668,97761.50105666668,-2625333.333333333,-12000.0,-1494333.3333333333,38.44,1.870000005,-291.7226868,21.85987473,65.0,4.249564171,46.27762222,-2.226481915,0.0,0.0
2018-09-11 19:21:35.040,-0.0613333333333333,-0.3303333333333333,-0.294,1.4121576,1.2356379,14.036585033333331,97758.48795333332,-2531666.6666666665,-10000.0,-1491666.6666666667,38.44,1.83750000625,-291.079475425,22.162414555,65.5,4.249564171,46.27762222,-2.226481915,0.0,0.0
2018-09-11 19:21:35.080,-0.083,-0.326,-0.299,1.4121576,1.2160246,13.89602305,97755.47485,-2438000.0,-8000.0,-1489000.0,38.44,1.8050000075,-290.43626405,22.46495438,66.0,4.249564171,46.27762222,-2.226481915,0.0,0.0
2018-09-11 19:21:35.120,-0.0854999999999999,-0.329,-0.307,1.397447625,1.132668075,14.057832775,97757.08313,-2007500.0,-18500.0,-1462000.0,38.435,1.7725000087499998,-289.793052675,22.767494205,66.5,4.249564171,46.27762222,-2.226481915,0.0,0.0
2018-09-11 19:21:35.160,-0.088,-0.332,-0.315,1.38273765,1.04931155,14.2196425,97758.69141,-1577000.0,-29000.0,-1435000.0,38.43,1.74000001,-289.1498413,23.07003403,67.0,4.249564171,46.27762222,-2.226481915,0.0,0.0
2018-09-11 19:21:35.200,-0.065,-0.324,-0.3166666666666666,1.3173599833333334,1.1179581,14.039853916666669,97756.57959333331,-1386333.3333333333,-30000.0,-1431666.6666666667,38.43333333333333,1.599999905,-289.1498413,24.22912979,68.0,4.249564171,46.27762222,-2.226481915,0.0,0.0
2018-09-11 19:21:35.240,-0.042,-0.316,-0.3183333333333333,1.2519823166666666,1.18660465,13.860065333333337,97754.46777666669,-1195666.6666666667,-31000.0,-1428333.3333333333,38.43666666666667,1.5249999165,-289.69544985,24.786842345,68.5,4.349235415500001,46.2733039825,0.154268622,0.0,0.0
2018-09-11 19:21:35.280,-0.019,-0.308,-0.32,1.18660465,1.2552512,13.68027675,97752.35596,-1005000.0,-32000.0,-1425000.0,38.44,1.449999928,-290.2410584,25.3445549,69.0,4.4489066600000005,46.268985745,2.535019159,0.0,0.0
2018-09-11 19:21:35.320,-0.0355,-0.312,-0.3205,1.162088025,1.26505785,13.665566775,97752.35596,-1005000.0,-32000.0,-1425000.0,38.44,1.40749993875,-290.2410584,25.61145973,69.25,4.5485779045,46.26466750749999,4.915769696,0.0,0.0
2018-09-11 19:21:35.360,-0.052,-0.316,-0.321,1.1375714,1.2748645,13.6508568,97752.35596,-1005000.0,-32000.0,-1425000.0,38.44,1.3649999495,-290.2410584,25.87836456,69.5,4.648249149,46.26034927,7.296520233,0.0,0.0
2018-09-11 19:21:35.400,-0.0566666666666666,-0.3076666666666666,-0.3186666666666666,1.0983448,1.2715956166666669,13.2782041,97752.40885666666,-1124000.0,-30666.666666666668,-1423000.0,38.43666666666667,1.32249996025,-290.2410584,26.145269390000003,69.75,4.648249149,46.26034927,7.296520233,0.0,0.0
2018-09-11 19:21:35.440,-0.0613333333333333,-0.2993333333333333,-0.3163333333333333,1.0591182,1.2683267333333337,12.9055514,97752.46175333334,-1243000.0,-29333.33333333333,-1421000.0,38.43333333333333,1.279999971,-290.2410584,26.41217422,70.0,4.648249149,46.26034927,7.296520233,0.0,0.0
2018-09-11 19:21:35.480,-0.066,-0.291,-0.314,1.0198916,1.26505785,12.5328987,97752.51465,-1362000.0,-28000.0,-1419000.0,38.43,1.199999988,-293.0321808,26.93705368,70.5,4.648249149,46.26034927,7.296520233,0.0,0.0
2018-09-11 19:21:35.520,-0.0535,-0.2895,-0.32,0.9414384,1.260154525,12.586835275,97747.18933,-1362000.0,-28000.0,-1419000.0,38.43,1.120000005,-295.8233032,27.46193314,71.0,4.648249149,46.26034927,7.296520233,0.0,0.0
2018-09-11 19:21:35.560,-0.041,-0.288,-0.326,0.8629852,1.2552512,12.64077185,97741.86401,-1362000.0,-28000.0,-1419000.0,38.43,0.939999998,-295.8233032,28.44213486,72.0,4.648249149,46.26034927,7.296520233,0.0,0.0
2018-09-11 19:21:35.600,-0.034,-0.2903333333333333,-0.3283333333333333,0.9087495666666666,1.1702602333333334,12.6701918,97741.86401,-1131333.3333333333,-31000.0,-1397000.0,38.43,0.939999998,-295.8233032,28.44213486,72.0,4.648249149,46.26034927,7.296520233,0.0,0.0
2018-09-11 19:21:35.640,-0.027,-0.2926666666666666,-0.3306666666666666,0.9545139333333332,1.0852692666666666,12.69961175,97741.86401,-900666.6666666667,-34000.0,-1375000.0,38.43,0.939999998,-295.8233032,28.44213486,72.0,4.648249149,46.26034927,7.296520233,0.0,0.0
2018-09-11 19:21:35.680,-0.02,-0.295,-0.333,1.0002783,1.0002783,12.7290317,97741.86401,-670000.0,-37000.0,-1353000.0,38.43,0.769999981,-297.0457153,29.41484451,73.0,4.403729439,46.49985504,17.17043114,0.0,0.0
2018-09-11 19:21:35.720,0.002,-0.293,-0.328,0.83356525,1.18660465,12.2583125,97748.45581,-1056000.0,-27000.0,-1341000.0,38.43,0.769999981,-297.0457153,29.41484451,73.0,4.403729439,46.49985504,17.17043114,0.0,0.0
2018-09-11 19:21:35.760,-0.007,-0.295,-0.324,0.7976075333333333,1.1964113,12.2779258,97744.59432,-988666.6666666666,-31333.33333333333,-1325333.3333333333,38.43,0.6799999775000001,-297.0457153,29.871864315000003,73.5,4.403729439,46.49985504,17.17043114,0.0,0.0
2018-09-11 19:21:35.800,-0.016,-0.297,-0.32,0.7616498166666666,1.20621795,12.2975391,97740.73283,-921333.3333333334,-35666.666666666664,-1309666.6666666667,38.43,0.589999974,-297.0457153,30.32888412,74.0,4.403729439,46.49985504,17.17043114,0.0,0.0
2018-09-11 19:21:35.840,-0.025,-0.299,-0.316,0.7256921,1.2160246,12.3171524,97736.87134,-854000.0,-40000.0,-1294000.0,38.43,0.589999974,-297.0457153,30.32888412,74.0,4.403729439,46.49985504,17.17043114,0.0,0.0
2018-09-11 19:21:35.880,-0.057,-0.303,-0.317,0.73549875,1.14737805,12.4740588,97738.168335,-594000.0,-48000.0,-1278000.0,38.43,0.429999977,-301.2443542,31.22371292,75.0,4.403729439,46.49985504,17.17043114,0.0,0.0
2018-09-11 19:21:35.920,-0.089,-0.307,-0.318,0.7453054,1.0787315,12.6309652,97739.46533,-334000.0,-56000.0,-1262000.0,38.43,0.429999977,-301.2443542,31.22371292,75.0,4.403729439,46.49985504,17.17043114,0.0,0.0
2018-09-11 19:21:35.960,-0.0842499999999999,-0.304,-0.32075,0.7453054,1.0517632125,12.645675175,97738.1164525,-417750.0,-50250.0,-1272500.0,38.43,0.429999977,-301.2443542,31.22371292,75.0,4.403729439,46.49985504,17.17043114,0.0,0.0
2018-09-11 19:21:36.000,-0.0795,-0.301,-0.3235,0.7453054,1.024794925,12.66038515,97736.767575,-501500.0,-44500.0,-1283000.0,38.43,0.25999999,-301.2443542,32.06772232,76.0,4.403729439,46.49985504,17.17043114,0.0,0.0
2018-09-11 19:21:36.040,-0.07475,-0.298,-0.32625,0.7453054,0.9978266375,12.675095125,97735.4186975,-585250.0,-38750.0,-1293500.0,38.43,0.25999999,-301.2443542,32.06772232,76.0,4.403729439,46.49985504,17.17043114,0.0,0.0
2018-09-11 19:21:36.080,-0.07,-0.295,-0.329,0.7453054,0.97085835,12.6898051,97734.06982,-669000.0,-33000.0,-1304000.0,38.43,0.25999999,-301.2443542,32.06772232,76.0,4.403729439,46.49985504,17.17043114,0.0,0.0
2018-09-11 19:21:36.120,-0.057,-0.293,-0.33,0.6864655,0.95124505,12.596641925,97728.796385,-638000.0,-39000.0,-1265500.0,38.43,0.1849999945,-299.57876585,32.481372835,76.0,4.1896790265,46.628593445,23.131063465,0.0,0.0
2018-09-11 19:21:36.160,-0.044,-0.291,-0.331,0.6276256,0.93163175,12.50347875,97723.52295,-607000.0,-45000.0,-1227000.0,38.43,0.109999999,-297.9131775,32.89502335,76.0,3.975628614,46.75733185,29.09169579,0.0,0.0
2018-09-11 19:21:36.200,-0.038,-0.28,-0.3305,0.603108975,0.907115125,12.48386545,97723.52295,-607000.0,-45000.0,-1227000.0,38.43,-0.049999997,-297.9131775,33.66006851,77.0,3.975628614,46.75733185,29.09169579,0.0,0.0
2018-09-11 19:21:36.240,-0.032,-0.269,-0.33,0.57859235,0.8825985,12.46425215,97723.52295,-607000.0,-45000.0,-1227000.0,38.43,-0.049999997,-297.9131775,33.66006851,77.0,3.975628614,46.75733185,29.09169579,0.0,0.0
2018-09-11 19:21:36.280,-0.0256666666666666,-0.2643333333333333,-0.3286666666666666,0.5360968666666667,0.9545139333333332,12.30734575,97722.08048666666,-722666.6666666666,-45666.66666666666,-1211333.3333333333,38.43,-0.1249999924999999,-297.07536315000004,34.038036345,77.5,3.975628614,46.75733185,29.09169579,0.0,0.0
2018-09-11 19:21:36.320,-0.0193333333333333,-0.2596666666666666,-0.3273333333333333,0.4936013833333333,1.0264293666666666,12.15043935,97720.63802333332,-838333.3333333334,-46333.333333333336,-1195666.6666666667,38.43,-0.199999988,-296.2375488,34.41600418,78.0,3.975628614,46.75733185,29.09169579,0.0,0.0
2018-09-11 19:21:36.360,-0.013,-0.255,-0.326,0.4511059,1.0983448,11.99353295,97719.19556,-954000.0,-47000.0,-1180000.0,38.43,-0.199999988,-296.2375488,34.41600418,78.0,3.975628614,46.75733185,29.09169579,0.0,0.0
2018-09-11 19:21:36.400,0.006,-0.257,-0.3275,0.4952358249999999,1.04931155,12.037662875,97725.65613,-974000.0,-41500.0,-1188000.0,38.43,-0.340000004,-296.2375488,35.09962845,79.0,3.975628614,46.75733185,29.09169579,0.0,0.0
2018-09-11 19:21:36.440,0.025,-0.259,-0.329,0.53936575,1.0002783,12.0817928,97732.1167,-994000.0,-36000.0,-1196000.0,38.43,-0.340000004,-296.2375488,35.09962845,79.0,3.236249924,47.22128677,36.44267273,0.0,0.0
2018-09-11 19:21:36.480,0.018,-0.2636666666666666,-0.3246666666666666,0.5426346333333333,0.9610517,12.196203716666668,97728.82283666666,-984666.6666666666,-34333.333333333336,-1200000.0,38.43,-0.340000004,-296.2375488,35.09962845,79.0,3.236249924,47.22128677,36.44267273,0.0,0.0
2018-09-11 19:21:36.520,0.011,-0.2683333333333333,-0.3203333333333333,0.5459035166666667,0.9218251,12.310614633333334,97725.52897333332,-975333.3333333334,-32666.666666666668,-1204000.0,38.43,-0.479999989,-296.7077332,35.76816177,79.0,3.236249924,47.22128677,36.44267273,0.0,0.0
2018-09-11 19:21:36.560,0.004,-0.273,-0.316,0.5491724,0.8825985,12.42502555,97722.23511,-966000.0,-31000.0,-1208000.0,38.43,-0.5450000015,-296.7077332,36.071285245,79.5,3.236249924,47.22128677,36.44267273,0.0,0.0
2018-09-11 19:21:36.600,-0.0146666666666666,-0.27,-0.311,0.5164835666666667,0.9577828166666666,12.349841233333336,97721.03068333332,-945666.6666666666,-35333.333333333336,-1198333.3333333333,38.43,-0.610000014,-296.7077332,36.37440872,80.0,3.236249924,47.22128677,36.44267273,0.0,0.0
2018-09-11 19:21:36.640,-0.0333333333333333,-0.267,-0.306,0.4837947333333333,1.0329671333333337,12.274656916666666,97719.82625666668,-925333.3333333334,-39666.66666666666,-1188666.6666666667,38.43,-0.610000014,-296.7077332,36.37440872,80.0,3.236249924,47.22128677,36.44267273,0.0,0.0
2018-09-11 19:21:36.680,-0.052,-0.264,-0.301,0.4511059,1.10815145,12.1994726,97718.62183,-905000.0,-44000.0,-1179000.0,38.43,-0.610000014,-296.7077332,36.37440872,80.0,3.236249924,47.22128677,36.44267273,0.0,0.0
2018-09-11 19:21:36.720,-0.0765,-0.2605,-0.3025,0.475622525,1.044408225,12.067082825,97721.57288,-928500.0,-39500.0,-1180500.0,38.43,-0.719999969,-294.26651,36.95672226,81.0,2.671341181,47.89102173,42.16591644,0.0,0.0
2018-09-11 19:21:36.760,-0.101,-0.257,-0.304,0.50013915,0.980665,11.93469305,97724.52393,-952000.0,-35000.0,-1182000.0,38.43,-0.719999969,-294.26651,36.95672226,81.0,2.671341181,47.89102173,42.16591644,0.0,0.0
2018-09-11 19:21:36.800,-0.1045,-0.2525,-0.311,0.485429175,0.946341725,11.880756475,97724.66431,-961500.0,-32500.0,-1187000.0,38.43,-0.7749999759999999,-294.26651,37.220149995,81.0,2.671341181,47.89102173,42.16591644,0.0,0.0
2018-09-11 19:21:36.840,-0.108,-0.248,-0.318,0.4707192,0.91201845,11.8268199,97724.80469,-971000.0,-30000.0,-1192000.0,38.43,-0.829999983,-294.26651,37.48357773,81.0,2.671341181,47.89102173,42.16591644,0.0,0.0
2018-09-11 19:21:36.880,-0.1076666666666666,-0.242,-0.3186666666666666,0.4184170666666666,1.0329671333333337,11.470511616666666,97720.74585,-970333.3333333334,-29000.0,-1187000.0,38.43,-0.919999957,-305.7039185,37.98949051,82.0,2.671341181,47.89102173,42.16591644,0.0,0.0
2018-09-11 19:21:36.920,-0.1073333333333333,-0.236,-0.3193333333333333,0.3661149333333333,1.1539158166666668,11.114203333333334,97716.68701,-969666.6666666666,-28000.0,-1182000.0,38.43,-0.93999996775,-305.7039185,38.10076523000001,82.0,2.671341181,47.89102173,42.16591644,0.0,0.0
2018-09-11 19:21:36.960,-0.107,-0.23,-0.32,0.3138128,1.2748645,10.75789505,97712.62817,-969000.0,-27000.0,-1177000.0,38.43,-0.9599999785,-305.7039185,38.212039950000005,82.0,2.671341181,47.89102173,42.16591644,0.0,0.0
2018-09-11 19:21:37.000,-0.108,-0.2345,-0.3329999999999999,0.328522775,1.083634825,11.145257725,97717.43164,-937500.0,-28000.0,-1168500.0,38.425,-0.97999998925,-305.7039185,38.32331467,82.0,2.671341181,47.89102173,42.16591644,0.0,0.0
2018-09-11 19:21:37.040,-0.109,-0.239,-0.346,0.34323275,0.89240515,11.5326204,97722.23511,-906000.0,-29000.0,-1160000.0,38.42,-1.0,-305.7039185,38.43458939,82.0,2.671341181,47.89102173,42.16591644,0.0,0.0
2018-09-11 19:21:37.080,-0.113,-0.2375,-0.34775,0.34323275,0.8899534874999999,11.4933938,97721.0433975,-803750.0,-28500.0,-1153500.0,38.42,-1.059999943,-307.7383118,38.87522507,82.0,1.583538532,46.60654068,50.42983246,0.0,0.0
2018-09-11 19:21:37.120,-0.1169999999999999,-0.236,-0.3495,0.34323275,0.887501825,11.4541672,97719.851685,-701500.0,-28000.0,-1147000.0,38.42,-1.059999943,-307.7383118,38.87522507,82.0,1.583538532,46.60654068,50.42983246,0.0,0.0
2018-09-11 19:21:37.160,-0.121,-0.2345,-0.3512499999999999,0.34323275,0.8850501625,11.4149406,97718.6599725,-599250.0,-27500.0,-1140500.0,38.42,-1.059999943,-307.7383118,38.87522507,82.0,1.583538532,46.60654068,50.42983246,0.0,0.0
2018-09-11 19:21:37.200,-0.125,-0.233,-0.353,0.34323275,0.8825985,11.375714,97717.46826,-497000.0,-27000.0,-1134000.0,38.42,-1.110000014,-307.7383118,39.27247238,83.0,1.583538532,46.60654068,50.42983246,0.0,0.0
2018-09-11 19:21:37.240,-0.093,-0.229,-0.353,0.18632635,1.10815145,11.32668075,97717.46826,-497000.0,-27000.0,-1134000.0,38.42,-1.110000014,-307.7383118,39.27247238,83.0,1.583538532,46.60654068,50.42983246,0.0,0.0
2018-09-11 19:21:37.280,-0.077,-0.229,-0.3533333333333333,0.196133,1.046042666666667,11.411671716666666,97716.30655666666,-618666.6666666666,-25333.33333333333,-1120666.6666666667,38.42,-1.139999986,-321.3657227,39.63617325,83.0,1.583538532,46.60654068,50.42983246,0.0,0.0
2018-09-11 19:21:37.320,-0.061,-0.229,-0.3536666666666666,0.20593965,0.9839338833333332,11.496662683333334,97715.14485333332,-740333.3333333334,-23666.666666666668,-1107333.3333333333,38.42,-1.139999986,-321.3657227,39.63617325,83.0,1.583538532,46.60654068,50.42983246,0.0,0.0
2018-09-11 19:21:37.360,-0.045,-0.229,-0.354,0.2157463,0.9218251,11.58165365,97713.98315,-862000.0,-22000.0,-1094000.0,38.42,-1.139999986,-321.3657227,39.63617325,83.0,1.583538532,46.60654068,50.42983246,0.0,0.0
2018-09-11 19:21:37.400,-0.0436666666666666,-0.23,-0.353,0.2320907166666666,0.9218251,11.64049355,97712.25585666668,-874333.3333333334,-17666.666666666668,-1111333.3333333333,38.42,-1.169999957,-321.3657227,39.97507095,84.0,1.583538532,46.60654068,50.42983246,0.0,0.0
2018-09-11 19:21:37.440,-0.0423333333333333,-0.231,-0.352,0.2484351333333333,0.9218251,11.69933345,97710.52856333333,-886666.6666666666,-13333.333333333334,-1128666.6666666667,38.42,-1.169999957,-321.3657227,39.97507095,84.0,1.583538532,46.60654068,50.42983246,0.0,0.0
2018-09-11 19:21:37.480,-0.041,-0.232,-0.351,0.26477955,0.9218251,11.75817335,97708.80127,-899000.0,-9000.0,-1146000.0,38.42,-1.169999957,-332.2151184,40.28874588,84.0,1.583538532,46.60654068,50.42983246,0.0,0.0
2018-09-11 19:21:37.520,-0.0405,-0.2305,-0.351,0.2991028249999999,0.9218251,11.684623475,97708.80127,-891000.0,-9500.0,-1139000.0,38.42,-1.169999957,-332.2151184,40.28874588,84.0,-0.605117142,45.36443329,61.74069595,0.0,0.0
2018-09-11 19:21:37.560,-0.04,-0.229,-0.351,0.3334261,0.9218251,11.6110736,97708.80127,-883000.0,-10000.0,-1132000.0,38.42,-1.169999957,-332.2151184,40.56085587,84.0,-0.605117142,45.36443329,61.74069595,0.0,0.0
2018-09-11 19:21:37.600,-0.018,-0.2285,-0.348,0.2941995,1.024794925,11.3953273,97710.48279,-887500.0,-5000.000000000069,-1131500.0,38.42,-1.169999957,-332.2151184,40.56085587,84.0,-0.605117142,45.36443329,61.74069595,0.0,0.0
2018-09-11 19:21:37.640,0.004,-0.228,-0.345,0.2549729,1.12776475,11.179581,97712.16431,-892000.0,-1.39e-10,-1131000.0,38.42,-1.169999957,-339.293869,40.680118565,84.0,-0.605117142,45.36443329,61.74069595,0.0,0.0
2018-09-11 19:21:37.680,-0.0005,-0.2365,-0.3435,0.2549729,0.897308475,11.370810675,97712.16431,-892000.0,-1.39e-10,-1131000.0,38.42,-1.169999957,-346.3726196,40.79938126,84.0,-0.605117142,45.36443329,61.74069595,0.0,0.0
2018-09-11 19:21:37.720,-0.005,-0.245,-0.342,0.2549729,0.6668522,11.56204035,97712.16431,-892000.0,-1.39e-10,-1131000.0,38.42,-1.169999957,-346.3726196,40.79938126,84.0,-0.605117142,45.36443329,61.74069595,0.0,0.0
2018-09-11 19:21:37.760,-0.0073333333333333,-0.2466666666666666,-0.3353333333333333,0.2778550833333333,0.7126165666666666,11.548964816666668,97710.78898333332,-896666.6666666666,-1.3866666666666668e-10,-1129000.0,38.41666666666666,-1.149999976,-346.3726196,41.01771164,85.0,-0.605117142,45.36443329,61.74069595,0.0,0.0
2018-09-11 19:21:37.800,-0.0096666666666666,-0.2483333333333333,-0.3286666666666666,0.3007372666666666,0.7583809333333333,11.535889283333333,97709.41365666666,-901333.3333333334,-1.3833333333333332e-10,-1127000.0,38.41333333333333,-1.149999976,-346.3726196,41.01771164,85.0,-0.605117142,45.36443329,61.74069595,0.0,0.0
2018-09-11 19:21:37.840,-0.012,-0.25,-0.322,0.32361945,0.8041453,11.52281375,97708.03833,-906000.0,-1.38e-10,-1125000.0,38.41,-1.149999976,-346.3726196,41.01771164,85.0,-0.605117142,45.36443329,61.74069595,0.0,0.0
2018-09-11 19:21:37.880,-0.003,-0.2586666666666666,-0.3173333333333333,0.30400615,0.8008764166666666,11.506469333333332,97710.06673333333,-899000.0,-1.3933333333333332e-10,-1136666.6666666667,38.41,-1.129999995,-350.52900695,41.11078644,85.0,-1.3342188894999998,45.44311333,66.169805525,0.0,0.0
2018-09-11 19:21:37.920,0.0059999999999999,-0.2673333333333333,-0.3126666666666666,0.28439285,0.7976075333333333,11.490124916666666,97712.09513666668,-892000.0,-1.4066666666666667e-10,-1148333.3333333333,38.41,-1.110000014,-354.6853943,41.20386124,85.0,-2.063320637,45.52179337,70.5989151,0.0,0.0
2018-09-11 19:21:37.960,0.015,-0.276,-0.308,0.26477955,0.79433865,11.4737805,97714.12354,-885000.0,-1.42e-10,-1160000.0,38.41,-1.110000014,-354.6853943,41.20386124,85.0,-2.063320637,45.52179337,70.5989151,0.0,0.0
2018-09-11 19:21:38.000,0.0113333333333333,-0.2786666666666667,-0.3046666666666666,0.2353595999999999,0.9022118,11.565309233333334,97714.61589,-891666.6666666666,666.666666666572,-1150333.3333333333,38.41,-1.069999933,-354.6853943,41.35065842,85.0,-2.063320637,45.52179337,70.5989151,0.0,0.0
2018-09-11 19:21:38.040,0.0076666666666666,-0.2813333333333333,-0.3013333333333333,0.20593965,1.01008495,11.656837966666666,97715.10824,-898333.3333333334,1333.333333333286,-1140666.6666666667,38.41,-1.069999933,-354.6853943,41.35065842,85.0,-2.063320637,45.52179337,70.5989151,0.0,0.0
2018-09-11 19:21:38.080,0.004,-0.284,-0.298,0.1765197,1.1179581,11.7483667,97715.60059,-905000.0,2000.0,-1131000.0,38.41,-1.0399999615,-359.42382815,41.413002015,85.0,-2.063320637,45.52179337,70.5989151,0.0,0.0
2018-09-11 19:21:38.120,0.0085,-0.2885,-0.298,0.196133,1.12776475,11.763076675,97713.076785,-910000.0,2000.0,-1138000.0,38.41,-1.00999999,-364.162262,41.47534561,85.0,-2.063320637,45.52179337,70.5989151,0.0,0.0
2018-09-11 19:21:38.160,0.013,-0.293,-0.298,0.2157463,1.1375714,11.77778665,97710.55298,-915000.0,2000.0,-1145000.0,38.41,-0.9699999985,-364.162262,41.515392305,85.0,-2.063320637,45.52179337,70.5989151,0.0,0.0
2018-09-11 19:21:38.200,0.0065,-0.299,-0.3045,0.2745862,0.91201845,11.929789725,97710.55298,-915000.0,2000.0,-1145000.0,38.41,-0.930000007,-364.162262,41.555439,85.0,-2.063320637,45.52179337,70.5989151,0.0,0.0
2018-09-11 19:21:38.240,0.0,-0.305,-0.311,0.3334261,0.6864655,12.0817928,97710.55298,-915000.0,2000.0,-1145000.0,38.41,-0.930000007,-364.162262,41.555439,85.0,-2.063320637,45.52179337,70.5989151,0.0,0.0
2018-09-11 19:21:38.280,-0.0003333333333333,-0.3043333333333333,-0.3076666666666666,0.32361945,0.8074141833333334,11.967381883333331,97712.22941333332,-873333.3333333334,5000.0,-1155666.6666666667,38.41,-0.8849999905,-372.11332705,41.58036423,85.0,-2.063320637,45.52179337,70.5989151,0.0,0.0
2018-09-11 19:21:38.320,-0.0006666666666666,-0.3036666666666666,-0.3043333333333333,0.3138128,0.9283628666666668,11.852970966666668,97713.90584666666,-831666.6666666666,8000.0,-1166333.3333333333,38.41,-0.839999974,-380.0643921,41.60528946,85.0,-2.063320637,45.52179337,70.5989151,0.0,0.0
2018-09-11 19:21:38.360,-0.001,-0.303,-0.301,0.30400615,1.04931155,11.73856005,97715.58228,-790000.0,11000.0,-1177000.0,38.41,-0.839999974,-380.0643921,41.60528946,85.0,-2.241140366,46.08206177,80.56597137,0.0,0.0
2018-09-11 19:21:38.400,-0.0196666666666666,-0.309,-0.2966666666666666,0.2811239666666666,0.980665,12.065448383333331,97716.84570666667,-831666.6666666666,7333.333333333285,-1175333.3333333333,38.41,-0.75,-380.0643921,41.61796951,85.0,-2.241140366,46.08206177,80.56597137,0.0,0.0
2018-09-11 19:21:38.440,-0.0383333333333333,-0.315,-0.2923333333333333,0.2582417833333333,0.91201845,12.392336716666668,97718.10913333332,-873333.3333333334,3666.6666666665706,-1173666.6666666667,38.41,-0.75,-380.0643921,41.61796951,85.0,-2.241140366,46.08206177,80.56597137,0.0,0.0
2018-09-11 19:21:38.480,-0.057,-0.321,-0.288,0.2353596,0.8433719,12.71922505,97719.37256,-915000.0,-1.44e-10,-1172000.0,38.41,-0.639999986,-412.2810364,41.59501266,85.0,-2.241140366,46.08206177,80.56597137,0.0,0.0
2018-09-11 19:21:38.520,-0.0579999999999999,-0.322,-0.284,0.3138128,1.0002783,12.792774925,97718.344115,-779000.0,3999.999999999928,-1182500.0,38.41,-0.639999986,-412.2810364,41.59501266,85.0,-2.241140366,46.08206177,80.56597137,0.0,0.0
2018-09-11 19:21:38.560,-0.059,-0.323,-0.28,0.392266,1.1571847,12.8663248,97717.31567,-643000.0,8000.0,-1193000.0,38.41,-0.639999986,-412.2810364,41.59501266,85.0,-2.241140366,46.08206177,80.56597137,0.0,0.0
2018-09-11 19:21:38.600,-0.066,-0.3203333333333333,-0.2883333333333333,0.4053415333333333,1.20621795,12.961122416666669,97719.20165666666,-778333.3333333334,13000.0,-1198666.6666666667,38.41,-0.529999971,-412.2810364,41.52394485,85.0,-2.241140366,46.08206177,80.56597137,0.0,0.0
2018-09-11 19:21:38.640,-0.073,-0.3176666666666666,-0.2966666666666667,0.4184170666666666,1.2552512,13.055920033333331,97721.08764333332,-913666.6666666667,18000.0,-1204333.3333333333,38.41,-0.529999971,-412.2810364,41.52394485,85.0,-2.241140366,46.08206177,80.56597137,0.0,0.0
2018-09-11 19:21:38.680,-0.08,-0.315,-0.305,0.4314926,1.30428445,13.15071765,97722.97363,-1049000.0,23000.0,-1210000.0,38.41,-0.4933333096666666,-413.76234946666665,41.488740283333335,85.0,-2.241140366,46.08206177,80.56597137,0.0,0.0
2018-09-11 19:21:38.720,-0.0905,-0.315,-0.306,0.465815875,1.22583125,13.22917085,97724.127195,-1049000.0,23000.0,-1210000.0,38.41,-0.4566666483333333,-415.24366253333335,41.45353571666666,85.0,-2.241140366,46.08206177,80.56597137,0.0,0.0
2018-09-11 19:21:38.760,-0.101,-0.315,-0.307,0.50013915,1.14737805,13.30762405,97725.28076,-1049000.0,23000.0,-1210000.0,38.41,-0.419999987,-416.7249756,41.41833115,85.0,-2.241140366,46.08206177,80.56597137,0.0,0.0
2018-09-11 19:21:38.800,-0.1045,-0.314,-0.3145,0.4560092249999999,1.1081514499999998,13.567500275,97724.017335,-424500.0,19500.0,-1210500.0,38.41,-0.299999982,-416.7249756,41.25605392,85.0,-1.744438887,45.14921951,91.27550507,0.0,0.0
2018-09-11 19:21:38.840,-0.108,-0.313,-0.322,0.4118793,1.06892485,13.8273765,97722.75391,200000.0,16000.0,-1211000.0,38.41,-0.24499999,-430.6298218,41.1635437,85.0,-1.744438887,45.14921951,91.27550507,0.0,0.0
2018-09-11 19:21:38.880,-0.1193333333333333,-0.3136666666666666,-0.3223333333333333,0.4249548333333333,1.124495866666667,13.814300966666666,97722.75391,77666.66666666667,16666.666666666668,-1207333.3333333333,38.41,-0.189999998,-444.534668,41.07103348,85.0,-1.744438887,45.14921951,91.27550507,0.0,0.0
2018-09-11 19:21:38.920,-0.1306666666666666,-0.3143333333333333,-0.3226666666666666,0.4380303666666666,1.1800668833333332,13.801225433333334,97722.75391,-44666.66666666666,17333.333333333332,-1203666.6666666667,38.41,-0.189999998,-444.534668,41.07103348,85.0,-1.744438887,45.14921951,91.27550507,0.0,0.0
2018-09-11 19:21:38.960,-0.142,-0.315,-0.323,0.4511059,1.2356379,13.7881499,97722.75391,-167000.0,18000.0,-1200000.0,38.41,-0.139999997,-444.534668,40.950187685,84.5,-1.744438887,45.14921951,91.27550507,0.0,0.0
2018-09-11 19:21:39.000,-0.127,-0.3143333333333333,-0.3246666666666666,0.4641814333333333,1.140840283333333,13.882947516666666,97726.74357333333,-166666.66666666666,19666.666666666668,-1203333.3333333333,38.41,-0.089999996,-444.534668,40.82934189,84.0,-1.744438887,45.14921951,91.27550507,0.0,0.0
2018-09-11 19:21:39.040,-0.112,-0.3136666666666666,-0.3263333333333333,0.4772569666666666,1.046042666666667,13.977745133333334,97730.73323666668,-166333.33333333334,21333.33333333333,-1206666.6666666667,38.41,-0.089999996,-444.534668,40.82934189,84.0,-1.622729898,43.67962646,97.85011292,0.0,0.0
2018-09-11 19:21:39.080,-0.097,-0.313,-0.328,0.4903325,0.95124505,14.07254275,97734.7229,-166000.0,23000.0,-1210000.0,38.41,0.01,-464.9543762,40.54368973,84.0,-1.622729898,43.67962646,97.85011292,0.0,0.0
2018-09-11 19:21:39.120,-0.082,-0.311,-0.3273333333333333,0.4478370166666666,1.0395049,13.843720916666667,97734.58252,-326000.0,28333.33333333333,-1217666.6666666667,38.406666666666666,0.01,-464.9543762,40.54368973,84.0,-1.622729898,43.67962646,97.85011292,0.0,0.0
2018-09-11 19:21:39.160,-0.067,-0.309,-0.3266666666666666,0.4053415333333333,1.12776475,13.614899083333333,97734.44214,-486000.0,33666.666666666664,-1225333.3333333333,38.40333333333333,0.039999998,-464.9543762,40.43430964333333,84.0,-1.622729898,43.67962646,97.85011292,0.0,0.0
2018-09-11 19:21:39.200,-0.052,-0.307,-0.326,0.36284605,1.2160246,13.38607725,97734.30176,-646000.0,39000.0,-1233000.0,38.4,0.069999996,-464.9543762,40.32492955666667,84.0,-1.622729898,43.67962646,97.85011292,0.0,0.0
2018-09-11 19:21:39.240,-0.0345,-0.309,-0.325,0.392266,1.073828175,13.3174307,97734.30176,-646000.0,39000.0,-1233000.0,38.4,0.099999994,-464.9543762,40.21554947,84.0,-1.622729898,43.67962646,97.85011292,0.0,0.0
2018-09-11 19:21:39.280,-0.017,-0.311,-0.324,0.42168595,0.93163175,13.24878415,97734.30176,-646000.0,39000.0,-1233000.0,38.4,0.179999992,-474.3669434,39.84898758,83.0,-1.622729898,43.67962646,97.85011292,0.0,0.0
2018-09-11 19:21:39.320,-0.0135,-0.318,-0.3235,0.387362675,0.926728425,13.292914075,97733.221435,-305000.0,32000.0,-1216500.0,38.4,0.179999992,-474.3669434,39.84898758,83.0,-1.622729898,43.67962646,97.85011292,0.0,0.0
2018-09-11 19:21:39.360,-0.01,-0.325,-0.323,0.3530394,0.9218251,13.337044,97732.14111,36000.0,25000.0,-1200000.0,38.4,0.219999991,-474.3669434,39.64467621,83.0,-1.5116831065,43.438947675,102.18100741,0.0,0.0
2018-09-11 19:21:39.400,-0.0034999999999999,-0.329,-0.3145,0.357942725,1.0198916,13.479240425,97728.75366,-152000.0,26000.0,-1206000.0,38.4,0.25999999,-474.3669434,39.44036484,83.0,-1.400636315,43.19826889,106.5119019,0.0,0.0
2018-09-11 19:21:39.440,0.003,-0.333,-0.306,0.36284605,1.1179581,13.62143685,97725.36621,-340000.0,27000.0,-1212000.0,38.4,0.299999997,-484.5106049,39.224094390000005,83.0,-1.400636315,43.19826889,106.5119019,0.0,0.0
2018-09-11 19:21:39.480,0.0003333333333333,-0.3333333333333333,-0.3016666666666666,0.3857282333333333,1.046042666666667,13.68027675,97730.94685666666,-220666.6666666667,24666.666666666668,-1204000.0,38.4,0.340000004,-494.6542664,39.00782394,83.0,-1.400636315,43.19826889,106.5119019,0.0,0.0
2018-09-11 19:21:39.520,-0.0023333333333333,-0.3336666666666666,-0.2973333333333333,0.4086104166666666,0.9741272333333334,13.73911665,97736.52750333332,-101333.33333333334,22333.33333333333,-1196000.0,38.4,0.340000004,-494.6542664,39.00782394,83.0,-1.400636315,43.19826889,106.5119019,0.0,0.0
2018-09-11 19:21:39.560,-0.005,-0.334,-0.293,0.4314926,0.9022118,13.79795655,97742.10815,18000.0,20000.0,-1188000.0,38.4,0.409999996,-494.6542664,38.52170944,82.0,-1.400636315,43.19826889,106.5119019,0.0,0.0
2018-09-11 19:21:39.600,-0.0065,-0.3409999999999999,-0.29,0.4511059,0.8776951749999999,14.077446075,97736.28845,-64000.0,20500.0,-1193500.0,38.4,0.409999996,-494.6542664,38.52170944,82.0,-1.400636315,43.19826889,106.5119019,0.0,0.0
2018-09-11 19:21:39.640,-0.008,-0.348,-0.287,0.4707192,0.85317855,14.3569356,97730.46875,-146000.0,21000.0,-1199000.0,38.4,0.409999996,-494.6542664,38.52170944,82.0,-1.400636315,43.19826889,106.5119019,0.0,0.0
2018-09-11 19:21:39.680,-0.0026666666666666,-0.3423333333333333,-0.2833333333333333,0.4380303666666666,0.9741272333333332,14.17060925,97731.09131,-198333.3333333333,24000.0,-1209333.3333333333,38.4,0.469999999,-507.9164429,38.00866318,82.0,-1.400636315,43.19826889,106.5119019,0.0,0.0
2018-09-11 19:21:39.720,0.0026666666666666,-0.3366666666666666,-0.2796666666666667,0.4053415333333333,1.0950759166666666,13.9842829,97731.71387,-250666.6666666667,27000.0,-1219666.6666666667,38.4,0.469999999,-507.9164429,38.00866318,82.0,-1.400636315,43.19826889,106.5119019,0.0,0.0
2018-09-11 19:21:39.760,0.008,-0.331,-0.276,0.3726527,1.2160246,13.79795655,97732.33643,-303000.0,30000.0,-1230000.0,38.4,0.469999999,-507.9164429,38.00866318,82.0,-1.400636315,43.19826889,106.5119019,0.0,0.0
2018-09-11 19:21:39.800,-0.0013333333333333,-0.33,-0.2776666666666667,0.38245935,1.1604535833333334,13.765267716666669,97734.85107666666,-506000.0,31333.33333333333,-1225000.0,38.4,0.529999971,-507.9164429,37.45060349,81.0,-0.8055426625000001,43.534564970000005,112.0280228,0.0,0.0
2018-09-11 19:21:39.840,-0.0106666666666666,-0.329,-0.2793333333333334,0.392266,1.1048825666666666,13.732578883333334,97737.36572333334,-709000.0,32666.666666666668,-1220000.0,38.4,0.549999982,-513.8731995,37.14926529,80.5,-0.50799583625,43.70271301,114.78608325,0.0,0.0
2018-09-11 19:21:39.880,-0.02,-0.328,-0.281,0.40207265,1.04931155,13.69989005,97739.88037,-912000.0,34000.0,-1215000.0,38.4,0.569999993,-519.8299561,36.84792709,80.0,-0.21044901,43.87086105,117.5441437,0.0,0.0
2018-09-11 19:21:39.920,-0.077,-0.338,-0.289,0.4314926,0.980665,13.7489233,97740.2771,-758000.0,27000.0,-1225000.0,38.4,0.569999993,-519.8299561,36.84792709,80.0,-0.21044901,43.87086105,117.5441437,0.0,0.0
2018-09-11 19:21:39.960,-0.0577499999999999,-0.33625,-0.29125,0.4584608875,0.980665,13.72931,97738.964845,-659500.0,25500.0,-1225250.0,38.4,0.5849999785,-519.8299561,36.523799895,80.0,-0.21044901,43.87086105,117.5441437,0.0,0.0
2018-09-11 19:21:40.000,-0.0385,-0.3345,-0.2935,0.485429175,0.980665,13.7096967,97737.65259,-561000.0,24000.0,-1225500.0,38.4,0.599999964,-519.8299561,36.1996727,80.0,-0.21044901,43.87086105,117.5441437,0.0,0.0
2018-09-11 19:21:40.040,-0.01925,-0.33275,-0.2957499999999999,0.5123974625,0.980665,13.6900834,97736.340335,-462500.0,22500.0,-1225750.0,38.4,0.6149999795000001,-525.5055542,35.866523745,79.5,-0.21044901,43.87086105,117.5441437,0.0,0.0
2018-09-11 19:21:40.080,0.0,-0.331,-0.298,0.53936575,0.980665,13.6704701,97735.02808,-364000.0,21000.0,-1226000.0,38.4,0.629999995,-531.1811523,35.53337479,79.0,-0.21044901,43.87086105,117.5441437,0.0,0.0
2018-09-11 19:21:40.120,-0.0175,-0.3285,-0.3015,0.50013915,0.975761675,13.5724036,97734.707645,-753000.0,34500.0,-1255500.0,38.4,0.629999995,-531.1811523,35.53337479,79.0,-0.21044901,43.87086105,117.5441437,0.0,0.0
2018-09-11 19:21:40.160,-0.035,-0.326,-0.305,0.46091255,0.97085835,13.4743371,97734.38721,-1142000.0,48000.0,-1285000.0,38.4,0.629999995,-531.1811523,35.53337479,79.0,-0.21044901,43.87086105,117.5441437,0.0,0.0
2018-09-11 19:21:40.200,-0.0695,-0.325,-0.309,0.465815875,0.965955025,13.533177,97735.473635,-207500.0,29000.0,-1254500.0,38.4,0.644999981,-531.1811523,35.175800325,78.5,0.296916589,43.86701965,122.72939685,0.0,0.0
2018-09-11 19:21:40.240,-0.104,-0.324,-0.313,0.4707192,0.9610517,13.5920169,97736.56006,727000.0,10000.0,-1224000.0,38.4,0.659999967,-531.1811523,34.81822586,78.0,0.804282188,43.86317825,127.91465,0.0,0.0
2018-09-11 19:21:40.280,-0.111,-0.3206666666666666,-0.3126666666666666,0.46091255,1.0166227166666666,13.66066345,97736.56006,475000.0,12666.666666666666,-1235333.3333333333,38.4,0.664999962,-538.75637815,34.440414430000004,78.0,0.804282188,43.86317825,127.91465,0.0,0.0
2018-09-11 19:21:40.320,-0.118,-0.3173333333333333,-0.3123333333333333,0.4511059,1.0721937333333331,13.72931,97736.56006,223000.0,15333.333333333332,-1246666.6666666667,38.4,0.669999957,-546.331604,34.062603,78.0,0.804282188,43.86317825,127.91465,0.0,0.0
2018-09-11 19:21:40.360,-0.125,-0.314,-0.312,0.44129925,1.12776475,13.79795655,97736.56006,-29000.0,18000.0,-1258000.0,38.4,0.669999957,-546.331604,34.062603,78.0,0.804282188,43.86317825,127.91465,0.0,0.0
2018-09-11 19:21:40.400,-0.148,-0.3145,-0.312,0.4854291749999999,1.073828175,14.0627361,97740.286255,-720000.0,32000.0,-1252000.0,38.395,0.680000007,-546.331604,33.27783585,77.0,0.804282188,43.86317825,127.91465,0.0,0.0
2018-09-11 19:21:40.440,-0.171,-0.315,-0.312,0.5295591,1.0198916,14.32751565,97744.01245,-1411000.0,46000.0,-1246000.0,38.39,0.680000007,-546.331604,33.27783585,77.0,0.804282188,43.86317825,127.91465,0.0,0.0
2018-09-11 19:21:40.480,-0.1915,-0.307,-0.3165,0.4363959249999999,1.103248125,14.0431228,97746.520995,-1764000.0,49500.0,-1255000.0,38.39,0.680000007,-544.7280883999999,32.87346268,76.5,0.804282188,43.86317825,127.91465,0.0,0.0
2018-09-11 19:21:40.520,-0.212,-0.299,-0.321,0.34323275,1.18660465,13.75872995,97749.02954,-2117000.0,53000.0,-1264000.0,38.39,0.680000007,-543.1245728,32.46908951,76.0,0.804282188,43.86317825,127.91465,0.0,0.0
2018-09-11 19:21:40.560,-0.219,-0.2943333333333333,-0.3206666666666666,0.3366949833333333,1.2291001333333331,13.66066345,97752.08943666666,-1443000.0,37333.333333333336,-1237000.0,38.39,0.669999957,-543.1245728,31.6352272,75.0,0.804282188,43.86317825,127.91465,0.0,0.0
2018-09-11 19:21:40.600,-0.226,-0.2896666666666666,-0.3203333333333333,0.3301572166666666,1.2715956166666669,13.56259695,97755.14933333332,-769000.0,21666.666666666668,-1210000.0,38.39,0.669999957,-543.1245728,31.6352272,75.0,0.804282188,43.86317825,127.91465,0.0,0.0
2018-09-11 19:21:40.640,-0.233,-0.285,-0.32,0.32361945,1.3140911,13.46453045,97758.20923,-95000.0,6000.0,-1183000.0,38.39,0.669999957,-543.1245728,31.6352272,75.0,0.804282188,43.86317825,127.91465,0.0,0.0
2018-09-11 19:21:40.680,-0.2356666666666666,-0.2783333333333333,-0.3203333333333333,0.3268883333333333,1.1637224666666666,13.500488166666669,97751.60522666668,-422666.6666666667,11666.666666666668,-1188333.3333333333,38.39,0.659999967,-559.9449463,30.76553726,74.0,1.311320186,40.69569016,138.7654266,0.0,0.0
2018-09-11 19:21:40.720,-0.2383333333333333,-0.2716666666666666,-0.3206666666666666,0.3301572166666666,1.0133538333333334,13.536445883333332,97745.00122333333,-750333.3333333334,17333.333333333336,-1193666.6666666667,38.39,0.659999967,-559.9449463,30.76553726,74.0,1.311320186,40.69569016,138.7654266,0.0,0.0
2018-09-11 19:21:40.760,-0.241,-0.265,-0.321,0.3334261,0.8629852,13.5724036,97738.39722,-1078000.0,23000.0,-1199000.0,38.39,0.6499999765,-559.9449463,30.31589508,73.5,1.311320186,40.69569016,138.7654266,0.0,0.0
2018-09-11 19:21:40.800,-0.2333333333333333,-0.25,-0.314,0.2745862,0.9479761666666668,13.271666333333332,97739.32495333331,-1315333.3333333333,25333.33333333333,-1176000.0,38.39,0.639999986,-559.9449463,29.8662529,73.0,1.311320186,40.69569016,138.7654266,0.0,0.0
2018-09-11 19:21:40.840,-0.2256666666666666,-0.235,-0.307,0.2157463,1.0329671333333337,12.970929066666669,97740.25268666667,-1552666.6666666667,27666.666666666668,-1153000.0,38.39,0.6299999955,-555.62716675,29.413417815,73.0,1.311320186,40.69569016,138.7654266,0.0,0.0
2018-09-11 19:21:40.880,-0.218,-0.22,-0.3,0.1569064,1.1179581,12.6701918,97741.18042,-1790000.0,30000.0,-1130000.0,38.39,0.620000005,-551.3093872,28.96058273,73.0,1.311320186,40.69569016,138.7654266,0.0,0.0
2018-09-11 19:21:40.920,-0.211,-0.226,-0.2985,0.201036325,0.926728425,12.802581575,97741.18042,-1790000.0,30000.0,-1130000.0,38.39,0.620000005,-551.3093872,28.96058273,73.0,1.311320186,40.69569016,138.7654266,0.0,0.0
2018-09-11 19:21:40.960,-0.204,-0.232,-0.297,0.24516625,0.73549875,12.93497135,97741.18042,-1790000.0,30000.0,-1130000.0,38.39,0.620000005,-551.3093872,28.96058273,73.0,1.311320186,40.69569016,138.7654266,0.0,0.0
2018-09-11 19:21:41.000,-0.243,-0.2275,-0.286,0.181423025,0.916921775,12.851614825,97738.424685,-1596500.0,28500.0,-1139000.0,38.39,0.579999983,-551.3093872,28.02985764,72.0,1.389316082,37.21900177,145.9050598,0.0,0.0
2018-09-11 19:21:41.040,-0.282,-0.223,-0.275,0.1176798,1.0983448,12.7682583,97735.66895,-1403000.0,27000.0,-1148000.0,38.39,0.579999983,-551.3093872,28.02985764,72.0,1.389316082,37.21900177,145.9050598,0.0,0.0
2018-09-11 19:21:41.080,-0.2876666666666666,-0.224,-0.2746666666666666,0.12748645,1.0068160666666666,12.931702466666666,97735.56722333332,-1162333.3333333333,21666.666666666668,-1129666.6666666667,38.39,0.549999982,-546.4769286999999,27.56316376,71.5,1.389316082,37.21900177,145.9050598,0.0,0.0
2018-09-11 19:21:41.120,-0.2933333333333333,-0.225,-0.2743333333333334,0.1372931,0.9152873333333332,13.095146633333334,97735.46549666669,-921666.6666666667,16333.333333333334,-1111333.3333333333,38.39,0.519999981,-541.6444702,27.09646988,71.0,1.389316082,37.21900177,145.9050598,0.0,0.0
2018-09-11 19:21:41.160,-0.299,-0.226,-0.274,0.14709975,0.8237586,13.2585908,97735.36377,-681000.0,11000.0,-1093000.0,38.39,0.48999998,-541.6444702,26.62562561,70.5,1.389316082,37.21900177,145.9050598,0.0,0.0
2018-09-11 19:21:41.200,-0.3206666666666666,-0.213,-0.268,0.1372931,0.7779942333333333,13.108222166666668,97736.17960666666,-737333.3333333334,13333.333333333334,-1083333.3333333333,38.38666666666667,0.459999979,-541.6444702,26.15478134,70.0,1.389316082,37.21900177,145.9050598,0.0,0.0
