time,field.angular_velocity.x,field.angular_velocity.y,field.angular_velocity.z,field.linear_acceleration.x,field.linear_acceleration.y,field.linear_acceleration.z,field.magnetic_field.x,field.magnetic_field.y,field.magnetic_field.z,field.fluid_pressure,field.temperature,field.alt_error,field.aspd_error,field.xtrack_error,field.wp_dist,field.measured.pitch,field.measured.roll,field.measured.yaw,fault_state,field.airspeed
39:58.8,0.430333333,-0.187666667,0.228333333,-0.6864655,-0.336694983,14.27194463,259333.3333,269000,-172000,97265.507,41.5,-0.589999974,-948.9465942,-37.69364929,6,7.655954838,-26.23586464,36.97988892,0,0
39:58.8,0.460666667,-0.162333333,0.265666667,-0.85317855,-0.212477417,13.76526772,226666.6667,275000,-191000,97263.11238,41.5,-0.73999998,-949.2191467,-36.39024353,7,7.655954838,-26.23586464,36.97988892,0,0
39:58.9,0.491,-0.137,0.303,-1.0198916,-0.08825985,13.2585908,194000,281000,-210000,97260.71777,41.5,-0.889999986,-949.4916992,-35.08683777,8,7.655954838,-26.23586464,36.97988892,0,0
39:58.9,0.617,-0.0985,0.282,-1.024794925,-0.0588399,12.59664193,189000,274000,-232500,97253.98254,41.5,-1.044999957,-949.4916992,-258.2332992,9.5,7.655954838,-26.23586464,36.97988892,0,0
39:59.0,0.743,-0.06,0.261,-1.02969825,-0.02941995,11.93469305,184000,267000,-255000,97247.24731,41.5,-1.199999928,-949.4916992,-481.3797607,11,7.655954838,-26.23586464,36.97988892,0,0
39:59.0,0.448333333,-0.048,0.271333333,-1.0983448,0.071915433,11.79413107,179666.6667,259000,-264666.6667,97242.49471,41.49666667,-1.199999928,-949.4916992,-481.3797607,11,7.655954838,-26.23586464,36.97988892,0,0
39:59.0,0.153666667,-0.036,0.281666667,-1.16699135,0.173250817,11.65356908,175333.3333,251000,-274333.3333,97237.7421,41.49333333,-1.37499994,-881.3161926,-481.9672089,12,7.655954838,-26.23586464,36.97988892,0,0
39:59.1,-0.141,-0.024,0.292,-1.2356379,0.2745862,11.5130071,171000,243000,-284000,97232.9895,41.49,-1.549999952,-813.140686,-482.554657,13,7.655954838,-26.23586464,36.97988892,0,0
39:59.1,-0.211666667,-0.011,0.288666667,-1.278133383,0.307275033,10.8069283,158333.3333,243000,-299333.3333,97233.49813,41.49,-1.72999996,-813.140686,-483.1252442,14.5,7.655954838,-26.23586464,36.97988892,0,0
39:59.2,-0.282333333,0.002,0.285333333,-1.320628867,0.339963867,10.1008495,145666.6667,243000,-314666.6667,97234.00675,41.49,-1.909999967,-813.140686,-483.6958313,16,7.655954838,-26.23586464,36.97988892,0,0
39:59.2,-0.353,0.015,0.282,-1.36312435,0.3726527,9.3947707,133000,243000,-330000,97234.51538,41.49,-1.909999967,-813.140686,-483.6958313,16,6.71158886,-20.23189926,29.81886673,0,0
39:59.2,-0.443,0.024,0.276,-1.38273765,0.51975245,8.8063717,106000,263000,-347000,97225.98267,41.48,-2.289999962,-801.4381104,-484.794342,18,6.71158886,-20.23189926,29.81886673,0,0
39:59.3,-0.470333333,0.039666667,0.287,-1.4317709,0.50013915,8.40429905,102666.6667,270000,-345000,97224.71721,41.48,-2.289999962,-801.4381104,-484.794342,18,6.71158886,-20.23189926,29.81886673,0,0
39:59.3,-0.497666667,0.055333333,0.298,-1.48080415,0.48052585,8.0022264,99333.33333,277000,-343000,97223.45174,41.48,-2.289999962,-801.4381104,-484.794342,18,6.71158886,-20.23189926,29.81886673,0,0
39:59.4,-0.525,0.071,0.309,-1.5298374,0.46091255,7.60015375,96000,284000,-341000,97222.18628,41.48,-2.649999857,-801.4381104,-485.8509827,21,6.71158886,-20.23189926,29.81886673,0,0
39:59.4,-0.516,0.079,0.321,-1.552719583,0.513214683,7.309223133,90666.66667,293333.3333,-340000,97219.51091,41.47666667,-2.814999938,-780.4925842,-486.3538514,22,6.71158886,-20.23189926,29.81886673,0,0
39:59.4,-0.507,0.087,0.333,-1.575601767,0.565516817,7.018292517,85333.33333,302666.6667,-339000,97216.83553,41.47333333,-2.980000019,-759.5470581,-486.85672,23,6.71158886,-20.23189926,29.81886673,0,0
39:59.5,-0.498,0.095,0.345,-1.59848395,0.61781895,6.7273619,80000,312000,-338000,97214.16016,41.47,-3.080000003,-759.5470581,-487.1807251,24,6.71158886,-20.23189926,29.81886673,0,0
39:59.5,-0.471,0.099,0.342666667,-1.611559483,0.728960983,6.557379967,79666.66667,321000,-337000,97213.32194,41.47,-3.179999987,-759.5470581,-487.5047303,25,6.71158886,-20.23189926,29.81886673,0,0
39:59.6,-0.444,0.103,0.340333333,-1.624635017,0.840103017,6.387398033,79333.33333,330000,-336000,97212.48373,41.47,-3.279999971,-759.5470581,-487.8287354,26,6.71158886,-20.23189926,29.81886673,0,0
39:59.6,-0.417,0.107,0.338,-1.63771055,0.95124505,6.2174161,79000,339000,-335000,97211.64551,41.47,-3.279999971,-759.5470581,-487.8287354,26,2.399867296,-30.46207428,24.10166168,0,0
39:59.6,-0.3765,0.122,0.3245,-1.681840475,0.9414384,5.996766475,79000,346500,-332500,97208.13904,41.465,-3.519999981,-717.0736084,-488.7755127,28,2.399867296,-30.46207428,24.10166168,0,0
39:59.7,-0.336,0.137,0.311,-1.7259704,0.93163175,5.77611685,79000,354000,-330000,97204.63257,41.46,-3.519999981,-717.0736084,-488.7755127,28,2.399867296,-30.46207428,24.10166168,0,0
39:59.7,-0.289,0.136,0.286,-1.691647125,0.93163175,5.781020175,78000,359500,-328000,97203.51563,41.46,-3.519999981,-717.0736084,-488.7755127,28,2.399867296,-30.46207428,24.10166168,0,0
39:59.8,-0.242,0.135,0.261,-1.65732385,0.93163175,5.7859235,77000,365000,-326000,97202.39868,41.46,-3.7099998,-717.0736084,-489.6628113,30,2.399867296,-30.46207428,24.10166168,0,0
39:59.8,-0.265333333,0.121,0.241666667,-1.670399383,0.947976167,5.612672683,81666.66667,366000,-323333.3333,97201.27563,41.45666667,-3.7099998,-717.0736084,-489.6628113,30,2.399867296,-30.46207428,24.10166168,0,0
39:59.8,-0.288666667,0.107,0.222333333,-1.683474917,0.964320583,5.439421867,86333.33333,367000,-320666.6667,97200.15259,41.45333333,-3.829999924,-673.0014648,-490.5334778,33,2.399867296,-30.46207428,24.10166168,0,0
39:59.9,-0.312,0.093,0.203,-1.69655045,0.980665,5.26617105,91000,368000,-318000,97199.02954,41.45,-3.853333235,-673.0014648,-490.8038432,33.66666667,2.399867296,-30.46207428,24.10166168,0,0
39:59.9,-0.316,0.0815,0.1725,-1.7063571,0.9022118,5.329914275,92500,371500,-315500,97198.67859,41.445,-3.876666546,-673.0014648,-491.0742086,34.33333333,2.399867296,-30.46207428,24.10166168,0,0
40:00.0,-0.32,0.07,0.142,-1.71616375,0.8237586,5.3936575,94000,375000,-313000,97198.32764,41.44,-3.899999857,-673.0014648,-491.344574,35,2.399867296,-30.46207428,24.10166168,0,0
40:00.0,-0.2735,0.057,0.1135,-1.730873725,0.6668522,5.408367475,103000,379500,-300500,97197.80579,41.44,-3.899999857,-673.0014648,-491.344574,35,-3.807204962,-38.33490753,20.16958809,0,0
40:00.0,-0.227,0.044,0.085,-1.7455837,0.5099458,5.42307745,112000,384000,-288000,97197.28394,41.44,-3.899999857,-611.1019287,-492.1138,37,-3.807204962,-38.33490753,20.16958809,0,0
40:00.1,-0.197666667,0.033,0.072666667,-1.791348067,0.346501633,5.5505639,108333.3333,383000,-292666.6667,97197.41415,41.43666667,-3.883333206,-611.1019287,-492.3589579,38,-3.807204962,-38.33490753,20.16958809,0,0
40:00.1,-0.168333333,0.022,0.060333333,-1.837112433,0.183057467,5.67805035,104666.6667,382000,-297333.3333,97197.54435,41.43333333,-3.866666556,-611.1019287,-492.6041158,39,-3.807204962,-38.33490753,20.16958809,0,0
40:00.2,-0.139,0.011,0.048,-1.8828768,0.0196133,5.8055368,101000,381000,-302000,97197.67456,41.43,-3.849999905,-611.1019287,-492.8492737,40,-3.807204962,-38.33490753,20.16958809,0,0
40:00.2,-0.098666667,0.006666667,0.054333333,-1.830574667,-0.035957717,6.024551983,103000,381000,-291666.6667,97197.13745,41.43,-3.849999905,-611.1019287,-492.8492737,40,-3.807204962,-38.33490753,20.16958809,0,0
40:00.2,-0.058333333,0.002333333,0.060666667,-1.778272533,-0.091528733,6.243567167,105000,381000,-281333.3333,97196.60034,41.43,-3.74000001,-571.8360596,-493.559021,42,-3.807204962,-38.33490753,20.16958809,0,0
40:00.3,-0.018,-0.002,0.067,-1.7259704,-0.14709975,6.46258235,107000,381000,-271000,97196.06323,41.43,-3.74000001,-571.8360596,-493.559021,42,-3.807204962,-38.33490753,20.16958809,0,0
40:00.3,0.0205,-0.0035,0.0905,-1.809326925,-0.3138128,6.722458575,111500,384000,-278000,97196.33789,41.425,-3.74000001,-571.8360596,-493.559021,42,-3.807204962,-38.33490753,20.16958809,0,0
40:00.4,0.059,-0.005,0.114,-1.89268345,-0.48052585,6.9823348,116000,387000,-285000,97196.61255,41.42,-3.589999914,-571.8360596,-494.2099304,44,-3.807204962,-38.33490753,20.16958809,0,0
40:00.4,0.061666667,0.006666667,0.151666667,-1.879607917,-0.5687857,6.910419367,117000,384666.6667,-284333.3333,97197.77018,41.42,-3.589999914,-571.8360596,-494.2099304,44,-3.807204962,-38.33490753,20.16958809,0,0
40:00.4,0.064333333,0.018333333,0.189333333,-1.866532383,-0.65704555,6.838503933,118000,382333.3333,-283666.6667,97198.92782,41.42,-3.379999876,-546.7785034,-494.8269959,46,-3.807204962,-38.33490753,20.16958809,0,0
40:00.5,0.067,0.03,0.227,-1.85345685,-0.7453054,6.7665885,119000,380000,-283000,97200.08545,41.42,-3.379999876,-546.7785034,-494.8269959,46,-5.79839468,-39.46439743,18.44609642,0,0
40:00.5,0.0875,0.025,0.272,-1.799520275,-0.6472389,6.87446165,124000,377500,-283000,97201.27564,41.415,-3.259999871,-546.7785034,-495.1227112,47,-5.79839468,-39.46439743,18.44609642,0,0
40:00.6,0.108,0.02,0.317,-1.7455837,-0.5491724,6.9823348,129000,375000,-283000,97202.46582,41.41,-3.139999866,-546.7785034,-495.4184265,48,-5.79839468,-39.46439743,18.44609642,0,0
40:00.6,0.102,0.025333333,0.351333333,-1.791348067,-0.493601383,6.998679217,129000,369666.6667,-288333.3333,97203.68449,41.41,-2.994999886,-539.27948,-495.693161,49.5,-5.79839468,-39.46439743,18.44609642,0,0
40:00.6,0.096,0.030666667,0.385666667,-1.837112433,-0.438030367,7.015023633,129000,364333.3333,-293666.6667,97204.90316,41.41,-2.849999905,-531.7804565,-495.9678955,51,-5.79839468,-39.46439743,18.44609642,0,0
40:00.7,0.09,0.036,0.42,-1.8828768,-0.38245935,7.03136805,129000,359000,-299000,97206.12183,41.41,-2.849999905,-531.7804565,-495.9678955,51,-5.79839468,-39.46439743,18.44609642,0,0
40:00.7,0.07,0.028,0.4295,-1.8240369,-0.259876225,6.742071875,142000,356500,-292500,97210.0647,41.405,-2.529999971,-531.7804565,-496.4746094,53,-5.79839468,-39.46439743,18.44609642,0,0
40:00.8,0.05,0.02,0.439,-1.765197,-0.1372931,6.4527757,155000,354000,-286000,97214.00757,41.4,-2.529999971,-531.7804565,-496.4746094,53,-5.79839468,-39.46439743,18.44609642,0,0
40:00.8,0.020666667,0.010333333,0.432,-1.7848103,-0.022882183,6.822159517,161333.3333,348000,-288666.6667,97214.24968,41.4,-2.529999971,-531.7804565,-496.4746094,53,-5.79839468,-39.46439743,18.44609642,0,0
40:00.8,-0.008666667,0.000666667,0.425,-1.8044236,0.091528733,7.191543333,167666.6667,342000,-291333.3333,97214.49178,41.4,-2.159999847,-520.1288452,-496.9648743,55,-5.79839468,-39.46439743,18.44609642,0,0
40:00.9,-0.038,-0.009,0.418,-1.8240369,0.20593965,7.56092715,174000,336000,-294000,97214.73389,41.4,-1.964999914,-520.1288452,-497.1802826,56,-9.05037999,-37.98749733,14.78448344,0,0
40:00.9,-0.082,-0.02,0.4005,-1.868166825,0.1765197,7.722736875,180500,333000,-293000,97219.36951,41.395,-1.769999981,-520.1288452,-497.3956909,57,-12.3023653,-36.51059723,11.12287045,0,0
40:01.0,-0.126,-0.031,0.383,-1.91229675,0.14709975,7.8845466,187000,330000,-292000,97224.00513,41.39,-1.769999981,-520.1288452,-497.3956909,57,-12.3023653,-36.51059723,11.12287045,0,0
40:01.0,-0.155333333,-0.038333333,0.364,-1.869801267,0.277855083,7.851857767,193666.6667,327000,-289000,97224.89014,41.39,-1.769999981,-520.1288452,-497.3956909,57,-12.3023653,-36.51059723,11.12287045,0,0
40:01.0,-0.184666667,-0.045666667,0.345,-1.827305783,0.408610417,7.819168933,200333.3333,324000,-286000,97225.77515,41.39,-1.309999943,-537.9707031,-497.8014221,59,-12.3023653,-36.51059723,11.12287045,0,0
40:01.1,-0.214,-0.053,0.326,-1.7848103,0.53936575,7.7864801,207000,321000,-283000,97226.66016,41.39,-1.309999943,-537.9707031,-497.8014221,59,-12.3023653,-36.51059723,11.12287045,0,0
40:01.1,-0.215333333,-0.061666667,0.286666667,-1.8240369,0.444568133,7.891084367,207666.6667,318000,-288333.3333,97228.7028,41.38666667,-1.309999943,-537.9707031,-497.8014221,59,-12.3023653,-36.51059723,11.12287045,0,0
40:01.2,-0.216666667,-0.070333333,0.247333333,-1.8632635,0.349770517,7.995688633,208333.3333,315000,-293666.6667,97230.74545,41.38333333,-0.829999983,-537.9707031,-498.1480408,62,-12.3023653,-36.51059723,11.12287045,0,0
40:01.2,-0.218,-0.079,0.208,-1.9024901,0.2549729,8.1002929,209000,312000,-299000,97232.78809,41.38,-0.829999983,-537.9707031,-498.1480408,62,-12.3023653,-36.51059723,11.12287045,0,0
40:01.2,-0.1975,-0.0875,0.1925,-1.927006725,0.1372931,8.389589075,213000,310000,-296000,97235.47364,41.38,-0.299999982,-531.7836914,-498.4436035,64,-15.26164818,-38.51569748,5.556125164,0,0
40:01.3,-0.177,-0.096,0.177,-1.95152335,0.0196133,8.67888525,217000,308000,-293000,97238.15918,41.38,-0.299999982,-531.7836914,-498.4436035,64,-15.26164818,-38.51569748,5.556125164,0,0
40:01.3,-0.128,-0.100333333,0.176,-1.918834517,0.08825985,8.842329417,223000,309666.6667,-286000,97240.12044,41.37666667,-0.299999982,-531.7836914,-498.4436035,64,-15.26164818,-38.51569748,5.556125164,0,0
40:01.4,-0.079,-0.104666667,0.175,-1.886145683,0.1569064,9.005773583,229000,311333.3333,-279000,97242.08171,41.37333333,0.269999981,-531.7836914,-498.6971741,66,-15.26164818,-38.51569748,5.556125164,0,0
40:01.4,-0.03,-0.109,0.174,-1.85345685,0.22555295,9.16921775,235000,313000,-272000,97244.04297,41.37,0.564999968,-527.5123596,-498.7899781,67,-15.26164818,-38.51569748,5.556125164,0,0
40:01.4,-0.0235,-0.1105,0.179,-1.8436502,0.0784532,9.5320638,236500,308000,-275000,97249.24012,41.37,0.859999955,-523.2410278,-498.882782,68,-15.26164818,-38.51569748,5.556125164,0,0
40:01.5,-0.017,-0.112,0.184,-1.83384355,-0.06864655,9.89490985,238000,303000,-278000,97254.43726,41.37,1.169999987,-523.2410278,-498.946167,69,-15.26164818,-38.51569748,5.556125164,0,0
40:01.5,-0.017,-0.1185,0.1975,-1.819133575,-0.14709975,10.03220295,253000,302000,-269000,97259.03016,41.365,1.480000019,-523.2410278,-499.009552,70,-15.26164818,-38.51569748,5.556125164,0,0
40:01.6,-0.017,-0.125,0.211,-1.8044236,-0.22555295,10.16949605,268000,301000,-260000,97263.62305,41.36,1.480000019,-523.2410278,-499.009552,70,-15.26164818,-38.51569748,5.556125164,0,0
40:01.6,-0.018,-0.1155,0.23,-1.8436502,-0.2549729,10.0812362,265500,292000,-268000,97268.60352,41.36,1.480000019,-523.2410278,-499.009552,70,-15.26164818,-38.51569748,5.556125164,0,0
40:01.6,-0.019,-0.106,0.249,-1.8828768,-0.28439285,9.99297635,263000,283000,-276000,97273.58398,41.36,2.109999895,-517.4714966,-499.0771484,72,-16.29580116,-38.17201996,0.403634101,0,0
40:01.7,-0.012333333,-0.117,0.259666667,-1.850187967,-0.261510667,10.14334498,270666.6667,279666.6667,-272666.6667,97275.08952,41.35666667,2.109999895,-517.4714966,-499.0771484,72,-16.29580116,-38.17201996,0.403634101,0,0
40:01.7,-0.005666667,-0.128,0.270333333,-1.817499133,-0.238628483,10.29371362,278333.3333,276333.3333,-269333.3333,97276.59505,41.35333333,2.109999895,-517.4714966,-499.0771484,72,-16.29580116,-38.17201996,0.403634101,0,0
40:01.8,0.001,-0.139,0.281,-1.7848103,-0.2157463,10.44408225,286000,273000,-266000,97278.10059,41.35,2.75999999,-517.4714966,-499.0768127,74,-16.29580116,-38.17201996,0.403634101,0,0
40:01.8,0.000666667,-0.162,0.287333333,-1.761928117,-0.130755333,10.83961713,294666.6667,267666.6667,-262000,97281.45956,41.35,3.449999809,-528.3757935,-499.0176697,77,-16.29580116,-38.17201996,0.403634101,0,0
40:01.8,0.000333333,-0.185,0.293666667,-1.739045933,-0.045764367,11.23515202,303333.3333,262333.3333,-258000,97284.81852,41.35,3.449999809,-528.3757935,-499.0176697,77,-16.29580116,-38.17201996,0.403634101,0,0
40:01.9,0,-0.208,0.3,-1.71616375,0.0392266,11.6306869,312000,257000,-254000,97288.17749,41.35,3.449999809,-528.3757935,-499.0176697,77,-16.29580116,-38.17201996,0.403634101,0,0
40:01.9,-0.0175,-0.221,0.304,-1.7259704,-0.0196133,11.99843628,325500,248000,-246500,97294.50073,41.345,3.449999809,-528.3757935,-499.0176697,77,-16.29580116,-38.17201996,0.403634101,0,0
40:02.0,-0.035,-0.234,0.308,-1.73577705,-0.0784532,12.36618565,339000,239000,-239000,97300.82397,41.34,4.130000114,-528.3757935,-498.8905334,79,-16.29580116,-38.17201996,0.403634101,0,0
40:02.0,-0.0795,-0.251,0.3105,-1.63771055,-0.06864655,12.1798593,346500,229000,-237000,97303.97644,41.34,4.130000114,-528.3757935,-498.8905334,79,-17.1854496,-36.2014122,-5.933513165,0,0
40:02.0,-0.124,-0.268,0.313,-1.53964405,-0.0588399,11.99353295,354000,219000,-235000,97307.12891,41.34,4.819999695,-549.1744995,-498.696106,81,-17.1854496,-36.2014122,-5.933513165,0,0
40:02.1,-0.137333333,-0.288666667,0.313,-1.516761867,0,12.47078992,363666.6667,214333.3333,-234666.6667,97310.97005,41.33666667,4.819999695,-549.1744995,-498.696106,81,-17.1854496,-36.2014122,-5.933513165,0,0
40:02.1,-0.150666667,-0.309333333,0.313,-1.493879683,0.0588399,12.94804688,373333.3333,209666.6667,-234333.3333,97314.8112,41.33333333,5.509999752,-549.1744995,-498.4252014,83,-17.1854496,-36.2014122,-5.933513165,0,0
40:02.2,-0.164,-0.33,0.313,-1.4709975,0.1176798,13.42530385,383000,205000,-234000,97318.65234,41.33,5.509999752,-549.1744995,-498.4252014,83,-17.1854496,-36.2014122,-5.933513165,0,0
40:02.2,-0.1675,-0.343,0.302,-1.446480875,0.1372931,14.0038962,393500,198000,-228500,97323.76404,41.33,5.509999752,-549.1744995,-498.4252014,83,-17.1854496,-36.2014122,-5.933513165,0,0
40:02.2,-0.171,-0.356,0.291,-1.42196425,0.1569064,14.58248855,404000,191000,-223000,97328.87573,41.33,6.210000038,-563.8679199,-498.0786133,85,-17.1854496,-36.2014122,-5.933513165,0,0
40:02.3,-0.171666667,-0.369333333,0.285333333,-1.3533177,0.163444167,14.99109897,414000,188333.3333,-219000,97332.79215,41.32666667,6.210000038,-563.8679199,-498.0786133,85,-17.1854496,-36.2014122,-5.933513165,0,0
40:02.3,-0.172333333,-0.382666667,0.279666667,-1.28467115,0.169981933,15.39970938,424000,185666.6667,-215000,97336.70858,41.32333333,6.889999866,-563.8679199,-497.6390381,87,-17.1854496,-36.2014122,-5.933513165,0,0
40:02.4,-0.173,-0.396,0.274,-1.2160246,0.1765197,15.8083198,434000,183000,-211000,97340.625,41.32,6.889999866,-563.8679199,-497.6390381,87,-17.1854496,-36.2014122,-5.933513165,0,0
40:02.4,-0.168666667,-0.397333333,0.271,-1.183335767,0.1765197,15.85081528,436000,177333.3333,-210333.3333,97345.15788,41.32,6.889999866,-563.8679199,-497.6390381,87,-17.1854496,-36.2014122,-5.933513165,0,0
40:02.4,-0.164333333,-0.398666667,0.268,-1.150646933,0.1765197,15.89331077,438000,171666.6667,-209666.6667,97349.69075,41.32,7.224999905,-582.6929016,-497.3641358,88,-16.23890114,-36.28580284,-11.63331866,0,0
40:02.5,-0.16,-0.4,0.265,-1.1179581,0.1765197,15.93580625,440000,166000,-209000,97354.22363,41.32,7.559999943,-601.5178833,-497.0892334,89,-15.29235268,-36.37019348,-17.33312416,0,0
40:02.5,-0.1695,-0.4175,0.2655,-1.0983448,0.259876225,16.57814183,463000,161000,-199000,97359.63745,41.315,8.199999809,-601.5178833,-496.4636841,91,-15.29235268,-36.37019348,-17.33312416,0,0
40:02.6,-0.179,-0.435,0.266,-1.0787315,0.34323275,17.2204774,486000,156000,-189000,97365.05127,41.31,8.199999809,-601.5178833,-496.4636841,91,-15.29235268,-36.37019348,-17.33312416,0,0
40:02.6,-0.1895,-0.4415,0.249,-0.97085835,0.250069575,17.1616375,493000,149500,-185000,97366.5741,41.31,8.199999809,-601.5178833,-496.4636841,91,-15.29235268,-36.37019348,-17.33312416,0,0
40:02.6,-0.2,-0.448,0.232,-0.8629852,0.1569064,17.1027976,500000,143000,-181000,97368.09692,41.31,8.809999466,-595.7424316,-495.7279663,93,-15.29235268,-36.37019348,-17.33312416,0,0
40:02.7,-0.17775,-0.4565,0.22925,-0.840920238,0.139744763,17.10770093,498250,140750,-181000,97372.38922,41.3075,8.809999466,-595.7424316,-495.7279663,93,-15.29235268,-36.37019348,-17.33312416,0,0
40:02.7,-0.1555,-0.465,0.2265,-0.818855275,0.122583125,17.11260425,496500,138500,-181000,97376.68152,41.305,9.104999543,-595.7424316,-495.3052216,94,-15.29235268,-36.37019348,-17.33312416,0,0
40:02.8,-0.13325,-0.4735,0.22375,-0.796790313,0.105421488,17.11750757,494750,136250,-181000,97380.97381,41.3025,9.399999619,-595.7424316,-494.8824768,95,-15.29235268,-36.37019348,-17.33312416,0,0
40:02.8,-0.111,-0.482,0.221,-0.77472535,0.08825985,17.1224109,493000,134000,-181000,97385.26611,41.3,9.399999619,-595.7424316,-494.8824768,95,-15.29235268,-36.37019348,-17.33312416,0,0
40:02.8,-0.1415,-0.4955,0.2275,-0.661948875,0.063743225,17.74022985,507000,133500,-176000,97387.10022,41.3,9.969999313,-641.916626,-493.9103088,97,-10.66463089,-37.75085449,-28.64694023,0,0
40:02.9,-0.172,-0.509,0.234,-0.5491724,0.0392266,18.3580488,521000,133000,-171000,97388.93433,41.3,9.969999313,-641.916626,-493.9103088,97,-10.66463089,-37.75085449,-28.64694023,0,0
40:02.9,-0.1375,-0.502,0.2405,-0.495235825,0.06864655,18.58360175,534000,117500,-167000,97391.6626,41.3,10.48999977,-641.916626,-492.8619385,99,-10.66463089,-37.75085449,-28.64694023,0,0
40:03.0,-0.103,-0.495,0.247,-0.44129925,0.0980665,18.8091547,547000,102000,-163000,97394.39087,41.3,10.48999977,-641.916626,-492.8619385,99,-10.66463089,-37.75085449,-28.64694023,0,0
40:03.0,-0.055,-0.498,0.250333333,-0.3726527,0.035957717,18.98894328,547666.6667,101333.3333,-157000,97397.84749,41.29666667,10.48999977,-641.916626,-492.8619385,99,-10.66463089,-37.75085449,-28.64694023,0,0
40:03.0,-0.007,-0.501,0.253666667,-0.30400615,-0.026151067,19.16873187,548333.3333,100666.6667,-151000,97401.30412,41.29333333,10.97999954,-672.0130615,-491.6784668,101,-10.66463089,-37.75085449,-28.64694023,0,0
40:03.1,0.041,-0.504,0.257,-0.2353596,-0.08825985,19.34852045,549000,100000,-145000,97404.76074,41.29,10.97999954,-672.0130615,-491.6784668,101,-10.66463089,-37.75085449,-28.64694023,0,0
40:03.1,0.05,-0.504666667,0.268333333,-0.183057467,-0.10787315,19.2994872,567666.6667,93333.33333,-143666.6667,97409.20613,41.28666667,11.20499945,-672.0130615,-491.0358582,101.5,-10.66463089,-37.75085449,-28.64694023,0,0
40:03.2,0.059,-0.505333333,0.279666667,-0.130755333,-0.12748645,19.25045395,586333.3333,86666.66667,-142333.3333,97413.65153,41.28333333,11.42999935,-672.0130615,-490.3932495,102,-10.66463089,-37.75085449,-28.64694023,0,0
40:03.2,0.068,-0.506,0.291,-0.0784532,-0.14709975,19.2014207,605000,80000,-141000,97418.09692,41.28,11.42999935,-672.0130615,-490.3932495,102,-10.66463089,-37.75085449,-28.64694023,0,0
40:03.2,0.116,-0.5075,0.2915,-0.044129925,-0.0196133,19.33381048,629000,68500,-136000,97422.00317,41.28,11.81999969,-686.3973389,-489.0153809,104,-5.504680634,-36.74679184,-40.43166351,0,0
40:03.3,0.164,-0.509,0.292,-0.00980665,0.10787315,19.46620025,653000,57000,-131000,97425.90942,41.28,11.90749979,-686.3973389,-488.643364,104.5,-5.504680634,-36.74679184,-40.43166351,0,0
40:03.3,0.197,-0.5125,0.2895,0.014709975,0.2157463,19.66723658,627000,44000,-140000,97429.08325,41.275,11.99499989,-686.3973389,-488.2713471,105,-5.504680634,-36.74679184,-40.43166351,0,0
40:03.4,0.23,-0.516,0.287,0.0392266,0.32361945,19.8682729,601000,31000,-149000,97432.25708,41.27,12.08249998,-686.3973389,-487.8993301,105.5,-5.504680634,-36.74679184,-40.43166351,0,0
40:03.4,0.2645,-0.5065,0.2705,0.1176798,0.3530394,19.92220948,608500,28500,-130500,97431.7627,41.27,12.17000008,-686.3973389,-487.5273132,106,-5.504680634,-36.74679184,-40.43166351,0,0
40:03.4,0.299,-0.497,0.254,0.196133,0.38245935,19.97614605,616000,26000,-112000,97431.26831,41.27,12.46999931,-705.0060425,-485.9465637,107,-5.504680634,-36.74679184,-40.43166351,0,0
40:03.5,0.334,-0.481,0.2465,0.201036325,0.370201038,19.90014451,608500,15000,-119500,97432.32422,41.27,12.46999931,-705.0060425,-485.9465637,107,-5.504680634,-36.74679184,-40.43166351,0,0
40:03.5,0.369,-0.465,0.239,0.20593965,0.357942725,19.82414298,601000,4000,-127000,97433.38013,41.27,12.59499931,-705.0060425,-485.1139374,108,-3.399329782,-34.31920529,-44.88086891,0,0
40:03.6,0.404,-0.449,0.2315,0.210842975,0.345684413,19.74814144,593500,-7000,-134500,97434.43603,41.27,12.71999931,-705.0060425,-484.281311,109,-1.29397893,-31.89161873,-49.33007431,0,0
40:03.6,0.439,-0.433,0.224,0.2157463,0.3334261,19.6721399,586000,-18000,-142000,97435.49194,41.27,12.71999931,-705.0060425,-484.281311,109,-1.29397893,-31.89161873,-49.33007431,0,0
40:03.6,0.494,-0.4165,0.228,0.210842975,0.3726527,19.27497058,602000,-27500,-139500,97439.88037,41.265,12.80499935,-718.2300721,-483.4231567,109.5,-1.29397893,-31.89161873,-49.33007431,0,0
40:03.7,0.549,-0.4,0.232,0.20593965,0.4118793,18.87780125,618000,-37000,-137000,97444.2688,41.26,12.88999939,-731.4541016,-482.5650024,110,-1.29397893,-31.89161873,-49.33007431,0,0
40:03.7,0.557,-0.384333333,0.214666667,0.202670767,0.434761483,18.68493713,604333.3333,-44000,-146333.3333,97444.99105,41.26,12.94999934,-731.4541016,-481.6647492,111,-1.29397893,-31.89161873,-49.33007431,0,0
40:03.8,0.565,-0.368666667,0.197333333,0.199401883,0.457643667,18.49207302,590666.6667,-51000,-155666.6667,97445.7133,41.26,13.00999928,-731.4541016,-480.7644959,112,-1.29397893,-31.89161873,-49.33007431,0,0
40:03.8,0.573,-0.353,0.18,0.196133,0.48052585,18.2992089,577000,-58000,-165000,97446.43555,41.26,13.01999927,-730.6762391,-480.3079758,112.25,-1.29397893,-31.89161873,-49.33007431,0,0
40:03.8,0.614,-0.338,0.166,0.152003075,0.392266,17.78435978,558500,-69000,-172500,97445.77027,41.255,13.02999926,-729.8983765,-479.8514557,112.5,-1.29397893,-31.89161873,-49.33007431,0,0
40:03.9,0.655,-0.323,0.152,0.10787315,0.30400615,17.26951065,540000,-80000,-180000,97445.10498,41.25,13.04999924,-728.3426514,-478.9384155,113,-1.29397893,-31.89161873,-49.33007431,0,0
40:03.9,0.656,-0.304,0.139,0.0392266,0.367749375,17.0047311,520000,-84500,-191500,97447.21985,41.25,13.03999996,-728.3426514,-477.0956421,115,-1.29397893,-31.89161873,-49.33007431,0,0
40:04.0,0.657,-0.285,0.126,-0.02941995,0.4314926,16.73995155,500000,-89000,-203000,97449.33472,41.25,13.01999998,-724.3692017,-476.6307144,115.25,-1.29397893,-31.89161873,-49.33007431,0,0
40:04.0,0.664333333,-0.270666667,0.114,-0.02941995,0.418417067,16.48497865,496666.6667,-97000,-208666.6667,97447.79053,41.24666667,13,-720.395752,-476.1657868,115.5,-1.29397893,-31.89161873,-49.33007431,0,0
40:04.0,0.671666667,-0.256333333,0.102,-0.02941995,0.405341533,16.23000575,493333.3333,-105000,-214333.3333,97446.24634,41.24333333,12.98000002,-716.4223022,-475.7008591,115.75,-1.29397893,-31.89161873,-49.33007431,0,0
40:04.1,0.679,-0.242,0.09,-0.02941995,0.392266,15.97503285,490000,-113000,-220000,97444.70215,41.24,12.96000004,-712.4488525,-475.2359314,116,-1.29397893,-31.89161873,-49.33007431,0,0
40:04.1,0.6655,-0.2295,0.0775,-0.044129925,0.338329425,15.6710267,488500,-123500,-208000,97444.16199,41.24,12.96000004,-712.4488525,-475.2359314,116,5.987071514,-13.6991663,-58.97382736,0,0
40:04.2,0.652,-0.217,0.065,-0.0588399,0.28439285,15.36702055,487000,-134000,-196000,97443.62183,41.24,12.84999943,-712.4488525,-473.3927917,117,5.987071514,-13.6991663,-58.97382736,0,0
40:04.2,0.632,-0.197666667,0.054666667,-0.062108783,0.281123967,15.01725003,468666.6667,-146333.3333,-208666.6667,97441.57308,41.23666667,12.84999943,-712.4488525,-473.3927917,117,5.987071514,-13.6991663,-58.97382736,0,0
40:04.2,0.612,-0.178333333,0.044333333,-0.065377667,0.277855083,14.66747952,450333.3333,-158666.6667,-221333.3333,97439.52434,41.23333333,12.75499964,-698.6625366,-472.4671783,118,5.987071514,-13.6991663,-58.97382736,0,0
40:04.3,0.592,-0.159,0.034,-0.06864655,0.2745862,14.317709,432000,-171000,-234000,97437.47559,41.23,12.65999985,-684.8762207,-471.5415649,119,5.987071514,-13.6991663,-58.97382736,0,0
40:04.3,0.589666667,-0.149666667,0.027666667,-0.084990967,0.228821833,13.9646696,425000,-174333.3333,-228333.3333,97436.57227,41.23,12.55499983,-684.8762207,-470.6328125,119.5,5.987071514,-13.6991663,-58.97382736,0,0
40:04.4,0.587333333,-0.140333333,0.021333333,-0.101335383,0.183057467,13.6116302,418000,-177666.6667,-222666.6667,97435.66895,41.23,12.44999981,-684.8762207,-469.7240601,120,5.987071514,-13.6991663,-58.97382736,0,0
40:04.4,0.585,-0.131,0.015,-0.1176798,0.1372931,13.2585908,411000,-181000,-217000,97434.76563,41.23,12.31499958,-709.0142212,-468.8407135,120.5,7.437103987,-8.126570584,-59.72780228,0,0
40:04.4,0.5875,-0.1235,0.023,-0.06864655,0.142196425,13.28801075,430500,-190000,-223000,97433.65174,41.225,12.17999935,-733.1522217,-467.9573669,121,8.887136459,-2.553974867,-60.48177719,0,0
40:04.5,0.59,-0.116,0.031,-0.0196133,0.14709975,13.3174307,450000,-199000,-229000,97432.53784,41.22,12.17999935,-733.1522217,-467.9573669,121,8.887136459,-2.553974867,-60.48177719,0,0
40:04.5,0.532,-0.0985,0.034,-0.0784532,0.18632635,12.9055514,425500,-208000,-239000,97431.51245,41.22,12.03499937,-733.1522217,-467.0697784,122,8.887136459,-2.553974867,-60.48177719,0,0
40:04.6,0.474,-0.081,0.037,-0.1372931,0.22555295,12.4936721,401000,-217000,-249000,97430.48706,41.22,11.88999939,-733.1522217,-466.1821899,123,8.887136459,-2.553974867,-60.48177719,0,0
40:04.6,0.444333333,-0.079,0.033666667,-0.169981933,0.297468383,12.42175667,383000,-227333.3333,-243666.6667,97426.25325,41.21666667,11.88999939,-733.1522217,-466.1821899,123,8.887136459,-2.553974867,-60.48177719,0,0
40:04.6,0.414666667,-0.077,0.030333333,-0.202670767,0.369383817,12.34984123,365000,-237666.6667,-238333.3333,97422.01945,41.21333333,11.71999979,-704.8371582,-465.3113861,123.5,8.887136459,-2.553974867,-60.48177719,0,0
40:04.7,0.385,-0.075,0.027,-0.2353596,0.44129925,12.2779258,347000,-248000,-233000,97417.78564,41.21,11.55000019,-676.5220947,-464.4405823,124,8.887136459,-2.553974867,-60.48177719,0,0
40:04.7,0.3645,-0.0645,0.013,-0.269682875,0.456009225,12.02785623,332000,-271000,-255000,97416.26282,41.21,11.21000004,-676.5220947,-462.749939,126,10.62266064,7.899629593,-61.14399719,0,0
40:04.8,0.344,-0.054,-0.001,-0.30400615,0.4707192,11.77778665,317000,-294000,-277000,97414.73999,41.21,11.21000004,-676.5220947,-462.749939,126,10.62266064,7.899629593,-61.14399719,0,0
40:04.8,0.299,-0.044333333,-0.009333333,-0.2549729,0.4511059,11.43782278,326333.3333,-290000,-270333.3333,97412.95369,41.21,11.02999974,-656.5859985,-461.9214631,126.5,10.62266064,7.899629593,-61.14399719,0,0
40:04.8,0.254,-0.034666667,-0.017666667,-0.20593965,0.4314926,11.09785892,335666.6667,-286000,-263666.6667,97411.1674,41.21,10.84999943,-636.6499023,-461.0929871,127,10.62266064,7.899629593,-61.14399719,0,0
40:04.9,0.209,-0.025,-0.026,-0.1569064,0.4118793,10.75789505,345000,-282000,-257000,97409.3811,41.21,10.84999943,-636.6499023,-461.0929871,127,10.62266064,7.899629593,-61.14399719,0,0
40:04.9,0.189333333,-0.011,-0.034666667,-0.183057467,0.483794733,10.40158677,341000,-284333.3333,-252333.3333,97408.33943,41.20666667,10.84999943,-636.6499023,-461.0929871,127,10.62266064,7.899629593,-61.14399719,0,0
40:05.0,0.169666667,0.003,-0.043333333,-0.209208533,0.555710167,10.04527848,337000,-286666.6667,-247666.6667,97407.29777,41.20333333,10.46999931,-636.6499023,-459.4446411,129,10.62266064,7.899629593,-61.14399719,0,0
40:05.0,0.15,0.017,-0.052,-0.2353596,0.6276256,9.6889702,333000,-289000,-243000,97406.2561,41.2,10.46999931,-636.6499023,-459.4446411,129,10.62266064,7.899629593,-61.14399719,0,0
40:05.0,0.0965,0.0365,-0.069,-0.210842975,0.573689025,9.3947707,323500,-287000,-242500,97401.80664,41.2,10.28499937,-615.7331543,-458.6542664,129.5,10.62266064,7.899629593,-61.14399719,0,0
40:05.1,0.043,0.056,-0.086,-0.18632635,0.51975245,9.1005712,314000,-285000,-242000,97397.35718,41.2,10.09999943,-594.8164063,-457.8638916,130,10.62266064,7.899629593,-61.14399719,0,0
40:05.1,0.016666667,0.060666667,-0.092666667,-0.196133,0.526290217,8.87501825,314666.6667,-287000,-250000,97397.64404,41.19666667,10.09999943,-594.8164063,-457.8638916,130,10.62266064,7.899629593,-61.14399719,0,0
40:05.2,-0.009666667,0.065333333,-0.099333333,-0.20593965,0.532827983,8.6494653,315333.3333,-289000,-258000,97397.93091,41.19333333,9.729999542,-594.8164063,-456.2763672,132,10.33416271,13.47639465,-60.31249619,0,0
40:05.2,-0.036,0.07,-0.106,-0.2157463,0.53936575,8.42391235,316000,-291000,-266000,97398.21777,41.19,9.729999542,-594.8164063,-456.2763672,132,10.33416271,13.47639465,-60.31249619,0,0
40:05.2,-0.0545,0.0765,-0.115,-0.220649625,0.50013915,7.693316925,298500,-289000,-272500,97396.49353,41.19,9.38999939,-550.2124634,-454.7294006,133,10.33416271,13.47639465,-60.31249619,0,0
40:05.3,-0.073,0.083,-0.124,-0.22555295,0.46091255,6.9627215,281000,-287000,-279000,97394.76929,41.19,9.38999939,-550.2124634,-454.7294006,133,10.33416271,13.47639465,-60.31249619,0,0
40:05.3,-0.03,0.07,-0.1295,-0.26477955,0.485429175,7.889449925,281000,-283500,-283000,97390.98511,41.185,9.38999939,-550.2124634,-454.7294006,133,10.33416271,13.47639465,-60.31249619,0,0
40:05.4,0.013,0.057,-0.135,-0.30400615,0.5099458,8.81617835,281000,-280000,-287000,97387.20093,41.18,9.069999695,-550.2124634,-453.2981567,135,10.33416271,13.47639465,-60.31249619,0,0
40:05.4,-0.035,0.06875,-0.131,-0.318716125,0.497687488,8.558753787,282500,-277250,-284500,97385.73456,41.18,9.069999695,-550.2124634,-453.2981567,135,10.33416271,13.47639465,-60.31249619,0,0
40:05.4,-0.083,0.0805,-0.127,-0.3334261,0.485429175,8.301329225,284000,-274500,-282000,97384.26819,41.18,9.069999695,-550.2124634,-453.2981567,135,10.33416271,13.47639465,-60.31249619,0,0
40:05.5,-0.131,0.09225,-0.123,-0.348136075,0.473170862,8.043904663,285500,-271750,-279500,97382.80182,41.18,8.779999733,-525.6871948,-451.7969055,136,10.33416271,13.47639465,-60.31249619,0,0
40:05.5,-0.179,0.104,-0.119,-0.36284605,0.46091255,7.7864801,287000,-269000,-277000,97381.33545,41.18,8.510000229,-525.6871948,-450.3829651,138,10.33416271,13.47639465,-60.31249619,0,0
40:05.6,-0.1265,0.0875,-0.117,-0.34323275,0.377556025,7.69822025,289500,-266000,-279000,97379.25721,41.175,8.510000229,-525.6871948,-450.3829651,138,7.53650856,12.90165997,-57.91403961,0,0
40:05.6,-0.074,0.071,-0.115,-0.32361945,0.2941995,7.6099604,292000,-263000,-281000,97377.17896,41.17,8.394999981,-510.2800293,-449.6384278,138.5,7.53650856,12.90165997,-57.91403961,0,0
40:05.6,-0.157,0.08,-0.103,-0.3334261,0.392266,7.212791075,297000,-259500,-284500,97373.0896,41.17,8.279999733,-494.8728638,-448.8938904,139,7.53650856,12.90165997,-57.91403961,0,0
40:05.7,-0.24,0.089,-0.091,-0.34323275,0.4903325,6.81562175,302000,-256000,-288000,97369.00024,41.17,8.279999733,-494.8728638,-448.8938904,139,7.53650856,12.90165997,-57.91403961,0,0
40:05.7,-0.2805,0.1015,-0.0995,-0.2549729,0.387362675,5.7466969,296500,-255500,-290000,97369.65942,41.165,8.279999733,-494.8728638,-448.8938904,139,7.53650856,12.90165997,-57.91403961,0,0
40:05.8,-0.321,0.114,-0.108,-0.16671305,0.28439285,4.67777205,291000,-255000,-292000,97370.3186,41.16,8.069999695,-494.8728638,-447.421814,141,7.53650856,12.90165997,-57.91403961,0,0
40:05.8,-0.157666667,0.097333333,-0.109333333,-0.24516625,0.336694983,5.8055368,293333.3333,-250000,-295000,97369.00024,41.16,7.899999619,-464.5631714,-446.3777466,143,7.53650856,12.90165997,-57.91403961,0,0
40:05.8,0.005666667,0.080666667,-0.110666667,-0.32361945,0.388997117,6.93330155,295666.6667,-245000,-298000,97367.68189,41.16,7.899999619,-464.5631714,-446.3777466,143,7.53650856,12.90165997,-57.91403961,0,0
40:05.9,0.169,0.064,-0.112,-0.40207265,0.44129925,8.0610663,298000,-240000,-301000,97366.36353,41.16,7.899999619,-464.5631714,-446.3777466,143,6.451196909,11.97598029,-57.16452789,0,0
40:05.9,0.133,0.067666667,-0.114,-0.42168595,0.40207265,8.5906254,296000,-239666.6667,-304000,97364.31478,41.16,7.899999619,-464.5631714,-446.3777466,143,5.365885258,11.0503006,-56.41501617,0,0
40:06.0,0.097,0.071333333,-0.116,-0.44129925,0.36284605,9.1201845,294000,-239333.3333,-307000,97362.26604,41.16,7.759999752,-463.5631714,-444.9031372,144,5.365885258,11.0503006,-56.41501617,0,0
40:06.0,0.061,0.075,-0.118,-0.46091255,0.32361945,9.6497436,292000,-239000,-310000,97360.21729,41.16,7.699999809,-456.002533,-444.2466889,145,5.365885258,11.0503006,-56.41501617,0,0
40:06.0,0.046,0.064,-0.096,-0.397169325,0.201036325,9.56148375,296500,-240000,-309000,97360.92835,41.155,7.639999866,-448.4418945,-443.5902405,146,5.365885258,11.0503006,-56.41501617,0,0
40:06.1,0.031,0.053,-0.074,-0.3334261,0.0784532,9.4732239,301000,-241000,-308000,97361.6394,41.15,7.599999904,-448.4418945,-443.102183,146.6666667,5.365885258,11.0503006,-56.41501617,0,0
40:06.1,0.015333333,0.056,-0.060333333,-0.326888333,0.1176798,9.388232933,305333.3333,-242000,-303000,97360.03214,41.14666667,7.559999943,-448.4418945,-442.6141256,147.3333333,5.365885258,11.0503006,-56.41501617,0,0
40:06.2,-0.000333333,0.059,-0.046666667,-0.320350567,0.1569064,9.303241967,309666.6667,-243000,-298000,97358.42489,41.14333333,7.519999981,-448.4418945,-442.1260681,148,5.365885258,11.0503006,-56.41501617,0,0
40:06.2,-0.016,0.062,-0.033,-0.3138128,0.196133,9.218251,314000,-244000,-293000,97356.81763,41.14,7.519999981,-448.4418945,-442.1260681,148,5.365885258,11.0503006,-56.41501617,0,0
40:06.2,-0.0745,0.0645,-0.008,-0.308909475,0.2941995,9.1594111,313500,-244500,-294500,97356.30494,41.14,7.409999847,-421.0298462,-440.6864014,149,5.365885258,11.0503006,-56.41501617,0,0
40:06.3,-0.133,0.067,0.017,-0.30400615,0.392266,9.1005712,313000,-245000,-296000,97355.79224,41.14,7.354999781,-421.0298462,-439.9311982,150,4.345045209,11.37278366,-55.93500519,0,0
40:06.3,-0.1515,0.0685,0.017,-0.30400615,0.475622525,9.056441275,313000,-241500,-303000,97355.31311,41.14,7.299999714,-421.0298462,-439.1759949,151,3.32420516,11.69526672,-55.4549942,0,0
40:06.4,-0.17,0.07,0.017,-0.30400615,0.55897905,9.01231135,313000,-238000,-310000,97354.83398,41.14,7.299999714,-421.0298462,-439.1759949,151,3.32420516,11.69526672,-55.4549942,0,0
40:06.4,-0.163,0.082,0.011333333,-0.290930617,0.660314433,8.790027283,310666.6667,-240333.3333,-312666.6667,97354.5166,41.13666667,7.199999809,-405.5139465,-437.704071,153,3.32420516,11.69526672,-55.4549942,0,0
40:06.4,-0.156,0.094,0.005666667,-0.277855083,0.761649817,8.567743217,308333.3333,-242666.6667,-315333.3333,97354.19922,41.13333333,7.199999809,-405.5139465,-437.704071,153,3.32420516,11.69526672,-55.4549942,0,0
40:06.5,-0.149,0.106,-1.30E-17,-0.26477955,0.8629852,8.34545915,306000,-245000,-318000,97353.88184,41.13,7.199999809,-405.5139465,-437.704071,153,3.32420516,11.69526672,-55.4549942,0,0
40:06.5,-0.106333333,0.116666667,-0.040666667,-0.258241783,0.866254083,7.907428783,303333.3333,-241333.3333,-319333.3333,97352.70996,41.13,7.154999733,-405.5139465,-436.4671783,153.5,3.32420516,11.69526672,-55.4549942,0,0
40:06.6,-0.063666667,0.127333333,-0.081333333,-0.251704017,0.869522967,7.469398417,300666.6667,-237666.6667,-320666.6667,97351.53809,41.13,7.109999657,-405.5139465,-435.2302856,154,3.32420516,11.69526672,-55.4549942,0,0
40:06.6,-0.021,0.138,-0.122,-0.24516625,0.87279185,7.03136805,298000,-234000,-322000,97350.36621,41.13,7.109999657,-405.5139465,-435.2302856,154,3.32420516,11.69526672,-55.4549942,0,0
40:06.6,-0.019,0.123,-0.145,-0.2549729,0.799241975,7.5707338,301000,-234000,-321000,97350.79651,41.125,7.039999962,-383.0551147,-433.718811,156,3.32420516,11.69526672,-55.4549942,0,0
40:06.7,-0.017,0.108,-0.168,-0.26477955,0.7256921,8.11009955,304000,-234000,-320000,97351.22681,41.12,7.023333232,-383.0551147,-433.2154846,156.6666667,2.419822156,11.08631325,-55.2291247,0,0
40:06.7,-0.043,0.104,-0.1745,-0.279489525,0.61781895,8.085582925,312000,-231000,-316500,97350.67139,41.12,7.006666501,-383.0551147,-432.7121582,157.3333333,1.515439153,10.47735977,-55.00325521,0,0
40:06.8,-0.069,0.1,-0.181,-0.2941995,0.5099458,8.0610663,320000,-228000,-313000,97350.11597,41.12,6.989999771,-383.0551147,-432.2088318,158,0.611056149,9.868406296,-54.77738571,0,0
40:06.8,-0.052333333,0.092,-0.179333333,-0.268048433,0.4314926,8.087217367,323666.6667,-224333.3333,-311333.3333,97350.2828,41.11666667,6.989999771,-383.0551147,-432.2088318,158,0.611056149,9.868406296,-54.77738571,0,0
40:06.8,-0.035666667,0.084,-0.177666667,-0.241897367,0.3530394,8.113368433,327333.3333,-220666.6667,-309666.6667,97350.44963,41.11333333,6.96999979,-378.0462341,-426.1979065,159,0.611056149,9.868406296,-54.77738571,0,0
40:06.9,-0.019,0.076,-0.176,-0.2157463,0.2745862,8.1395195,331000,-217000,-308000,97350.61646,41.11,6.96999979,-378.0462341,-426.1979065,159,0.611056149,9.868406296,-54.77738571,0,0
40:06.9,-0.0175,0.062,-0.17,-0.210842975,0.2745862,8.42391235,341000,-215500,-304500,97351.79139,41.11,6.96999979,-378.0462341,-426.1979065,159,0.611056149,9.868406296,-54.77738571,0,0
40:07.0,-0.016,0.048,-0.164,-0.20593965,0.2745862,8.7083052,351000,-214000,-301000,97352.96631,41.11,6.96999979,-378.0462341,-424.6033936,161,0.611056149,9.868406296,-54.77738571,0,0
40:07.0,0.0285,0.0495,-0.1575,-0.18632635,0.348136075,8.6886919,348500,-213500,-305500,97350.60425,41.11,6.96999979,-378.0462341,-424.6033936,161,0.611056149,9.868406296,-54.77738571,0,0
40:07.0,0.073,0.051,-0.151,-0.16671305,0.42168595,8.6690786,346000,-213000,-310000,97348.24219,41.11,6.989999771,-369.8396606,-417.3952026,163,0.611056149,9.868406296,-54.77738571,0,0
40:07.1,0.136666667,0.055333333,-0.146333333,-0.189595233,0.467450317,8.67888525,350000,-213333.3333,-308333.3333,97349.80469,41.10666667,6.989999771,-369.8396606,-417.3952026,163,0.611056149,9.868406296,-54.77738571,0,0
40:07.1,0.200333333,0.059666667,-0.141666667,-0.212477417,0.513214683,8.6886919,354000,-213666.6667,-306666.6667,97351.36719,41.10333333,6.989999771,-369.8396606,-417.3952026,163,0.611056149,9.868406296,-54.77738571,0,0
40:07.2,0.264,0.064,-0.137,-0.2353596,0.55897905,8.69849855,358000,-214000,-305000,97352.92969,41.1,7.019999981,-370.8396912,-415.7521057,164,0.611056149,9.868406296,-54.77738571,0,0
40:07.2,0.315,0.043333333,-0.155,-0.238628483,0.51975245,9.0025047,358666.6667,-216666.6667,-303666.6667,97352.81983,41.1,7.019999981,-370.8396912,-415.7521057,164,0.611056149,9.868406296,-54.77738571,0,0
40:07.2,0.366,0.022666667,-0.173,-0.241897367,0.48052585,9.30651085,359333.3333,-219333.3333,-302333.3333,97352.70996,41.1,7.044999838,-369.6082154,-414.9297638,165,-0.88787052,10.80016375,-52.71848488,0,0
40:07.3,0.417,0.002,-0.191,-0.24516625,0.44129925,9.610517,360000,-222000,-301000,97352.6001,41.1,7.069999695,-368.3767395,-414.1074219,166,-2.38679719,11.7319212,-50.65958405,0,0
40:07.3,0.39,0.002,-0.1815,-0.2745862,0.328522775,9.3555441,362500,-230000,-298000,97352.67029,41.095,7.129999638,-368.3767395,-408.7816162,168,-2.38679719,11.7319212,-50.65958405,0,0
40:07.4,0.363,0.002,-0.172,-0.30400615,0.2157463,9.1005712,365000,-238000,-295000,97352.74048,41.09,7.156666438,-367.517924,-408.2226257,168.6666667,-2.38679719,11.7319212,-50.65958405,0,0
40:07.4,0.38,-0.018,-0.164,-0.32361945,0.32361945,10.2381426,371000,-243666.6667,-290666.6667,97354.18498,41.09,7.183333238,-366.6591085,-407.6636353,169.3333333,-2.38679719,11.7319212,-50.65958405,0,0
40:07.4,0.397,-0.038,-0.156,-0.34323275,0.4314926,11.375714,377000,-249333.3333,-286333.3333,97355.62947,41.09,7.210000038,-365.800293,-407.1046448,170,-2.38679719,11.7319212,-50.65958405,0,0
40:07.5,0.414,-0.058,-0.148,-0.36284605,0.53936575,12.5132854,383000,-255000,-282000,97357.07397,41.09,7.210000038,-365.800293,-407.1046448,170,-2.38679719,11.7319212,-50.65958405,0,0
40:07.5,0.386,-0.075,-0.139,-0.308909475,0.40207265,12.58683528,391500,-260000,-274500,97356.20422,41.09,7.279999733,-365.800293,-15.54983139,171,-2.38679719,11.7319212,-50.65958405,0,0
40:07.6,0.358,-0.092,-0.13,-0.2549729,0.26477955,12.66038515,400000,-265000,-267000,97355.33447,41.09,7.279999733,-365.800293,-15.54983139,171,-2.38679719,11.7319212,-50.65958405,0,0
40:07.6,0.199333333,-0.086,-0.115,-0.2745862,0.3334261,12.17332153,400000,-272666.6667,-265333.3333,97354.76074,41.08666667,7.309999705,-339.409256,-15.23220635,172,-2.38679719,11.7319212,-50.65958405,0,0
40:07.6,0.040666667,-0.08,-0.1,-0.2941995,0.40207265,11.68625792,400000,-280333.3333,-263666.6667,97354.18701,41.08333333,7.339999676,-313.018219,-14.9145813,173,-2.38679719,11.7319212,-50.65958405,0,0
40:07.7,-0.118,-0.074,-0.085,-0.3138128,0.4707192,11.1991943,400000,-288000,-262000,97353.61328,41.08,7.339999676,-313.018219,-14.9145813,173,-3.052626371,20.30521202,-46.92240143,0,0
40:07.7,-0.1085,-0.0735,-0.078,-0.250069575,0.406975975,10.85596155,408500,-289000,-257500,97355.02014,41.08,7.339999676,-313.018219,-14.9145813,173,-3.052626371,20.30521202,-46.92240143,0,0
40:07.8,-0.099,-0.073,-0.071,-0.18632635,0.34323275,10.5127288,417000,-290000,-253000,97356.427,41.08,7.379999638,-313.018219,-13.19433117,175,-3.052626371,20.30521202,-46.92240143,0,0
40:07.8,-0.157666667,-0.083333333,-0.061666667,-0.120948683,0.388997117,11.4149406,409333.3333,-288333.3333,-255333.3333,97357.61108,41.07666667,7.379999638,-313.018219,-13.19433117,175,-3.052626371,20.30521202,-46.92240143,0,0
40:07.8,-0.216333333,-0.093666667,-0.052333333,-0.055571017,0.434761483,12.3171524,401666.6667,-286666.6667,-257666.6667,97358.79517,41.07333333,7.419999599,-316.1558228,-12.69963169,177,-3.052626371,20.30521202,-46.92240143,0,0
40:07.9,-0.275,-0.104,-0.043,0.00980665,0.48052585,13.2193642,394000,-285000,-260000,97359.97925,41.07,7.424999714,-316.1558228,-11.74514818,177.5,-3.052626371,20.30521202,-46.92240143,0,0
40:07.9,-0.262,-0.106333333,-0.041333333,0.052302133,0.545903517,13.88294752,396333.3333,-280666.6667,-260333.3333,97359.74121,41.07,7.429999828,-316.1558228,-10.79066467,178,-3.052626371,20.30521202,-46.92240143,0,0
40:08.0,-0.249,-0.108666667,-0.039666667,0.094797617,0.611281183,14.54653083,398666.6667,-276333.3333,-260666.6667,97359.50318,41.07,7.434999942,-316.1558228,-9.836181164,178.5,-2.547549605,18.7492342,-46.24889374,0,0
40:08.0,-0.236,-0.111,-0.038,0.1372931,0.67665885,15.21011415,401000,-272000,-261000,97359.26514,41.07,7.440000057,-316.1558228,-8.881697655,179,-2.042472839,17.19325638,-45.57538605,0,0
40:08.0,-0.301,-0.0825,-0.036,-0.0392266,0.9022118,14.41087218,398500,-269000,-262500,97361.87439,41.065,7.409999847,-320.1410217,-8.654203415,181,-2.042472839,17.19325638,-45.57538605,0,0
40:08.1,-0.366,-0.054,-0.034,-0.2157463,1.12776475,13.6116302,396000,-266000,-264000,97364.48364,41.06,7.409999847,-320.1410217,-8.654203415,181,-2.042472839,17.19325638,-45.57538605,0,0
40:08.1,-0.446666667,-0.046,-0.058333333,-0.18632635,1.036236017,12.97419795,391666.6667,-264666.6667,-271333.3333,97362.30062,41.06,7.379999876,-320.1410217,-7.992679358,181.5,-2.042472839,17.19325638,-45.57538605,0,0
40:08.2,-0.527333333,-0.038,-0.082666667,-0.1569064,0.944707283,12.3367657,387333.3333,-263333.3333,-278666.6667,97360.11759,41.06,7.349999905,-320.1410217,-7.3311553,182,-2.042472839,17.19325638,-45.57538605,0,0
40:08.2,-0.608,-0.03,-0.107,-0.12748645,0.85317855,11.69933345,383000,-262000,-286000,97357.93457,41.06,7.349999905,-320.1410217,-7.3311553,182,-2.042472839,17.19325638,-45.57538605,0,0
40:08.2,-0.534,-0.002,-0.144,-0.24516625,0.61781895,11.1207411,376000,-217000,-289000,97363.15308,41.06,7.25,-325.0621948,-7.211862087,184,-2.042472839,17.19325638,-45.57538605,0,0
40:08.3,-0.514,0.003,-0.132,-0.222284067,0.585130117,10.83307937,372333.3333,-209000,-297333.3333,97362.01986,41.05666667,7.25,-325.0621948,-7.211862087,184,-2.042472839,17.19325638,-45.57538605,0,0
40:08.3,-0.494,0.008,-0.12,-0.199401883,0.552441283,10.54541763,368666.6667,-201000,-305666.6667,97360.88664,41.05333333,7.25,-325.0621948,-7.211862087,184,-1.635418534,8.797772408,-43.91235352,0,0
40:08.4,-0.474,0.013,-0.108,-0.1765197,0.51975245,10.2577559,365000,-193000,-314000,97359.75342,41.05,7.139999866,-325.0621948,-7.101377964,186,-1.635418534,8.797772408,-43.91235352,0,0
40:08.4,-0.4385,0.011,-0.097,-0.16671305,0.554075725,10.002783,360000,-179500,-318000,97357.50122,41.05,7.079999924,-332.553299,-6.042556048,187,-1.635418534,8.797772408,-43.91235352,0,0
40:08.4,-0.403,0.009,-0.086,-0.1569064,0.588399,9.7478101,355000,-166000,-322000,97355.24902,41.05,7.019999981,-340.0444031,-4.983734131,188,-1.635418534,8.797772408,-43.91235352,0,0
40:08.5,-0.38625,0.01375,-0.08225,-0.178971363,0.571237363,9.666905238,351750,-161250,-325000,97355.95245,41.0475,7.019999981,-340.0444031,-4.983734131,188,-1.635418534,8.797772408,-43.91235352,0,0
40:08.5,-0.3695,0.0185,-0.0785,-0.201036325,0.554075725,9.586000375,348500,-156500,-328000,97356.65588,41.045,6.970000029,-340.0444031,-4.997613907,189,-1.635418534,8.797772408,-43.91235352,0,0
40:08.6,-0.35275,0.02325,-0.07475,-0.223101288,0.536914088,9.505095513,345250,-151750,-331000,97357.35931,41.0425,6.920000076,-340.0444031,-5.011493683,190,-1.635418534,8.797772408,-43.91235352,0,0
40:08.6,-0.336,0.028,-0.071,-0.24516625,0.51975245,9.42419065,342000,-147000,-334000,97358.06274,41.04,6.920000076,-340.0444031,-5.011493683,190,-2.263872623,2.405014038,-42.40499878,0,0
40:08.6,-0.3535,0.025,-0.0715,-0.2353596,0.57859235,9.693873525,345000,-139000,-334500,97357.00989,41.04,6.819999695,-332.4157715,-1.982216835,192,-2.263872623,2.405014038,-42.40499878,0,0
40:08.7,-0.371,0.022,-0.072,-0.22555295,0.63743225,9.9635564,348000,-131000,-335000,97355.95703,41.04,6.819999695,-332.4157715,-1.982216835,192,-2.263872623,2.405014038,-42.40499878,0,0
40:08.7,-0.3285,0.0335,-0.0815,-0.259876225,0.524655775,9.5516771,350500,-119500,-334500,97352.73133,41.035,6.774999857,-332.4157715,-2.093901277,193,-2.263872623,2.405014038,-42.40499878,0,0
40:08.8,-0.286,0.045,-0.091,-0.2941995,0.4118793,9.1397978,353000,-108000,-334000,97349.50562,41.03,6.730000019,-332.4157715,-2.205585718,194,-2.263872623,2.405014038,-42.40499878,0,0
40:08.8,-0.326,0.042666667,-0.084333333,-0.290930617,0.395534883,9.1397978,347666.6667,-104666.6667,-339333.3333,97349.45069,41.03,6.730000019,-332.4157715,-2.205585718,194,-2.263872623,2.405014038,-42.40499878,0,0
40:08.8,-0.366,0.040333333,-0.077666667,-0.287661733,0.379190467,9.1397978,342333.3333,-101333.3333,-344666.6667,97349.39575,41.03,6.649999619,-331.2412109,-2.407971621,196,-2.263872623,2.405014038,-42.40499878,0,0
40:08.9,-0.406,0.038,-0.071,-0.28439285,0.36284605,9.1397978,337000,-98000,-350000,97349.34082,41.03,6.649999619,-331.2412109,-2.407971621,196,-2.263872623,2.405014038,-42.40499878,0,0
40:08.9,-0.28,0.042,-0.0715,-0.299102825,0.102969825,8.497462225,337500,-87500,-347000,97348.16895,41.03,6.614999772,-331.2412109,-1.545063407,197,-2.263872623,2.405014038,-42.40499878,0,0
40:09.0,-0.154,0.046,-0.072,-0.3138128,-0.1569064,7.85512665,338000,-77000,-344000,97346.99707,41.03,6.579999924,-331.2412109,-0.682155192,198,-2.263872623,2.405014038,-42.40499878,0,0
40:09.0,-0.165,0.044333333,-0.039,-0.415148183,-0.228821833,7.8845466,336333.3333,-75666.66667,-350333.3333,97347.14355,41.02666667,6.579999924,-331.2412109,-0.682155192,198,-2.263872623,2.405014038,-42.40499878,0,0
40:09.0,-0.176,0.042666667,-0.006,-0.516483567,-0.300737267,7.91396655,334666.6667,-74333.33333,-356666.6667,97347.29004,41.02333333,6.529999733,-332.4188232,-1.001981258,199,-2.832577229,-1.197719097,-41.47513771,0,0
40:09.1,-0.187,0.041,0.027,-0.61781895,-0.3726527,7.9433865,333000,-73000,-363000,97347.43652,41.02,6.529999733,-332.4188232,-1.001981258,199,-3.116929531,-2.999085665,-41.01020718,0,0
40:09.1,-0.21325,0.03175,0.06825,-0.61781895,-0.296651163,7.8060934,331750,-70500,-363500,97347.73865,41.0175,6.529999733,-332.4188232,-1.001981258,199,-3.401281834,-4.800452232,-40.54527664,0,0
40:09.2,-0.2395,0.0225,0.1095,-0.61781895,-0.220649625,7.6688003,330500,-68000,-364000,97348.04077,41.015,6.519999822,-332.4188232,-0.136037469,199.6666667,-3.401281834,-4.800452232,-40.54527664,0,0
40:09.2,-0.26575,0.01325,0.15075,-0.61781895,-0.144648088,7.5315072,329250,-65500,-364500,97348.3429,41.0125,6.509999911,-332.4188232,0.729906321,200.3333333,-3.401281834,-4.800452232,-40.54527664,0,0
40:09.2,-0.292,0.004,0.192,-0.61781895,-0.06864655,7.3942141,328000,-63000,-365000,97348.64502,41.01,6.5,-332.4188232,1.59585011,201,-3.401281834,-4.800452232,-40.54527664,0,0
40:09.3,-0.394,-0.039,0.221,-0.5295591,0.02941995,8.4729456,320000,-63000,-356000,97348.64502,41.01,6.509999752,-331.8800049,1.095641971,203,-3.401281834,-4.800452232,-40.54527664,0,0
40:09.3,-0.419666667,-0.045,0.228333333,-0.526290217,0.10787315,8.6690786,324666.6667,-57000,-355666.6667,97349.98983,41.01,6.509999752,-331.8800049,1.095641971,203,-3.401281834,-4.800452232,-40.54527664,0,0
40:09.4,-0.445333333,-0.051,0.235666667,-0.523021333,0.18632635,8.8652116,329333.3333,-51000,-355333.3333,97351.33463,41.01,6.524999857,-331.8800049,1.818983973,204,-3.669505716,-7.325720787,-41.85430336,0,0
40:09.4,-0.471,-0.057,0.243,-0.51975245,0.26477955,9.0613446,334000,-45000,-355000,97352.67944,41.01,6.539999962,-331.8800049,2.542325974,205,-3.937729597,-9.850989342,-43.16333008,0,0
40:09.4,-0.437,-0.05,0.225,-0.5099458,0.2745862,9.144701125,330500,-37000,-349500,97350.93994,41.005,6.564999819,-328.0565338,2.244882882,206,-3.937729597,-9.850989342,-43.16333008,0,0
40:09.5,-0.403,-0.043,0.207,-0.50013915,0.28439285,9.22805765,327000,-29000,-344000,97349.20044,41,6.589999676,-324.2330627,1.94743979,207,-3.937729597,-9.850989342,-43.16333008,0,0
40:09.5,-0.416333333,-0.046333333,0.197,-0.467450317,0.330157217,9.662819133,326000,-26666.66667,-343333.3333,97348.6023,41,6.589999676,-324.2330627,1.94743979,207,-3.937729597,-9.850989342,-43.16333008,0,0
40:09.6,-0.429666667,-0.049666667,0.187,-0.434761483,0.375921583,10.09758062,325000,-24333.33333,-342666.6667,97348.00415,41,6.659999847,-324.2330627,1.357896805,209,-3.937729597,-9.850989342,-43.16333008,0,0
40:09.6,-0.443,-0.053,0.177,-0.40207265,0.42168595,10.5323421,324000,-22000,-342000,97347.40601,41,6.659999847,-324.2330627,1.357896805,209,-3.937729597,-9.850989342,-43.16333008,0,0
40:09.6,-0.4075,-0.052,0.158,-0.416782625,0.299102825,10.29207918,323500,-13500,-349500,97349.02955,41,6.659999847,-324.2330627,1.357896805,209,-3.937729597,-9.850989342,-43.16333008,0,0
40:09.7,-0.372,-0.051,0.139,-0.4314926,0.1765197,10.05181625,323000,-5000,-357000,97350.65308,41,6.730000019,-317.9248657,3.563541889,211,-4.070774555,-16.84804535,-46.79331589,0,0
40:09.7,-0.381,-0.055333333,0.148,-0.4314926,0.124217567,9.613785883,325333.3333,-1000,-350000,97350.98877,40.99666667,6.730000019,-317.9248657,3.563541889,211,-4.070774555,-16.84804535,-46.79331589,0,0
40:09.8,-0.39,-0.059666667,0.157,-0.4314926,0.071915433,9.175755517,327666.6667,3000,-343000,97351.32447,40.99333333,6.809999943,-317.9248657,2.858845949,213,-4.070774555,-16.84804535,-46.79331589,0,0
40:09.8,-0.399,-0.064,0.166,-0.4314926,0.0196133,8.73772515,330000,7000,-336000,97351.66016,40.99,6.829999924,-317.40345,3.152063549,213.25,-4.070774555,-16.84804535,-46.79331589,0,0
40:09.8,-0.257,-0.0765,0.1765,-0.377556025,0.0588399,8.91424485,335000,14500,-336000,97350.36927,40.99,6.849999905,-316.8820343,3.445281148,213.5,-4.070774555,-16.84804535,-46.79331589,0,0
40:09.9,-0.115,-0.089,0.187,-0.32361945,0.0980665,9.09076455,340000,22000,-336000,97349.07837,40.99,6.869999885,-316.3606186,3.738498748,213.75,-4.070774555,-16.84804535,-46.79331589,0,0
40:09.9,-0.237,-0.119,0.1805,-0.299102825,0.1372931,9.99297635,342500,25500,-334500,97352.3468,40.99,6.889999866,-315.8392029,4.031716347,214,-4.070774555,-16.84804535,-46.79331589,0,0
40:10.0,-0.359,-0.149,0.174,-0.2745862,0.1765197,10.89518815,345000,29000,-333000,97355.61523,40.99,6.989999771,-315.8392029,3.276681662,216,-4.044902802,-21.51892853,-49.89085388,0,0
40:10.0,-0.342,-0.140666667,0.183,-0.28439285,0.111142033,10.91153257,342666.6667,31666.66667,-332000,97355.5013,40.98666667,6.989999771,-315.8392029,3.276681662,216,-4.044902802,-21.51892853,-49.89085388,0,0
40:10.0,-0.325,-0.132333333,0.192,-0.2941995,0.045764367,10.92787698,340333.3333,34333.33333,-331000,97355.38737,40.98333333,7.089999676,-314.4897461,2.56658721,218,-4.044902802,-21.51892853,-49.89085388,0,0
40:10.1,-0.308,-0.124,0.201,-0.30400615,-0.0196133,10.9442214,338000,37000,-330000,97355.27344,40.98,7.089999676,-314.4897461,2.56658721,218,-4.044902802,-21.51892853,-49.89085388,0,0
40:10.1,-0.257333333,-0.118333333,0.207666667,-0.28439285,0.071915433,10.51926657,333333.3333,38000,-331666.6667,97355.62744,40.97666667,7.089999676,-314.4897461,2.56658721,218,-4.044902802,-21.51892853,-49.89085388,0,0
40:10.2,-0.206666667,-0.112666667,0.214333333,-0.26477955,0.163444167,10.09431173,328666.6667,39000,-333333.3333,97355.98145,40.97333333,7.199999809,-314.4897461,4.472947121,220,-4.044902802,-21.51892853,-49.89085388,0,0
40:10.2,-0.156,-0.107,0.221,-0.24516625,0.2549729,9.6693569,324000,40000,-335000,97356.33545,40.97,7.199999809,-314.4897461,4.472947121,220,-4.044902802,-21.51892853,-49.89085388,0,0
40:10.2,-0.1695,-0.1215,0.215,-0.24516625,0.397169325,10.65982855,328500,40500,-335000,97355.88074,40.97,7.199999809,-314.4897461,4.472947121,220,-4.044902802,-21.51892853,-49.89085388,0,0
40:10.3,-0.183,-0.136,0.209,-0.24516625,0.53936575,11.6503002,333000,41000,-335000,97355.42603,40.97,7.309999943,-312.6708984,3.670143843,221,-4.044902802,-21.51892853,-49.89085388,0,0
40:10.3,-0.3015,-0.1375,0.202,-0.16671305,0.51975245,11.6895268,337500,44500,-329000,97359.04541,40.97,7.309999943,-312.6708984,3.670143843,221,-3.751330614,-25.83931351,-54.54878616,0,0
40:10.4,-0.42,-0.139,0.195,-0.08825985,0.50013915,11.7287534,342000,48000,-323000,97362.66479,40.97,7.429999828,-312.6708984,2.91493535,223,-3.751330614,-25.83931351,-54.54878616,0,0
40:10.4,-0.419333333,-0.133333333,0.186666667,-0.111142033,0.467450317,11.4933938,345666.6667,46333.33333,-323000,97362.16023,40.96666667,7.489999771,-312.090683,3.370133519,224,-3.751330614,-25.83931351,-54.54878616,0,0
40:10.4,-0.418666667,-0.127666667,0.178333333,-0.134024217,0.434761483,11.2580342,349333.3333,44666.66667,-323000,97361.65568,40.96333333,7.549999714,-311.5104675,3.825331688,225,-3.751330614,-25.83931351,-54.54878616,0,0
40:10.5,-0.418,-0.122,0.17,-0.1569064,0.40207265,11.0226746,353000,43000,-323000,97361.15112,40.96,7.549999714,-311.5104675,3.825331688,225,-3.751330614,-25.83931351,-54.54878616,0,0
40:10.5,-0.3035,-0.133,0.1545,-0.102969825,0.40207265,11.22861425,346500,48500,-317000,97362.20093,40.96,7.549999714,-311.5104675,3.825331688,225,-3.751330614,-25.83931351,-54.54878616,0,0
40:10.6,-0.189,-0.144,0.139,-0.04903325,0.40207265,11.4345539,340000,54000,-311000,97363.25073,40.96,7.669999599,-311.5104675,3.063275099,226,-3.518654823,-31.04245186,-57.80789948,0,0
40:10.6,-0.129333333,-0.145333333,0.133666667,-0.042495483,0.192864117,11.18284988,337000,55666.66667,-310333.3333,97363.53556,40.96,7.669999599,-311.5104675,3.063275099,226,-3.518654823,-31.04245186,-57.80789948,0,0
40:10.6,-0.069666667,-0.146666667,0.128333333,-0.035957717,-0.016344417,10.93114587,334000,57333.33333,-309666.6667,97363.82039,40.96,7.799999714,-300.6549683,4.813204765,228,-3.518654823,-31.04245186,-57.80789948,0,0
40:10.7,-0.01,-0.148,0.123,-0.02941995,-0.22555295,10.67944185,331000,59000,-309000,97364.10522,40.96,7.869999886,-300.6549683,4.397833943,229,-3.518654823,-31.04245186,-57.80789948,0,0
40:10.7,0.028,-0.17,0.152,-0.0196133,-0.279489525,11.44436055,337500,62500,-309000,97364.21814,40.955,7.940000057,-300.6549683,3.982463121,230,-3.518654823,-31.04245186,-57.80789948,0,0
40:10.8,0.066,-0.192,0.181,-0.00980665,-0.3334261,12.20927925,344000,66000,-309000,97364.33105,40.95,7.940000057,-300.6549683,3.982463121,230,-3.518654823,-31.04245186,-57.80789948,0,0
40:10.8,0.115333333,-0.179333333,0.217,-0.0392266,-0.297468383,11.87258427,343666.6667,65666.66667,-300333.3333,97366.87011,40.95,7.940000057,-300.6549683,3.982463121,230,-3.518654823,-31.04245186,-57.80789948,0,0
40:10.8,0.164666667,-0.166666667,0.253,-0.06864655,-0.261510667,11.53588928,343333.3333,65333.33333,-291666.6667,97369.40918,40.95,8.090000153,-323.1830444,6.713674068,231,-3.518654823,-31.04245186,-57.80789948,0,0
40:10.9,0.214,-0.154,0.289,-0.0980665,-0.22555295,11.1991943,343000,65000,-283000,97371.94824,40.95,8.090000153,-323.1830444,6.713674068,231,-3.113787174,-30.73487282,-60.08516694,0,0
40:10.9,0.196,-0.167,0.3075,-0.02941995,-0.053936575,11.45907053,343500,57500,-293500,97372.3999,40.945,8.090000153,-323.1830444,6.713674068,231,-2.708919525,-30.42729378,-62.36243439,0,0
