time,field.airspeed,field.angular_velocity.x,field.angular_velocity.y,field.angular_velocity.z,field.linear_acceleration.x,field.linear_acceleration.y,field.linear_acceleration.z,field.magnetic_field.x,field.magnetic_field.y,field.magnetic_field.z,field.fluid_pressure,field.temperature,field.measured.pitch,field.measured.roll,field.measured.yaw,field.alt_error,field.aspd_error,field.xtrack_error,field.wp_dist,fault_state
2018-07-18 19:56:50.880,17.3264045715,2.018,-0.293,0.212,1.79461695,-0.1372931,14.0823494,-194000.0,440000.0,-250000.0,97310.49805,60.04,0.721475124,-50.99129105,88.85004425,-0.059999999,-237.2537537,-36.43005371,7.0,0.0
2018-07-18 19:56:50.920,17.3264045715,2.056,-0.166,0.196,1.8240369,-0.32361945,14.81784815,-194000.0,440000.0,-250000.0,97310.49805,60.04,0.721475124,-50.99129105,88.85004425,-0.059999999,-237.2537537,-36.43005371,7.0,0.0
2018-07-18 19:56:50.960,17.3264045715,2.0006666666666666,-0.153,0.2113333333333333,1.59848395,-0.1634441666666666,14.716512766666666,-186666.66666666663,424333.3333333333,-275000.0,97316.72974,60.03666666666667,2.718510151,-22.4634304,82.60158539,-0.119999997,-232.6404572,-34.64912415,9.0,0.0
2018-07-18 19:56:51.000,17.35863590237,1.9453333333333327,-0.14,0.2266666666666666,1.372931,-0.0032688833333333,14.615177383333334,-179333.33333333334,408666.6666666667,-300000.0,97322.96143,60.03333333333333,2.718510151,-22.4634304,82.60158539,-0.119999997,-232.6404572,-34.64912415,9.0,0.0
2018-07-18 19:56:51.040,17.390867233239998,1.89,-0.127,0.242,1.14737805,0.1569064,14.513842,-172000.0,393000.0,-325000.0,97329.19312,60.03,2.718510151,-22.4634304,82.60158539,-0.179999996,-235.8415604,-33.724315645000004,10.0,0.0
2018-07-18 19:56:51.080,17.42309856411,1.818,-0.163,0.2309999999999999,1.0395048999999998,0.14709975,14.2784824,-166500.0,361500.0,-356000.0,97335.44312,60.025000000000006,2.718510151,-22.4634304,82.60158539,-0.239999995,-239.0426636,-32.79950714,11.0,0.0
2018-07-18 19:56:51.120,17.45532989498,1.746,-0.199,0.22,0.93163175,0.1372931,14.0431228,-161000.0,330000.0,-387000.0,97341.69312,60.02,2.718510151,-22.4634304,82.60158539,-0.239999995,-239.0426636,-32.79950714,11.0,0.0
2018-07-18 19:56:51.160,17.48756122585,1.5923333333333334,-0.2016666666666666,0.201,0.7289609833333334,0.2320907166666666,13.42530385,-157000.0,306666.6666666667,-401666.6666666667,97337.53662333332,60.016666666666666,2.718510151,-22.4634304,82.60158539,-0.329999991,-245.42255405,-31.890340805,12.0,0.0
2018-07-18 19:56:51.200,17.51979255672,1.4386666666666663,-0.2043333333333333,0.182,0.5262902166666668,0.3268883333333333,12.8074849,-153000.0,283333.3333333333,-416333.3333333333,97333.38012666666,60.013333333333335,2.718510151,-22.4634304,82.60158539,-0.419999987,-251.8024445,-30.98117447,13.0,0.0
2018-07-18 19:56:51.240,17.55202388759,1.285,-0.207,0.163,0.32361945,0.42168595,12.18966595,-149000.0,260000.0,-431000.0,97329.22363,60.01,2.718510151,-22.4634304,82.60158539,-0.524999991,-254.39911655000003,-74.159791935,13.5,0.0
2018-07-18 19:56:51.280,17.58425521846,1.0903333333333332,-0.2093333333333333,0.1403333333333333,0.2386284833333333,0.3988037666666666,12.07198615,-145666.66666666666,239000.0,-440666.6666666667,97323.81591666666,60.00333333333333,2.718510151,-22.4634304,82.60158539,-0.629999995,-256.9957886,-117.3384094,14.0,0.0
2018-07-18 19:56:51.320,17.61648654933,0.8956666666666666,-0.2116666666666666,0.1176666666666666,0.1536375166666666,0.3759215833333333,11.95430635,-142333.33333333334,218000.0,-450333.3333333333,97318.40820333334,59.99666666666667,2.718510151,-22.4634304,82.60158539,-0.629999995,-256.9957886,-117.3384094,14.0,0.0
2018-07-18 19:56:51.360,17.6487178802,0.701,-0.214,0.095,0.06864655,0.3530394,11.83662655,-139000.0,197000.0,-460000.0,97313.00049,59.99,4.7017555235,-4.926473139999999,80.36889267000001,-0.75,-210.93379215,-118.2598076,15.0,0.0
2018-07-18 19:56:51.400,17.709297603988887,0.1033333333333332,-0.215,0.123,-0.0261510666666666,0.4641814333333333,12.222354783333332,-140333.33333333334,172666.66666666666,-464333.3333333333,97312.00968666669,59.986666666666665,6.685000896,12.61048412,78.13619995,-0.870000005,-164.8717957,-119.1812058,16.0,0.0
2018-07-18 19:56:51.440,17.769877327777778,-0.4943333333333334,-0.216,0.151,-0.1209486833333333,0.5753234666666667,12.608083016666669,-141666.66666666666,148333.33333333334,-468666.6666666667,97311.01888333334,59.98333333333333,6.685000896,12.61048412,78.13619995,-0.9599999986666666,-170.25859073333334,-119.78419496666666,16.666666666666668,0.0
2018-07-18 19:56:51.480,17.830457051566665,-1.092,-0.217,0.179,-0.2157463,0.6864655,12.99381125,-143000.0,124000.0,-473000.0,97310.02808,59.98,6.685000896,12.61048412,78.13619995,-1.0499999923333334,-175.64538576666666,-120.38718413333334,17.333333333333332,0.0
2018-07-18 19:56:51.520,17.891036775355555,-1.316,-0.147,0.1425,-0.2598762249999999,0.6472389,12.77806495,-143500.0,142500.0,-469000.0,97308.50525,59.975,6.685000896,12.61048412,78.13619995,-1.139999986,-181.0321808,-120.9901733,18.0,0.0
2018-07-18 19:56:51.560,17.951616499144443,-1.54,-0.077,0.106,-0.30400615,0.6080123,12.56231865,-144000.0,161000.0,-465000.0,97306.98242,59.97,6.685000896,12.61048412,78.13619995,-1.294999957,-191.0460434,-121.8862152,19.0,0.0
2018-07-18 19:56:51.600,18.012196222933333,-1.486,-0.024,0.0635,-0.2255529499999999,0.505042475,12.223989225,-144000.0,161000.0,-465000.0,97303.12805,59.965,6.685000896,12.61048412,78.13619995,-1.449999928,-201.059906,-122.7822571,20.0,0.0
2018-07-18 19:56:51.640,18.07277594672222,-1.432,0.029,0.021,-0.14709975,0.40207265,11.8856598,-144000.0,161000.0,-465000.0,97299.27368,59.96,6.685000896,12.61048412,78.13619995,-1.449999928,-201.059906,-122.7822571,20.0,0.0
2018-07-18 19:56:51.680,18.13335567051111,-1.326,0.0403333333333333,0.0073333333333333,-0.1372931,0.46091255,11.8660465,-145333.33333333334,201333.3333333333,-447000.0,97298.19132333332,59.95666666666667,6.685000896,12.61048412,78.13619995,-1.6149999495,-210.2267227,-123.66560745,21.0,0.0
2018-07-18 19:56:51.720,18.1939353943,-1.22,0.0516666666666666,-0.0063333333333333,-0.12748645,0.5197524499999999,11.8464332,-146666.66666666666,241666.6666666667,-429000.0,97297.10896666668,59.95333333333333,6.685000896,12.61048412,78.13619995,-1.779999971,-219.3935394,-124.5489578,22.0,0.0
2018-07-18 19:56:51.760,18.118345022212495,-1.114,0.063,-0.02,-0.1176798,0.57859235,11.8268199,-148000.0,282000.0,-411000.0,97296.02661,59.95,7.6163060665,0.6133637400000005,77.243980405,-1.9599999185,-220.2457428,-125.4069595,22.5,0.0
2018-07-18 19:56:51.800,18.042754650125,-1.0686666666666669,0.0606666666666666,-0.0303333333333333,-0.0098066499999999,0.4380303666666666,11.2580342,-151666.66666666666,296000.0,-401000.0,97295.54239666669,59.946666666666665,8.547611237,-11.38375664,76.35176086,-2.139999866,-221.0979462,-126.2649612,23.0,0.0
2018-07-18 19:56:51.840,17.967164278037497,-1.0233333333333334,0.0583333333333333,-0.0406666666666666,0.0980665,0.2974683833333333,10.6892485,-155333.33333333334,310000.0,-391000.0,97295.05818333333,59.943333333333335,8.547611237,-11.38375664,76.35176086,-2.519999981,-200.628479,-127.9894028,25.0,0.0
2018-07-18 19:56:51.880,17.891573905949997,-0.978,0.056,-0.051,0.20593965,0.1569064,10.1204628,-159000.0,324000.0,-381000.0,97294.57397,59.94,8.547611237,-11.38375664,76.35176086,-2.519999981,-200.628479,-127.9894028,25.0,0.0
2018-07-18 19:56:51.920,17.8159835338625,-0.851,0.051,-0.0745,0.250069575,-0.0147099749999999,10.007686325,-171000.0,340000.0,-367000.0,97294.84558,59.935,8.547611237,-11.38375664,76.35176086,-2.519999981,-200.628479,-127.9894028,25.0,0.0
2018-07-18 19:56:51.960,17.740393161775,-0.724,0.046,-0.098,0.2941995,-0.18632635,9.89490985,-183000.0,356000.0,-353000.0,97295.11719,59.93,8.547611237,-11.38375664,76.35176086,-2.519999981,-200.628479,-127.9894028,25.0,0.0
2018-07-18 19:56:52.000,17.6648027896875,-0.738,0.0095,-0.021,0.5638823749999999,-0.161809725,10.38524235,-183000.0,356000.0,-353000.0,97295.11719,59.93,8.547611237,-11.38375664,76.35176086,-2.889999866,-158.9212341,-129.6715851,27.0,0.0
2018-07-18 19:56:52.040,17.5892124176,-0.752,-0.027,0.056,0.83356525,-0.1372931,10.87557485,-183000.0,356000.0,-353000.0,97295.11719,59.93,7.995443344,-26.83698463,77.38871765,-2.889999866,-158.9212341,-129.6715851,27.0,0.0
2018-07-18 19:56:52.080,17.483129501344443,-0.6880000000000001,-0.0213333333333333,0.0763333333333333,1.0002783,-0.2909306166666666,10.457157783333331,-190000.0,364000.0,-345333.3333333333,97293.89038333332,59.92666666666667,7.995443344,-26.83698463,77.38871765,-3.25,-145.7475586,-131.3706665,28.0,0.0
2018-07-18 19:56:52.120,17.377046585088888,-0.624,-0.0156666666666666,0.0966666666666666,1.16699135,-0.4445681333333333,10.038740716666666,-197000.0,372000.0,-337666.6666666667,97292.66357666667,59.92333333333333,7.995443344,-26.83698463,77.38871765,-3.3349999785,-142.918296825,-131.789096825,28.5,0.0
2018-07-18 19:56:52.160,17.270963668833332,-0.56,-0.01,0.117,1.3337044,-0.59820565,9.62032365,-204000.0,380000.0,-330000.0,97291.43677,59.92,7.995443344,-26.83698463,77.38871765,-3.419999957,-140.08903505,-132.20752715,29.0,0.0
2018-07-18 19:56:52.200,17.164880752577776,-0.471,-0.0273333333333333,0.1443333333333333,1.4775352666666666,-0.5295591000000001,8.950202566666666,-203666.66666666663,391666.6666666667,-318666.6666666667,97295.94319666666,59.91333333333333,7.995443344,-26.83698463,77.38871765,-3.659999907,-123.389244075,-133.462825775,30.5,0.0
2018-07-18 19:56:52.240,17.058797836322224,-0.382,-0.0446666666666666,0.1716666666666667,1.6213661333333331,-0.46091255,8.280081483333333,-203333.3333333333,403333.3333333333,-307333.3333333333,97300.44962333332,59.906666666666666,7.995443344,-26.83698463,77.38871765,-3.899999857,-106.6894531,-134.7181244,32.0,0.0
2018-07-18 19:56:52.280,16.95271492006667,-0.293,-0.062,0.199,1.765197,-0.392266,7.6099604,-203000.0,415000.0,-296000.0,97304.95605,59.9,7.995443344,-26.83698463,77.38871765,-3.899999857,-106.6894531,-134.7181244,32.0,0.0
2018-07-18 19:56:52.320,16.846632003811113,-0.246,-0.0945,0.229,1.569064,-0.397169325,7.869836625,-178500.0,419500.0,-283500.0,97295.950315,59.895,7.995443344,-26.83698463,77.38871765,-3.899999857,-106.6894531,-134.7181244,32.0,0.0
2018-07-18 19:56:52.360,16.740549087555557,-0.199,-0.127,0.259,1.372931,-0.40207265,8.12971285,-154000.0,424000.0,-271000.0,97286.94458,59.89,7.995443344,-26.83698463,77.38871765,-3.899999857,-106.6894531,-134.7181244,32.0,0.0
2018-07-18 19:56:52.400,16.6344661713,-0.2095,-0.162,0.2815,1.103248125,-0.2745862,7.933579850000001,-143000.0,427500.0,-263000.0,97283.462525,59.885000000000005,7.020170689,-35.97161865,74.41744232,-4.170000076,-63.44661713,-136.3749542,33.0,0.0
2018-07-18 19:56:52.440,16.590750885040002,-0.22,-0.197,0.304,0.83356525,-0.14709975,7.73744685,-132000.0,431000.0,-255000.0,97279.98047,59.88,7.020170689,-35.97161865,74.41744232,-4.170000076,-63.44661713,-136.3749542,33.0,0.0
2018-07-18 19:56:52.480,16.547035598780003,-0.2293333333333333,-0.2206666666666666,0.3016666666666666,0.8597163166666667,-0.2255529499999999,8.7279185,-128000.0,432333.3333333333,-252333.3333333333,97280.60506333334,59.876666666666665,7.020170689,-35.97161865,74.41744232,-4.389999866,-27.61611938,-138.0486603,35.0,0.0
2018-07-18 19:56:52.520,16.50332031252,-0.2386666666666666,-0.2443333333333333,0.2993333333333333,0.8858673833333334,-0.30400615,9.71839015,-124000.0,433666.6666666667,-249666.66666666663,97281.22965666666,59.873333333333335,7.020170689,-35.97161865,74.41744232,-4.389999866,-27.61611938,-138.0486603,35.0,0.0
2018-07-18 19:56:52.560,16.45960502626,-0.248,-0.268,0.297,0.91201845,-0.38245935,10.7088618,-120000.0,435000.0,-247000.0,97281.85425,59.87,7.020170689,-35.97161865,74.41744232,-4.389999866,-27.61611938,-138.0486603,35.0,0.0
2018-07-18 19:56:52.600,16.41588974,-0.297,-0.2965,0.3005,1.0002783,-0.2598762249999999,10.978544674999998,-120000.0,435000.0,-247000.0,97281.85425,59.87,7.020170689,-35.97161865,74.41744232,-4.559999943,-11.45191193,-139.6632233,37.0,0.0
2018-07-18 19:56:52.640,16.37217445374,-0.346,-0.325,0.304,1.08853815,-0.1372931,11.24822755,-120000.0,435000.0,-247000.0,97281.85425,59.87,7.020170689,-35.97161865,74.41744232,-4.559999943,-11.45191193,-139.6632233,37.0,0.0
2018-07-18 19:56:52.680,16.328459167480002,-0.3249999999999999,-0.3146666666666666,0.3063333333333333,1.3304355166666666,-0.1830574666666666,11.182849883333333,-136000.0,439333.3333333333,-243000.0,97285.71981,59.86333333333333,7.020170689,-35.97161865,74.41744232,-4.71999979,-14.50061798,-141.3200531,38.0,0.0
2018-07-18 19:56:52.720,16.28474388122,-0.304,-0.3043333333333333,0.3086666666666666,1.5723328833333334,-0.2288218333333333,11.117472216666666,-152000.0,443666.6666666667,-239000.0,97289.58537,59.85666666666667,7.020170689,-35.97161865,74.41744232,-4.7899997235,-17.115974425,-142.1231003,39.0,0.0
2018-07-18 19:56:52.760,16.24102859496,-0.283,-0.294,0.311,1.81423025,-0.2745862,11.05209455,-168000.0,448000.0,-235000.0,97293.45093,59.85,7.020170689,-35.97161865,74.41744232,-4.859999657,-19.73133087,-142.9261475,40.0,0.0
2018-07-18 19:56:52.800,16.1973133087,-0.258,-0.3185,0.317,2.2751428,-0.4511059,11.831723225,-168000.0,448000.0,-235000.0,97293.45093,59.85,7.090034008,-44.03111649,64.99840546,-4.859999657,-19.73133087,-142.9261475,40.0,0.0
2018-07-18 19:56:52.840,16.29947544976923,-0.233,-0.343,0.323,2.73605535,-0.6276256,12.6113519,-168000.0,448000.0,-235000.0,97293.45093,59.85,7.090034008,-44.03111649,64.99840546,-4.859999657,-19.73133087,-142.9261475,40.0,0.0
2018-07-18 19:56:52.880,16.40163759083846,-0.1443333333333333,-0.3876666666666666,0.3353333333333333,2.9223817,-0.6112811833333334,13.036306733333332,-171333.33333333334,450666.6666666667,-233000.0,97292.48250333332,59.84333333333333,7.090034008,-44.03111649,64.99840546,-4.989999771,-33.81690979,-144.5407104,42.0,0.0
2018-07-18 19:56:52.920,16.50379973190769,-0.0556666666666666,-0.4323333333333333,0.3476666666666667,3.10870805,-0.5949367666666666,13.461261566666668,-174666.66666666666,453333.3333333333,-231000.0,97291.51407666667,59.836666666666666,7.090034008,-44.03111649,64.99840546,-4.989999771,-33.81690979,-144.5407104,42.0,0.0
2018-07-18 19:56:52.960,16.605961872976923,0.033,-0.477,0.36,3.2950344,-0.57859235,13.8862164,-178000.0,456000.0,-229000.0,97290.54565,59.83,7.090034008,-44.03111649,64.99840546,-5.049999714,-42.35801697,-145.32260889999998,42.5,0.0
2018-07-18 19:56:53.000,16.708124014046152,0.0103333333333333,-0.4773333333333333,0.377,3.3277232333333333,-0.4151481833333333,14.2196425,-172000.0,456333.3333333333,-227666.66666666663,97293.08675,59.82666666666667,7.090034008,-44.03111649,64.99840546,-5.109999657,-50.89912415,-146.1045074,43.0,0.0
2018-07-18 19:56:53.040,16.810286155115385,-0.0123333333333333,-0.4776666666666666,0.3939999999999999,3.3604120666666666,-0.2517040166666667,14.5530686,-166000.0,456666.6666666667,-226333.3333333333,97295.62785,59.82333333333333,7.090034008,-44.03111649,64.99840546,-5.21999979,-82.26852417,-147.6345367,45.0,0.0
2018-07-18 19:56:53.080,16.912448296184614,-0.035,-0.478,0.411,3.3931009,-0.08825985,14.8864947,-160000.0,457000.0,-225000.0,97298.16895,59.82,7.090034008,-44.03111649,64.99840546,-5.21999979,-82.26852417,-147.6345367,45.0,0.0
2018-07-18 19:56:53.120,17.014610437253847,-0.139,-0.516,0.409,3.12832135,0.4314926,15.52392695,-160000.0,457000.0,-225000.0,97298.16895,59.82,7.090034008,-44.03111649,64.99840546,-5.21999979,-82.26852417,-147.6345367,45.0,0.0
2018-07-18 19:56:53.160,17.116772578323076,-0.1398,-0.5248,0.3886,3.21854253,0.33931009,16.11428728,-155400.0,457400.0,-223600.0,97297.341312,59.816,7.090034008,-44.03111649,64.99840546,-5.279999733,-100.859642035,-148.37419125000002,45.5,0.0
2018-07-18 19:56:53.200,17.21893471939231,-0.1406,-0.5336000000000001,0.3681999999999999,3.30876371,0.24712758,16.70464761,-150800.0,457800.0,-222200.0,97296.513674,59.812,7.090034008,-44.03111649,64.99840546,-5.339999676,-119.4507599,-149.1138458,46.0,0.0
2018-07-18 19:56:53.240,17.321096860461537,-0.1414,-0.5424,0.3478,3.39898489,0.15494507,17.29500794,-146200.0,458200.0,-220800.0,97295.686036,59.808,7.090034008,-44.03111649,64.99840546,-5.399999857,-135.9964371,-149.819664,47.0,0.0
2018-07-18 19:56:53.280,17.423259001530766,-0.1422,-0.5512,0.3274,3.4892060700000003,0.06276256,17.88536827,-141600.0,458600.0,-219400.0,97294.858398,59.804,7.090034008,-44.03111649,64.99840546,-5.460000038,-152.5421143,-150.5254822,48.0,0.0
2018-07-18 19:56:53.320,17.5254211426,-0.143,-0.56,0.307,3.57942725,-0.02941995,18.4757286,-137000.0,459000.0,-218000.0,97294.03076,59.8,7.7067940235,-47.4385891,56.08355713,-5.524999857,-171.3628769,-151.2144165,48.5,0.0
2018-07-18 19:56:53.360,17.5994102955,-0.087,-0.53,0.29,3.4323275,-0.196133,17.52448355,-139000.0,461000.0,-212000.0,97292.3645,59.79,8.323554039,-50.84606171,47.1687088,-5.589999676,-190.1836395,-151.9033508,49.0,0.0
2018-07-18 19:56:53.400,17.673399448399998,0.0205,-0.544,0.2955,3.309744375,-0.201036325,16.5340119,-139000.0,461000.0,-212000.0,97292.3645,59.79,8.323554039,-50.84606171,47.1687088,-5.589999676,-190.1836395,-151.9033508,49.0,0.0
2018-07-18 19:56:53.440,17.7473886013,0.128,-0.558,0.301,3.18716125,-0.20593965,15.54354025,-139000.0,461000.0,-212000.0,97292.3645,59.79,8.323554039,-50.84606171,47.1687088,-5.589999676,-190.1836395,-151.9033508,49.0,0.0
2018-07-18 19:56:53.480,17.8213777542,0.0996666666666666,-0.5900000000000001,0.3093333333333333,3.281958866666667,-0.3465016333333333,16.540549666666667,-135000.0,461000.0,-211333.3333333333,97290.78369,59.78666666666667,8.323554039,-50.84606171,47.1687088,-5.71999979,-196.8439026,-153.1966858,51.0,0.0
2018-07-18 19:56:53.520,17.8953669071,0.0713333333333333,-0.622,0.3176666666666666,3.376756483333333,-0.4870636166666666,17.53755908333333,-131000.0,461000.0,-210666.66666666663,97289.20288,59.78333333333333,8.323554039,-50.84606171,47.1687088,-5.71999979,-196.8439026,-153.1966858,51.0,0.0
2018-07-18 19:56:53.560,17.969356060000003,0.043,-0.654,0.326,3.4715541,-0.6276256,18.5345685,-127000.0,461000.0,-210000.0,97287.62207,59.78,8.323554039,-50.84606171,47.1687088,-5.859999657,-202.4875641,-154.4308014,52.0,0.0
2018-07-18 19:56:53.600,18.0433452129,0.0814999999999999,-0.6425000000000001,0.3665,3.4372308250000003,-0.5491724,18.4168887,-129500.0,461000.0,-212500.0,97288.168335,59.77,8.323554039,-50.84606171,47.1687088,-5.859999657,-202.4875641,-154.4308014,52.0,0.0
2018-07-18 19:56:53.640,18.1173343658,0.12,-0.631,0.407,3.40290755,-0.4707192,18.2992089,-132000.0,461000.0,-215000.0,97288.7146,59.76,8.323554039,-50.84606171,47.1687088,-5.859999657,-202.4875641,-154.4308014,52.0,0.0
2018-07-18 19:56:53.680,18.1116138034,0.12,-0.6286,0.413,3.334261,-0.40991797,17.84614167,-126000.0,459600.0,-218400.0,97287.74414,59.758,10.20196533,-52.24345398,34.24899292,-6.009999752,-211.733429,-155.5635376,53.0,0.0
2018-07-18 19:56:53.720,18.105893241,0.12,-0.6262,0.419,3.26561445,-0.34911674,17.39307444,-120000.0,458200.0,-221800.0,97286.77368,59.756,10.20196533,-52.24345398,34.24899292,-6.069999853666666,-210.607015,-155.89880879999998,53.66666666666666,0.0
2018-07-18 19:56:53.760,18.1001726786,0.12,-0.6238,0.425,3.1969679,-0.28831551,16.94000721,-114000.0,456800.0,-225200.0,97285.80322,59.754,10.20196533,-52.24345398,34.24899292,-6.129999955333333,-209.480601,-156.23408,54.333333333333336,0.0
2018-07-18 19:56:53.800,18.0944521162,0.12,-0.6214,0.431,3.12832135,-0.22751428,16.48693998,-108000.0,455400.0,-228600.0,97284.83276,59.752,10.20196533,-52.24345398,34.24899292,-6.190000057,-208.354187,-156.5693512,55.0,0.0
2018-07-18 19:56:53.840,18.0887315538,0.12,-0.619,0.437,3.0596748,-0.16671305,16.03387275,-102000.0,454000.0,-232000.0,97283.8623,59.75,10.20196533,-52.24345398,34.24899292,-6.190000057,-208.354187,-156.5693512,55.0,0.0
2018-07-18 19:56:53.880,18.0830109914,0.039,-0.614,0.452,3.06948145,-0.196133,16.58304515,-102000.0,454000.0,-232000.0,97279.90112,59.74,10.20196533,-52.24345398,34.24899292,-6.2799999715,-204.46624755,-157.0300522,55.5,0.0
2018-07-18 19:56:53.920,18.077290429,0.027,-0.621,0.458,3.084191425,-0.122583125,16.891954625,-93500.0,450000.0,-237000.0,97281.48193,59.735,10.20196533,-52.24345398,34.24899292,-6.369999886,-200.5783081,-157.4907532,56.0,0.0
2018-07-18 19:56:53.960,18.0715698666,0.015,-0.628,0.464,3.0989014,-0.04903325,17.2008641,-85000.0,446000.0,-242000.0,97283.06274,59.73,10.20196533,-52.24345398,34.24899292,-6.549999714,-206.5849304,-158.2853394,57.0,0.0
2018-07-18 19:56:54.000,18.0658493042,0.009,-0.629,0.4515,3.152837975,-0.0245166249999989,17.156734175,-85000.0,446000.0,-242000.0,97283.06274,59.73,10.05063057,-54.17011642,20.51773643,-6.549999714,-206.5849304,-158.2853394,57.0,0.0
2018-07-18 19:56:54.040,18.119520187375,0.003,-0.63,0.439,3.20677455,2.1e-15,17.11260425,-85000.0,446000.0,-242000.0,97283.06274,59.73,10.05063057,-54.17011642,20.51773643,-6.649999857,-213.27075955,-158.63611605,57.5,0.0
2018-07-18 19:56:54.080,18.17319107055,0.062,-0.6263333333333333,0.4176666666666667,3.193699016666667,-0.0196132999999986,16.560162966666667,-87000.0,444333.3333333333,-243666.66666666663,97279.42708,59.72666666666667,10.05063057,-54.17011642,20.51773643,-6.75,-219.9565887,-158.9868927,58.0,0.0
2018-07-18 19:56:54.120,18.226861953725,0.121,-0.6226666666666667,0.3963333333333333,3.180623483333333,-0.0392265999999993,16.007721683333333,-89000.0,442666.6666666667,-245333.3333333333,97275.79142,59.72333333333333,10.05063057,-54.17011642,20.51773643,-6.75,-219.9565887,-158.9868927,58.0,0.0
2018-07-18 19:56:54.160,18.2805328369,0.18,-0.619,0.375,3.16754795,-0.0588399,15.4552804,-91000.0,441000.0,-247000.0,97272.15576,59.72,10.05063057,-54.17011642,20.51773643,-6.849999904500001,-226.0280609,-159.27007295,58.5,0.0
2018-07-18 19:56:54.200,18.334203720075003,0.147,-0.615,0.3375,2.986124925,-0.4903325,15.8475464,-81500.0,440000.0,-250500.0,97272.924805,59.71,10.05063057,-54.17011642,20.51773643,-6.949999809,-232.0995331,-159.5532532,59.0,0.0
2018-07-18 19:56:54.240,18.38787460325,0.114,-0.611,0.3,2.8047019,-0.9218251,16.2398124,-72000.0,439000.0,-254000.0,97273.69385,59.7,10.05063057,-54.17011642,20.51773643,-7.049999714,-240.81058505,-159.77721405,59.5,0.0
2018-07-18 19:56:54.280,18.441545486425,0.199,-0.6315,0.3365,2.878251775,-0.6276256,17.0831843,-70500.0,436500.0,-258500.0,97273.69385,59.7,10.05063057,-54.17011642,20.51773643,-7.149999619,-249.521637,-160.0011749,60.0,0.0
2018-07-18 19:56:54.320,18.4952163696,0.284,-0.652,0.373,2.95180165,-0.3334261,17.9265562,-69000.0,434000.0,-263000.0,97273.69385,59.7,10.93986702,-54.94436264,7.119991302,-7.149999619,-249.521637,-160.0011749,60.0,0.0
2018-07-18 19:56:54.360,18.59929466245,0.2564999999999999,-0.64625,0.38575,2.9395433375,-0.2500695749999994,18.044236,-68750.0,432000.0,-266500.0,97271.2326075,59.695,10.93986702,-54.94436264,7.119991302,-7.369999886,-280.8015747,-160.3139343,61.0,0.0
2018-07-18 19:56:54.400,18.7033729553,0.2289999999999999,-0.6405000000000001,0.3984999999999999,2.927285025,-0.1667130499999988,18.161915800000003,-68500.0,430000.0,-270000.0,97268.771365,59.69,10.93986702,-54.94436264,7.119991302,-7.369999886,-280.8015747,-160.3139343,61.0,0.0
2018-07-18 19:56:54.440,18.80745124815,0.2014999999999999,-0.63475,0.41125,2.9150267125,-0.0833565249999983,18.2795956,-68250.0,428000.0,-273500.0,97266.3101225,59.685,10.93986702,-54.94436264,7.119991302,-7.369999886,-280.8015747,-160.3139343,61.0,0.0
2018-07-18 19:56:54.480,18.911529541,0.174,-0.629,0.424,2.9027684,2.25e-15,18.3972754,-68000.0,426000.0,-277000.0,97263.84888,59.68,10.93986702,-54.94436264,7.119991302,-7.599999905,-301.5726013,-160.4913788,62.0,0.0
2018-07-18 19:56:54.520,19.01560783385,0.0915,-0.6475,0.4185,3.04986815,-0.0686465499999988,19.157290775,-74500.0,422000.0,-283000.0,97263.84888,59.68,10.93986702,-54.94436264,7.119991302,-7.599999905,-301.5726013,-160.4913788,62.0,0.0
2018-07-18 19:56:54.560,19.1196861267,0.009,-0.666,0.413,3.1969679,-0.1372931,19.91730615,-81000.0,418000.0,-289000.0,97263.84888,59.68,10.93986702,-54.94436264,7.119991302,-7.859999657,-326.6964111,-160.5082855,63.0,0.0
2018-07-18 19:56:54.600,19.22376441955,0.0904999999999999,-0.6415,0.399,2.9616083,-0.220649625,19.927112800000003,-76000.0,415500.0,-294000.0,97261.239625,59.675,10.93986702,-54.94436264,7.119991302,-7.859999657,-326.6964111,-160.5082855,63.0,0.0
2018-07-18 19:56:54.640,19.3278427124,0.172,-0.617,0.385,2.7262487,-0.30400615,19.93691945,-71000.0,413000.0,-299000.0,97258.63037,59.67,10.93986702,-54.94436264,7.119991302,-7.859999657,-326.6964111,-160.5082855,63.0,0.0
2018-07-18 19:56:54.680,19.43192100525,0.1946666666666666,-0.6116666666666667,0.3963333333333333,2.670677683333333,-0.3007372666666666,19.32563826666667,-74000.0,409333.3333333333,-304666.6666666667,97256.80542,59.66333333333333,10.93986702,-54.94436264,7.119991302,-8.130000114,-353.5999146,-160.3645782,63.0,0.0
2018-07-18 19:56:54.720,19.5359992981,0.2173333333333333,-0.6063333333333333,0.4076666666666667,2.6151066666666667,-0.2974683833333333,18.714357083333333,-77000.0,405666.6666666667,-310333.3333333333,97254.98047,59.656666666666666,11.33211517,-55.05168915,-10.68118858,-8.130000114,-353.5999146,-160.3645782,63.0,0.0
2018-07-18 19:56:54.760,19.594601154325,0.24,-0.601,0.419,2.55953565,-0.2941995,18.1030759,-80000.0,402000.0,-316000.0,97253.15552,59.65,11.33211517,-55.05168915,-10.68118858,-8.284999847,-362.7689209,-160.20814510000002,63.5,0.0
2018-07-18 19:56:54.800,19.65320301055,0.243,-0.592,0.4085,2.42224255,-0.16671305,17.882426275,-80000.0,402000.0,-316000.0,97253.15552,59.65,11.33211517,-55.05168915,-10.68118858,-8.43999958,-371.9379272,-160.051712,64.0,0.0
2018-07-18 19:56:54.840,19.711804866775,0.246,-0.583,0.398,2.28494945,-0.0392266,17.66177665,-80000.0,402000.0,-316000.0,97253.15552,59.65,11.33211517,-55.05168915,-10.68118858,-8.43999958,-371.9379272,-160.051712,64.0,0.0
2018-07-18 19:56:54.880,19.770406723,0.2413333333333333,-0.5636666666666666,0.3813333333333333,2.1640007666666667,-0.1176798,17.227015166666668,-65333.333333333336,398666.6666666667,-320000.0,97251.26953333334,59.64666666666667,11.33211517,-55.05168915,-10.68118858,-8.760000229,-390.137085,-159.6036987,64.0,0.0
2018-07-18 19:56:54.920,19.829008579225,0.2366666666666666,-0.5443333333333333,0.3646666666666666,2.043052083333333,-0.196133,16.792253683333332,-50666.66666666667,395333.3333333333,-324000.0,97249.38354666666,59.64333333333333,11.33211517,-55.05168915,-10.68118858,-8.760000229,-390.137085,-159.6036987,64.0,0.0
2018-07-18 19:56:54.960,19.88761043545,0.232,-0.525,0.348,1.9221034,-0.2745862,16.3574922,-36000.0,392000.0,-328000.0,97247.49756,59.64,11.33211517,-55.05168915,-10.68118858,-9.090000153,-397.036377,-159.0372009,65.0,0.0
2018-07-18 19:56:55.000,19.946212291675,0.3994999999999999,-0.5965,0.3349999999999999,1.642613875,-0.0588399,17.0243444,-31500.0,380500.0,-337500.0,97241.0553,59.63,11.33211517,-55.05168915,-10.68118858,-9.090000153,-397.036377,-159.0372009,65.0,0.0
2018-07-18 19:56:55.040,20.0048141479,0.567,-0.668,0.322,1.36312435,0.1569064,17.6911966,-27000.0,369000.0,-347000.0,97234.61304,59.62,11.33211517,-55.05168915,-10.68118858,-9.090000153,-397.036377,-159.0372009,65.0,0.0
2018-07-18 19:56:55.080,19.990734447090908,0.5365,-0.6885,0.314,1.387640975,-0.0784532,18.26978895,-27000.0,369000.0,-347000.0,97234.61304,59.62,11.86597252,-52.17230606,-23.27172089,-9.429999352,-400.4814148,-158.3440552,65.0,0.0
2018-07-18 19:56:55.120,19.976654746281817,0.506,-0.709,0.306,1.4121576,-0.3138128,18.8483813,-27000.0,369000.0,-347000.0,97234.61304,59.62,11.86597252,-52.17230606,-23.27172089,-9.429999352,-400.4814148,-158.3440552,65.0,0.0
2018-07-18 19:56:55.160,19.96257504547273,0.514,-0.6843333333333333,0.3133333333333333,1.3337044,-0.2026707666666666,18.972598866666665,-24000.0,363333.3333333333,-353000.0,97227.19116333334,59.61333333333333,11.86597252,-52.17230606,-23.27172089,-9.789999962,-401.1089478,-157.5494537,65.0,0.0
2018-07-18 19:56:55.200,19.94849534466364,0.522,-0.6596666666666666,0.3206666666666666,1.2552512,-0.0915287333333333,19.09681643333333,-21000.0,357666.6666666667,-359000.0,97219.76928666666,59.60666666666667,11.86597252,-52.17230606,-23.27172089,-9.789999962,-401.1089478,-157.5494537,65.0,0.0
2018-07-18 19:56:55.240,19.934415643854543,0.53,-0.635,0.328,1.176798,0.0196133,19.221034,-18000.0,352000.0,-365000.0,97212.34741,59.6,11.86597252,-52.17230606,-23.27172089,-9.789999962,-401.1089478,-157.5494537,65.0,0.0
2018-07-18 19:56:55.280,19.92033594304545,0.497,-0.6216666666666667,0.3276666666666666,1.0558493166666667,-0.0326888333333333,18.727432616666665,-25333.33333333333,340333.3333333333,-376333.3333333333,97209.37906666666,59.59666666666667,11.86597252,-52.17230606,-23.27172089,-10.18999958,-400.1329346,-156.6280212,65.0,0.0
2018-07-18 19:56:55.320,19.906256242236363,0.464,-0.6083333333333333,0.3273333333333333,0.9349006333333332,-0.0849909666666666,18.233831233333333,-32666.666666666664,328666.6666666667,-387666.6666666667,97206.41072333332,59.59333333333333,11.86597252,-52.17230606,-23.27172089,-10.3024995325,-399.00278475,-156.372314425,65.0,0.0
2018-07-18 19:56:55.360,19.892176541427272,0.431,-0.595,0.327,0.81395195,-0.1372931,17.74022985,-40000.0,317000.0,-399000.0,97203.44238,59.59,11.86597252,-52.17230606,-23.27172089,-10.414999485,-397.8726349,-156.11660765,65.0,0.0
2018-07-18 19:56:55.400,19.878096840618184,0.499,-0.5640000000000001,0.317,0.6276256,-0.04903325,17.602936749999998,-40000.0,317000.0,-399000.0,97203.44238,59.59,11.86597252,-52.17230606,-23.27172089,-10.5274994375,-396.74248505,-155.860900875,65.0,0.0
2018-07-18 19:56:55.440,19.864017139809093,0.567,-0.533,0.307,0.44129925,0.0392266,17.46564365,-40000.0,317000.0,-399000.0,97203.44238,59.59,11.86597252,-52.17230606,-23.27172089,-10.63999939,-395.6123352,-155.6051941,65.0,0.0
2018-07-18 19:56:55.480,19.849937439,0.697,-0.492,0.286,0.465815875,-0.152003075,16.264329025000002,-41000.0,308500.0,-405000.0,97202.645875,59.585,11.86597252,-52.17230606,-23.27172089,-11.11999989,-384.9937439,-154.5061493,65.0,0.0
2018-07-18 19:56:55.520,19.69173355106,0.827,-0.451,0.265,0.4903325,-0.34323275,15.0630144,-42000.0,300000.0,-411000.0,97201.84937,59.58,16.07937431,-43.15137482,-40.89328003,-11.11999989,-384.9937439,-154.5061493,65.0,0.0
2018-07-18 19:56:55.560,19.53352966312,0.851,-0.411,0.2793333333333333,0.46091255,-0.1928641166666666,14.873419166666666,-49333.333333333336,292666.6666666667,-416000.0,97195.17415666666,59.57333333333333,16.07937431,-43.15137482,-40.89328003,-11.384999755,-367.7091522,-153.92288209999998,65.0,0.0
2018-07-18 19:56:55.600,19.37532577518,0.875,-0.371,0.2936666666666667,0.4314926,-0.0424954833333333,14.683823933333334,-56666.66666666666,285333.3333333333,-421000.0,97188.49894333334,59.56666666666667,16.07937431,-43.15137482,-40.89328003,-11.64999962,-350.4245605,-153.3396149,65.0,0.0
2018-07-18 19:56:55.640,19.21712188724,0.899,-0.331,0.308,0.40207265,0.10787315,14.4942287,-64000.0,278000.0,-426000.0,97181.82373,59.56,16.07937431,-43.15137482,-40.89328003,-11.64999962,-350.4245605,-153.3396149,65.0,0.0
2018-07-18 19:56:55.680,19.0589179993,0.8626666666666667,-0.2876666666666667,0.293,0.42168595,0.1536375166666666,14.441926566666668,-66000.0,255000.0,-437666.6666666667,97177.96224,59.556666666666665,16.07937431,-43.15137482,-40.89328003,-12.21000004,-302.9159546,-152.1308289,65.0,0.0
2018-07-18 19:56:55.720,18.90071411136,0.8263333333333334,-0.2443333333333333,0.278,0.44129925,0.1994018833333333,14.389624433333331,-68000.0,232000.0,-449333.3333333333,97174.10075,59.553333333333335,16.07937431,-43.15137482,-40.89328003,-12.21000004,-302.9159546,-152.1308289,65.0,0.0
2018-07-18 19:56:55.760,18.74251022342,0.79,-0.201,0.263,0.46091255,0.24516625,14.3373223,-70000.0,209000.0,-461000.0,97170.23926,59.55,16.07937431,-43.15137482,-40.89328003,-12.5,-282.523819,-151.5095139,65.0,0.0
2018-07-18 19:56:55.800,18.58430633548,0.8955,-0.1765,0.2345,0.30400615,0.2549729,12.6309652,-70000.0,209000.0,-461000.0,97170.23926,59.55,16.07937431,-43.15137482,-40.89328003,-12.78999996,-262.1316834,-150.8881989,65.0,0.0
2018-07-18 19:56:55.840,18.42610244754,1.001,-0.152,0.206,0.14709975,0.26477955,10.9246081,-70000.0,209000.0,-461000.0,97170.23926,59.55,16.07937431,-43.15137482,-40.89328003,-13.09499979,-244.4607697,-150.26267245,65.0,0.0
2018-07-18 19:56:55.880,18.2678985596,0.992,-0.1583333333333333,0.1796666666666666,0.04903325,0.1340242166666666,10.9049948,-73333.33333333333,182333.3333333333,-469000.0,97166.64835666669,59.54333333333333,16.07937431,-43.15137482,-40.89328003,-13.39999962,-226.789856,-149.637146,65.0,0.0
2018-07-18 19:56:55.920,18.1772218432,0.983,-0.1646666666666666,0.1533333333333333,-0.04903325,0.0032688833333333,10.8853815,-76666.66666666667,155666.66666666666,-477000.0,97163.05745333331,59.53666666666667,16.61083889,-34.182230950000005,-45.07457733,-13.552499535,-217.858219175,-149.3222351,64.75,0.0
2018-07-18 19:56:55.960,18.0865451268,0.974,-0.171,0.127,-0.14709975,-0.12748645,10.8657682,-80000.0,129000.0,-485000.0,97159.46655,59.53,17.14230347,-25.21308708,-49.25587463,-13.70499945,-208.92658235,-149.0073242,64.5,0.0
2018-07-18 19:56:56.000,17.9958684104,0.999,-0.153,0.1123333333333333,-0.1176798,-0.1765197,10.957296933333334,-80000.0,129000.0,-485000.0,97159.46655,59.53,17.14230347,-25.21308708,-49.25587463,-13.857499365,-199.994945525,-148.6924133,64.25,0.0
2018-07-18 19:56:56.040,17.905191694,1.024,-0.135,0.0976666666666666,-0.08825985,-0.22555295,11.048825666666666,-80000.0,129000.0,-485000.0,97159.46655,59.53,17.14230347,-25.21308708,-49.25587463,-14.00999928,-191.0633087,-148.3775024,64.0,0.0
2018-07-18 19:56:56.080,17.8145149776,1.049,-0.117,0.083,-0.0588399,-0.2745862,11.1403544,-80000.0,129000.0,-485000.0,97159.46655,59.53,17.14230347,-25.21308708,-49.25587463,-14.63000011,-167.8266602,-147.1433563,64.0,0.0
2018-07-18 19:56:56.120,17.7238382612,1.039,-0.0775,0.1225,-0.08825985,-0.2157463,11.272744175,-83500.0,107500.0,-487500.0,97150.952145,59.515,17.14230347,-25.21308708,-49.25587463,-14.63000011,-167.8266602,-147.1433563,64.0,0.0
2018-07-18 19:56:56.160,17.6331615448,1.029,-0.038,0.162,-0.1176798,-0.1569064,11.40513395,-87000.0,86000.0,-490000.0,97142.43774,59.5,17.56629658,-17.982988355,-50.33844757,-14.949999805,-165.57141115000002,-146.51782989999998,64.0,0.0
2018-07-18 19:56:56.200,17.50750999451,0.936,-0.01,0.179,-0.142196425,0.122583125,10.1793027,-88000.0,62000.0,-492000.0,97142.43774,59.5,17.99028969,-10.75288963,-51.42102051,-15.2699995,-163.3161621,-145.8923035,64.0,0.0
2018-07-18 19:56:56.240,17.38185844422,0.843,0.018,0.196,-0.16671305,0.40207265,8.95347145,-89000.0,38000.0,-494000.0,97142.43774,59.5,17.99028969,-10.75288963,-51.42102051,-15.2699995,-163.3161621,-145.8923035,64.0,0.0
2018-07-18 19:56:56.280,17.25620689393,0.7943333333333333,0.0426666666666666,0.1703333333333333,-0.0980665,0.3497705166666666,8.9828914,-87000.0,10333.333333333332,-492000.0,97139.53653666668,59.49666666666667,17.99028969,-10.75288963,-51.42102051,-15.589999675,-152.92520905,-145.30479435,64.0,0.0
2018-07-18 19:56:56.320,17.13055534364,0.7456666666666666,0.0673333333333333,0.1446666666666666,-0.02941995,0.2974683833333333,9.01231135,-85000.0,-17333.333333333336,-490000.0,97136.63533333332,59.49333333333333,17.99028969,-10.75288963,-51.42102051,-15.90999985,-142.534256,-144.7172852,64.0,0.0
2018-07-18 19:56:56.360,17.00490379335,0.697,0.092,0.119,0.0392266,0.24516625,9.0417313,-83000.0,-45000.0,-488000.0,97133.73413,59.49,17.99028969,-10.75288963,-51.42102051,-16.23499966,-124.212265,-144.12134555,64.0,0.0
2018-07-18 19:56:56.400,16.879252243059998,0.6639999999999999,0.1263333333333333,0.1056666666666666,-0.0588399,0.32361945,8.731187383333333,-83000.0,-45000.0,-488000.0,97130.36906,59.486666666666665,17.99028969,-10.75288963,-51.42102051,-16.55999947,-105.890274,-143.5254059,64.0,0.0
2018-07-18 19:56:56.440,16.75360069277,0.631,0.1606666666666666,0.0923333333333333,-0.1569064,0.40207265,8.420643466666666,-83000.0,-45000.0,-488000.0,97127.00399,59.48333333333333,17.99028969,-10.75288963,-51.42102051,-16.879999165,-87.85228727,-142.95056915,64.0,0.0
2018-07-18 19:56:56.480,16.62794914248,0.598,0.195,0.079,-0.2549729,0.48052585,8.11009955,-83000.0,-45000.0,-488000.0,97123.63892,59.48,17.99028969,-10.75288963,-51.42102051,-17.19999886,-69.81430054,-142.3757324,64.0,0.0
2018-07-18 19:56:56.520,16.50229759219,0.5780000000000001,0.2175,0.062,-0.181423025,0.588399,7.560927149999999,-79500.0,-62500.0,-484000.0,97123.63892,59.48,17.99028969,-10.75288963,-51.42102051,-17.19999886,-69.81430054,-142.3757324,64.0,0.0
2018-07-18 19:56:56.560,16.3766460419,0.558,0.24,0.045,-0.10787315,0.69627215,7.01175475,-76000.0,-80000.0,-480000.0,97123.63892,59.48,14.94629765,4.263459206,-53.86496353,-17.80999947,-37.66460419,-141.2514801,64.0,0.0
2018-07-18 19:56:56.600,16.1942212581875,0.6160000000000001,0.2264999999999999,-0.01,-0.1569064,0.671755525,6.212512775,-70500.0,-92500.0,-477000.0,97119.98291,59.475,14.94629765,4.263459206,-53.86496353,-17.80999947,-37.66460419,-141.2514801,64.0,0.0
2018-07-18 19:56:56.640,16.011796474475,0.674,0.213,-0.065,-0.20593965,0.6472389,5.4132708,-65000.0,-105000.0,-474000.0,97116.3269,59.47,14.94629765,4.263459206,-53.86496353,-17.80999947,-37.66460419,-141.2514801,64.0,0.0
2018-07-18 19:56:56.680,15.8293716907625,0.5963333333333334,0.2019999999999999,-0.086,-0.14709975,0.6014745333333333,5.0406181000000005,-61333.333333333336,-113666.66666666669,-472000.0,97114.02994666666,59.46666666666667,14.94629765,4.263459206,-53.86496353,-18.37999916,7.671642303,-140.1441193,64.0,0.0
2018-07-18 19:56:56.720,15.64694690705,0.5186666666666667,0.191,-0.107,-0.08825985,0.5557101666666666,4.6679654,-57666.66666666666,-122333.33333333331,-470000.0,97111.73299333334,59.46333333333333,14.94629765,4.263459206,-53.86496353,-18.37999916,7.671642303,-140.1441193,64.0,0.0
2018-07-18 19:56:56.760,15.4645221233375,0.441,0.18,-0.128,-0.02941995,0.5099458,4.2953127,-54000.0,-131000.0,-468000.0,97109.43604,59.46,14.94629765,4.263459206,-53.86496353,-18.88999939,55.58843613,-139.0367432,64.0,0.0
2018-07-18 19:56:56.800,15.282097339625,0.123,0.108,-0.141,-0.20593965,0.3530394,5.85457005,-31000.0,-159000.0,-457000.0,97104.53491,59.45,14.94629765,4.263459206,-53.86496353,-18.88999939,55.58843613,-139.0367432,64.0,0.0
2018-07-18 19:56:56.840,15.0996725559125,0.12675,0.11875,-0.1565,-0.1446480875,0.348136075,6.18799615,-25000.0,-163750.0,-455000.0,97101.8203725,59.4425,14.94629765,4.263459206,-53.86496353,-18.88999939,55.58843613,-139.0367432,64.0,0.0
2018-07-18 19:56:56.880,14.9172477722,0.1305,0.1295,-0.172,-0.083356525,0.34323275,6.5214222500000005,-19000.0,-168500.0,-453000.0,97099.105835,59.435,14.94629765,4.263459206,-53.86496353,-19.35000038,108.2752228,-137.9631805,64.0,0.0
2018-07-18 19:56:56.920,14.843142986278572,0.13425,0.1402499999999999,-0.1875,-0.0220649625,0.338329425,6.85484835,-13000.0,-173250.0,-451000.0,97096.3912975,59.4275,12.56210852,8.659099578,-52.77113151499999,-19.55000019,115.3711777,-137.439064,64.0,0.0
2018-07-18 19:56:56.960,14.769038200357144,0.138,0.151,-0.203,0.0392266,0.3334261,7.18827445,-7000.0,-178000.0,-449000.0,97093.67676,59.42,10.17791939,13.05473995,-51.6772995,-19.75,122.4671326,-136.9149475,64.0,0.0
2018-07-18 19:56:57.000,14.694933414435711,0.1755,0.1735,-0.2105,0.063743225,0.348136075,7.40402075,-7000.0,-178000.0,-449000.0,97093.67676,59.42,10.17791939,13.05473995,-51.6772995,-19.75,122.4671326,-136.9149475,64.0,0.0
2018-07-18 19:56:57.040,14.620828628514284,0.213,0.196,-0.218,0.08825985,0.36284605,7.61976705,-7000.0,-178000.0,-449000.0,97093.67676,59.42,10.17791939,13.05473995,-51.6772995,-19.75,122.4671326,-136.9149475,64.0,0.0
2018-07-18 19:56:57.080,14.546723842592858,0.2135,0.215,-0.2135,0.063743225,0.308909475,7.359890825,-3000.0,-180500.0,-448000.0,97090.283205,59.415,10.17791939,13.05473995,-51.6772995,-20.12999916,135.2583923,-135.8583069,64.0,0.0
2018-07-18 19:56:57.120,14.472619056671428,0.214,0.234,-0.209,0.0392266,0.2549729,7.1000146,1000.0,-183000.0,-447000.0,97086.88965,59.41,10.17791939,13.05473995,-51.6772995,-20.12999916,135.2583923,-135.8583069,64.0,0.0
2018-07-18 19:56:57.160,14.39851427075,0.1443333333333333,0.2503333333333333,-0.195,-0.0196133,0.1242175666666666,6.720824133333333,5666.666666666667,-186000.0,-445000.0,97086.45223,59.406666666666666,10.17791939,13.05473995,-51.6772995,-20.304999350000003,141.2908096,-135.33842470000002,64.5,0.0
2018-07-18 19:56:57.200,14.324409484828571,0.0746666666666666,0.2666666666666666,-0.181,-0.0784532,-0.0065377666666666,6.341633666666667,10333.333333333334,-189000.0,-443000.0,97086.01481,59.40333333333333,10.17791939,13.05473995,-51.6772995,-20.47999954,147.3232269,-134.8185425,65.0,0.0
2018-07-18 19:56:57.240,14.250304698907144,0.005,0.283,-0.167,-0.1372931,-0.1372931,5.9624432,15000.0,-192000.0,-441000.0,97085.57739,59.4,10.17791939,13.05473995,-51.6772995,-20.47999954,147.3232269,-134.8185425,65.0,0.0
2018-07-18 19:56:57.280,14.176199912985714,0.0019999999999999,0.266,-0.1483333333333333,-0.1797885833333333,-0.1503686333333333,5.681319233333333,26333.333333333336,-193000.0,-439666.6666666667,97084.46655,59.39666666666667,10.17791939,13.05473995,-51.6772995,-20.63999939,155.6739349,-134.3113556,65.0,0.0
2018-07-18 19:56:57.320,14.102095127064285,-0.001,0.249,-0.1296666666666666,-0.2222840666666666,-0.1634441666666666,5.400195266666667,37666.66666666667,-194000.0,-438333.3333333333,97083.35571,59.39333333333333,10.17791939,13.05473995,-51.6772995,-20.79999924,164.0246429,-133.8041687,65.0,0.0
2018-07-18 19:56:57.360,14.027990341142855,-0.004,0.232,-0.111,-0.26477955,-0.1765197,5.1190713,49000.0,-195000.0,-437000.0,97082.24487,59.39,10.17791939,13.05473995,-51.6772995,-21.09000015,184.1487885,-132.8067017,65.0,0.0
2018-07-18 19:56:57.400,13.95388555522143,-0.0424999999999999,0.2745,-0.1005,-0.2598762249999999,-0.2991028249999999,4.408089175,49000.0,-195000.0,-437000.0,97082.24487,59.39,10.17791939,13.05473995,-51.6772995,-21.09000015,184.1487885,-132.8067017,65.0,0.0
2018-07-18 19:56:57.440,13.8797807693,-0.081,0.317,-0.09,-0.2549729,-0.42168595,3.69710705,49000.0,-195000.0,-437000.0,97082.24487,59.39,10.17791939,13.05473995,-51.6772995,-21.09000015,184.1487885,-132.8067017,65.0,0.0
2018-07-18 19:56:57.480,13.84057512279,-0.0716666666666666,0.3086666666666666,-0.0616666666666666,-0.196133,-0.2190151833333333,3.821324616666667,56000.0,-192333.3333333333,-436666.6666666667,97080.05777666668,59.38,0.83005935,15.9495554,-48.6635704,-21.30999947,212.0219269,-131.8261261,66.0,0.0
2018-07-18 19:56:57.520,13.80136947628,-0.0623333333333333,0.3003333333333333,-0.0333333333333333,-0.1372931,-0.0163444166666666,3.9455421833333335,63000.0,-189666.66666666663,-436333.3333333333,97077.87068333333,59.37,0.83005935,15.9495554,-48.6635704,-21.47999954,238.6762695,-130.8540192,66.0,0.0
2018-07-18 19:56:57.560,13.76216382977,-0.053,0.292,-0.005,-0.0784532,0.18632635,4.06975975,70000.0,-187000.0,-436000.0,97075.68359,59.36,0.83005935,15.9495554,-48.6635704,-21.47999954,238.6762695,-130.8540192,66.0,0.0
2018-07-18 19:56:57.600,13.72295818326,-0.0584999999999999,0.266,-0.0065,-0.20593965,0.08825985,4.1433096250000006,70000.0,-187000.0,-436000.0,97075.68359,59.36,0.83005935,15.9495554,-48.6635704,-21.47999954,238.6762695,-130.8540192,66.0,0.0
2018-07-18 19:56:57.640,13.68375253675,-0.064,0.24,-0.008,-0.3334261,-0.00980665,4.2168595,70000.0,-187000.0,-436000.0,97075.68359,59.36,0.83005935,15.9495554,-48.6635704,-21.57999992,251.996521,-129.8819122,67.0,0.0
2018-07-18 19:56:57.680,13.64454689024,-0.0973333333333333,0.2309999999999999,-0.0143333333333333,-0.3497705166666666,0.0457643666666666,4.478370166666667,79333.33333333333,-185000.0,-434666.6666666667,97075.25431,59.35666666666667,0.83005935,15.9495554,-48.6635704,-21.57999992,251.996521,-129.8819122,67.0,0.0
2018-07-18 19:56:57.720,13.60534124373,-0.1306666666666666,0.222,-0.0206666666666666,-0.3661149333333333,0.1013353833333333,4.739880833333333,88666.66666666667,-183000.0,-433333.3333333333,97074.82503,59.35333333333333,0.83005935,15.9495554,-48.6635704,-21.59333292333333,251.74020386666663,-129.56066893333332,67.0,0.0
2018-07-18 19:56:57.760,13.56613559722,-0.164,0.213,-0.027,-0.38245935,0.1569064,5.0013915,98000.0,-181000.0,-432000.0,97074.39575,59.35,0.83005935,15.9495554,-48.6635704,-21.60666592666667,251.4838867333333,-129.23942566666668,67.0,0.0
2018-07-18 19:56:57.800,13.52692995071,-0.201,0.2175,-0.037,-0.32361945,0.416782625,5.1190713,98000.0,-181000.0,-432000.0,97074.39575,59.35,0.83005935,15.9495554,-48.6635704,-21.61999893,251.2275696,-128.9181824,67.0,0.0
2018-07-18 19:56:57.840,13.4877243042,-0.238,0.222,-0.047,-0.26477955,0.67665885,5.2367511,98000.0,-181000.0,-432000.0,97074.39575,59.35,-1.9481845795,14.666763305,-49.037317275,-21.614998815,245.0587311,-128.44057845,67.5,0.0
2018-07-18 19:56:57.880,13.535836458208331,-0.2885,0.218,-0.0745,-0.2598762249999999,0.6472389000000001,5.349527575,103500.0,-177500.0,-431500.0,97075.18921,59.345,-4.726428509,13.38397121,-49.41106415,-21.6099987,238.8898926,-127.9629745,68.0,0.0
2018-07-18 19:56:57.920,13.583948612216666,-0.339,0.214,-0.102,-0.2549729,0.61781895,5.46230405,109000.0,-174000.0,-431000.0,97075.98267,59.34,-4.726428509,13.38397121,-49.41106415,-21.6099987,238.8898926,-127.9629745,68.0,0.0
2018-07-18 19:56:57.960,13.632060766225,-0.3283333333333333,0.2046666666666666,-0.1126666666666666,-0.2941995,0.48052585,5.517875066666667,113666.66666666669,-169666.66666666666,-432666.6666666667,97075.59611333332,59.333333333333336,-4.726428509,13.38397121,-49.41106415,-21.54999924,228.1293945,-127.0077438,68.0,0.0
2018-07-18 19:56:58.000,13.680172920233334,-0.3176666666666666,0.1953333333333333,-0.1233333333333333,-0.3334261,0.34323275,5.573446083333334,118333.33333333331,-165333.33333333334,-434333.3333333333,97075.20955666668,59.32666666666667,-4.726428509,13.38397121,-49.41106415,-21.54999924,228.1293945,-127.0077438,68.0,0.0
2018-07-18 19:56:58.040,13.728285074241668,-0.307,0.186,-0.134,-0.3726527,0.20593965,5.6290171,123000.0,-161000.0,-436000.0,97074.823,59.32,-4.726428509,13.38397121,-49.41106415,-21.54999924,228.1293945,-127.0077438,68.0,0.0
2018-07-18 19:56:58.080,13.77639722825,-0.2804999999999999,0.1634999999999999,-0.153,-0.42168595,0.132389775,5.859473375,126500.0,-154000.0,-436500.0,97074.417115,59.32,-4.726428509,13.38397121,-49.41106415,-21.494998935,222.3517456,-126.5301437,68.5,0.0
2018-07-18 19:56:58.120,13.824509382258334,-0.254,0.141,-0.172,-0.4707192,0.0588399,6.08992965,130000.0,-147000.0,-437000.0,97074.01123,59.32,-4.726428509,13.38397121,-49.41106415,-21.43999863,216.5740967,-126.0525436,69.0,0.0
2018-07-18 19:56:58.160,13.872621536266667,-0.2426666666666666,0.121,-0.176,-0.4511059,0.0947976166666666,6.3743225,133333.33333333334,-142000.0,-437666.6666666667,97075.32755666669,59.31666666666667,-4.726428509,13.38397121,-49.41106415,-21.29999924,201.2888947,-125.0991745,69.0,0.0
2018-07-18 19:56:58.200,13.920733690275,-0.2313333333333333,0.101,-0.18,-0.4314926,0.1307553333333333,6.6587153500000005,136666.66666666666,-137000.0,-438333.3333333333,97076.64388333334,59.31333333333333,-4.726428509,13.38397121,-49.41106415,-21.29999924,201.2888947,-125.0991745,69.0,0.0
2018-07-18 19:56:58.240,13.968845844283331,-0.22,0.081,-0.184,-0.4118793,0.16671305,6.9431082,140000.0,-132000.0,-439000.0,97077.96021,59.31,-4.726428509,13.38397121,-49.41106415,-21.239999136666665,198.6902568,-124.7807541,69.33333333333333,0.0
2018-07-18 19:56:58.280,14.016957998291668,-0.166,0.0803333333333333,-0.1826666666666666,-0.3693838166666666,0.2484351333333333,7.054250233333334,143666.66666666666,-127333.33333333331,-439333.3333333333,97078.66211333334,59.306666666666665,-4.726428509,13.38397121,-49.41106415,-21.17999903333333,196.0916189,-124.4623337,69.66666666666667,0.0
2018-07-18 19:56:58.320,14.0650701523,-0.112,0.0796666666666666,-0.1813333333333333,-0.3268883333333333,0.3301572166666666,7.165392266666666,147333.33333333334,-122666.66666666669,-439666.6666666667,97079.36401666666,59.303333333333335,-4.726428509,13.38397121,-49.41106415,-21.11999893,193.492981,-124.1439133,70.0,0.0
2018-07-18 19:56:58.360,14.119547314133332,-0.058,0.079,-0.18,-0.28439285,0.4118793,7.2765343,151000.0,-118000.0,-440000.0,97080.06592,59.3,-10.31473827,5.460822105,-45.87268829,-20.92000008,185.5248413,-123.2016144,71.0,0.0
2018-07-18 19:56:58.400,14.174024475966666,-0.063,0.068,-0.1785,-0.3530394,0.073549875,7.570733799999999,154000.0,-113000.0,-441500.0,97082.29065,59.295,-10.31473827,5.460822105,-45.87268829,-20.92000008,185.5248413,-123.2016144,71.0,0.0
2018-07-18 19:56:58.440,14.2285016378,-0.068,0.057,-0.177,-0.42168595,-0.26477955,7.8649333,157000.0,-108000.0,-443000.0,97084.51538,59.29,-10.31473827,5.460822105,-45.87268829,-20.92000008,185.5248413,-123.2016144,71.0,0.0
2018-07-18 19:56:58.480,14.282978799633334,-0.0743333333333333,0.0443333333333333,-0.1593333333333333,-0.4118793,-0.1438308666666666,7.949924266666667,161000.0,-103000.0,-442666.6666666667,97087.17651333332,59.28333333333333,-10.31473827,5.460822105,-45.87268829,-20.68999863,180.9304199,-122.2459106,71.0,0.0
2018-07-18 19:56:58.520,14.337455961466668,-0.0806666666666666,0.0316666666666666,-0.1416666666666666,-0.40207265,-0.0228821833333333,8.034915233333333,165000.0,-98000.0,-442333.3333333333,97089.83764666668,59.27666666666667,-10.31473827,5.460822105,-45.87268829,-20.569998745,171.84948730000002,-121.76805495,71.5,0.0
2018-07-18 19:56:58.560,14.3919331233,-0.087,0.019,-0.124,-0.392266,0.0980665,8.1199062,169000.0,-93000.0,-442000.0,97092.49878,59.27,-10.31473827,5.460822105,-45.87268829,-20.44999886,162.7685547,-121.2901993,72.0,0.0
2018-07-18 19:56:58.600,14.446410285133334,-0.0404999999999999,0.034,-0.0955,-0.3726527,-0.014709975,8.115002875,170000.0,-90000.0,-441500.0,97094.13452,59.265,-10.31473827,5.460822105,-45.87268829,-20.44999886,162.7685547,-121.2901993,72.0,0.0
2018-07-18 19:56:58.640,14.500887446966669,0.006,0.049,-0.067,-0.3530394,-0.12748645,8.11009955,171000.0,-87000.0,-441000.0,97095.77026,59.26,-10.31473827,5.460822105,-45.87268829,-20.44999886,162.7685547,-121.2901993,72.0,0.0
2018-07-18 19:56:58.680,14.5553646088,0.0135,0.02625,-0.054,-0.3898143375,-0.1740680375,8.242489325,172250.0,-87000.0,-441250.0,97096.2600675,59.2575,-10.31473827,5.460822105,-45.87268829,-20.18000031,144.4635315,-120.393898,73.0,0.0
2018-07-18 19:56:58.720,14.6334819794,0.0209999999999999,0.0035,-0.041,-0.426589275,-0.220649625,8.3748791,173500.0,-87000.0,-441500.0,97096.749875,59.255,-11.8759079,3.859626293,-42.98501968,-20.18000031,144.4635315,-120.393898,73.0,0.0
2018-07-18 19:56:58.760,14.71159935,0.0284999999999999,-0.01925,-0.0279999999999999,-0.4633642125,-0.2672312125,8.507268875,174750.0,-87000.0,-441750.0,97097.2396825,59.2525,-11.8759079,3.859626293,-42.98501968,-20.090000156666665,139.80149843333334,-120.06577553333332,73.0,0.0
2018-07-18 19:56:58.800,14.7897167206,0.036,-0.042,-0.015,-0.50013915,-0.3138128,8.63965865,176000.0,-87000.0,-442000.0,97097.72949,59.25,-11.8759079,3.859626293,-42.98501968,-20.000000003333334,135.13946536666666,-119.73765306666668,73.0,0.0
2018-07-18 19:56:58.840,14.8678340912,-0.062,-0.053,0.037,-0.40207265,0.14709975,8.60043205,176000.0,-87000.0,-442000.0,97097.72949,59.25,-11.8759079,3.859626293,-42.98501968,-19.90999985,130.4774323,-119.4095306,73.0,0.0
2018-07-18 19:56:58.880,14.9459514618,-0.0676666666666666,-0.041,0.0403333333333333,-0.4543747833333333,0.14709975,8.754069566666667,175666.66666666666,-87000.0,-441666.6666666667,97099.91251333331,59.24666666666667,-11.8759079,3.859626293,-42.98501968,-19.61999893,115.0728226,-118.44207,74.0,0.0
2018-07-18 19:56:58.920,15.0240688324,-0.0733333333333333,-0.029,0.0436666666666666,-0.5066769166666667,0.14709975,8.907707083333333,175333.33333333334,-87000.0,-441333.3333333333,97102.09553666667,59.24333333333333,-11.8759079,3.859626293,-42.98501968,-19.61999893,115.0728226,-118.44207,74.0,0.0
2018-07-18 19:56:58.960,15.102186203,-0.079,-0.017,0.047,-0.55897905,0.14709975,9.0613446,175000.0,-87000.0,-441000.0,97104.27856,59.24,-11.8759079,3.859626293,-42.98501968,-19.30999947,99.33576965,-117.6695404,75.0,0.0
2018-07-18 19:56:59.000,15.1803035736,-0.0574999999999999,-0.0165,0.0495,-0.50013915,0.18632635,9.16921775,173500.0,-85000.0,-441500.0,97106.384275,59.23,-11.8759079,3.859626293,-42.98501968,-19.30999947,99.33576965,-117.6695404,75.0,0.0
2018-07-18 19:56:59.040,15.2584209442,-0.036,-0.016,0.052,-0.44129925,0.22555295,9.2770909,172000.0,-83000.0,-442000.0,97108.48999,59.22,-11.8759079,3.859626293,-42.98501968,-19.15999985,88.548805235,-117.17721555,75.5,0.0
2018-07-18 19:56:59.080,15.3365383148,-0.0625,-0.023,0.048,-0.4854291749999999,0.171616375,9.713486825,172000.0,-83000.0,-442000.0,97108.48999,59.22,-11.8759079,3.859626293,-42.98501968,-19.01000023,77.76184082,-116.6848907,76.0,0.0
2018-07-18 19:56:59.120,15.4146556854,-0.089,-0.03,0.044,-0.5295591,0.1176798,10.14988275,172000.0,-83000.0,-442000.0,97108.48999,59.22,-11.8759079,3.859626293,-42.98501968,-19.01000023,77.76184082,-116.6848907,76.0,0.0
2018-07-18 19:56:59.160,15.492773056,-0.1053333333333333,-0.024,0.0426666666666666,-0.4837947333333333,0.1111420333333333,10.251218133333332,173000.0,-82666.66666666667,-442000.0,97111.57837,59.21666666666667,-11.8759079,3.859626293,-42.98501968,-18.69999886,53.43341827,-115.7002411,77.0,0.0
2018-07-18 19:56:59.200,15.5708904266,-0.1216666666666666,-0.018,0.0413333333333333,-0.4380303666666666,0.1046042666666666,10.352553516666667,174000.0,-82333.33333333333,-442000.0,97114.66675,59.21333333333333,-11.8759079,3.859626293,-42.98501968,-18.69999886,53.43341827,-115.7002411,77.0,0.0
2018-07-18 19:56:59.240,15.6490077972,-0.138,-0.012,0.04,-0.392266,0.0980665,10.4538889,175000.0,-82000.0,-442000.0,97117.75513,59.21,-11.8759079,3.859626293,-42.98501968,-18.69999886,53.43341827,-115.7002411,77.0,0.0
2018-07-18 19:56:59.280,15.72166194912,-0.11,-0.0253333333333333,0.024,-0.4641814333333333,0.04903325,10.4146623,174000.0,-79000.0,-443333.3333333333,97118.85376333332,59.20333333333333,-11.63360119,2.012652636,-43.71515274,-18.39999962,35.09922028,-114.7071228,77.0,0.0
2018-07-18 19:56:59.320,15.79431610104,-0.0819999999999999,-0.0386666666666666,0.008,-0.5360968666666667,0.0,10.3754357,173000.0,-76000.0,-444666.6666666667,97119.95239666667,59.196666666666665,-11.63360119,2.012652636,-43.71515274,-18.39999962,35.09922028,-114.7071228,77.0,0.0
2018-07-18 19:56:59.360,15.86697025296,-0.054,-0.052,-0.008,-0.6080123,-0.04903325,10.3362091,172000.0,-73000.0,-446000.0,97121.05103,59.19,-11.63360119,2.012652636,-43.71515274,-18.39999962,35.09922028,-114.7071228,77.0,0.0
2018-07-18 19:56:59.400,15.93962440488,-0.0295,-0.0705,-0.006,-0.5197524499999999,0.004903325,10.6107953,172000.0,-73000.0,-446000.0,97121.05103,59.19,-11.63360119,2.012652636,-43.71515274,-18.10000038,13.60244751,-114.355484,78.0,0.0
2018-07-18 19:56:59.440,16.0122785568,-0.005,-0.089,-0.004,-0.4314926,0.0588399,10.8853815,172000.0,-73000.0,-446000.0,97121.05103,59.19,-11.63360119,2.012652636,-43.71515274,-17.954999925000003,2.3205757139999994,-113.8233986,78.5,0.0
2018-07-18 19:56:59.480,16.08493270872,-0.0043333333333333,-0.102,-0.0093333333333333,-0.5034080333333333,0.1274864499999999,10.83634825,172333.33333333334,-72000.0,-445666.6666666667,97124.27978666668,59.18666666666667,-11.63360119,2.012652636,-43.71515274,-17.80999947,-8.961296082,-113.2913132,79.0,0.0
2018-07-18 19:56:59.520,16.157586860640002,-0.0036666666666666,-0.115,-0.0146666666666666,-0.5753234666666667,0.1961329999999999,10.787315,172666.66666666666,-71000.0,-445333.3333333333,97127.50854333332,59.18333333333333,-11.63360119,2.012652636,-43.71515274,-17.664999965,-13.587474821,-112.9202156,79.5,0.0
2018-07-18 19:56:59.560,16.23024101256,-0.003,-0.128,-0.02,-0.6472389,0.26477955,10.73828175,173000.0,-70000.0,-445000.0,97130.7373,59.18,-11.63360119,2.012652636,-43.71515274,-17.52000046,-18.21365356,-112.549118,80.0,0.0
2018-07-18 19:56:59.600,16.30289516448,4.336808689942022e-19,-0.138,-0.023,-0.6080123,0.2974683833333333,10.813466066666669,169666.66666666666,-69666.66666666667,-445666.6666666667,97131.67317333331,59.17666666666667,-11.63360119,2.012652636,-43.71515274,-17.52000046,-18.21365356,-112.549118,80.0,0.0
2018-07-18 19:56:59.640,16.3755493164,0.003,-0.148,-0.026,-0.5687857,0.3301572166666666,10.888650383333331,166333.33333333334,-69333.33333333333,-446333.3333333333,97132.60904666666,59.17333333333333,-11.63360119,2.012652636,-43.71515274,-17.52000046,-18.21365356,-112.549118,80.0,0.0
2018-07-18 19:56:59.680,16.394699790254545,0.006,-0.158,-0.029,-0.5295591,0.36284605,10.9638347,163000.0,-69000.0,-447000.0,97133.54492,59.17,-10.13387012,1.233032227,-43.22424316,-17.23999977,-37.55493164,-111.4436874,81.0,0.0
2018-07-18 19:56:59.720,16.41385026410909,-0.028,-0.1485,-0.0365,-0.5687857,0.4118792999999999,10.782411675,163000.0,-69000.0,-447000.0,97136.361695,59.165,-10.13387012,1.233032227,-43.22424316,-17.109999655000003,-42.637634275,-110.8912849,81.5,0.0
2018-07-18 19:56:59.760,16.43300073796364,-0.062,-0.139,-0.044,-0.6080123,0.46091255,10.60098865,163000.0,-69000.0,-447000.0,97139.17847,59.16,-10.13387012,1.233032227,-43.22424316,-16.97999954,-47.72033691,-110.3388824,82.0,0.0
2018-07-18 19:56:59.800,16.452151211818183,-0.0795,-0.1495,-0.046,-0.622722275,0.122583125,10.8853815,161000.0,-68500.0,-449000.0,97139.17847,59.16,-10.13387012,1.233032227,-43.22424316,-16.97999954,-47.72033691,-110.3388824,82.0,0.0
2018-07-18 19:56:59.840,16.471301685672728,-0.097,-0.16,-0.048,-0.63743225,-0.2157463,11.16977435,159000.0,-68000.0,-451000.0,97139.17847,59.16,-10.13387012,1.233032227,-43.22424316,-16.849999425,-47.14450836,-109.94693755,82.5,0.0
2018-07-18 19:56:59.880,16.490452159527273,-0.0676666666666666,-0.1693333333333333,-0.038,-0.55897905,-0.1144109166666666,11.36590735,157333.33333333334,-66333.33333333333,-451666.6666666667,97139.15812333333,59.156666666666666,-10.13387012,1.233032227,-43.22424316,-16.71999931,-46.56867981,-109.5549927,83.0,0.0
2018-07-18 19:56:59.920,16.509602633381817,-0.0383333333333333,-0.1786666666666666,-0.028,-0.48052585,-0.0130755333333333,11.56204035,155666.66666666666,-64666.66666666666,-452333.3333333333,97139.13777666668,59.15333333333333,-10.13387012,1.233032227,-43.22424316,-16.71999931,-46.56867981,-109.5549927,83.0,0.0
2018-07-18 19:56:59.960,16.528753107236362,-0.009,-0.188,-0.018,-0.40207265,0.08825985,11.75817335,154000.0,-63000.0,-453000.0,97139.11743,59.15,-10.13387012,1.233032227,-43.22424316,-16.48999977,-54.90570068,-108.4525146,84.0,0.0
2018-07-18 19:57:00.000,16.54790358109091,0.0504999999999999,-0.1585,-0.0215,-0.4167826249999999,0.2059396499999999,11.782689975,150000.0,-61000.0,-454500.0,97142.443845,59.145,-10.13387012,1.233032227,-43.22424316,-16.48999977,-54.90570068,-108.4525146,84.0,0.0
2018-07-18 19:57:00.040,16.567054054945455,0.11,-0.129,-0.025,-0.4314926,0.32361945,11.8072066,146000.0,-59000.0,-456000.0,97145.77026,59.14,-10.13387012,1.233032227,-43.22424316,-16.48999977,-54.90570068,-108.4525146,84.0,0.0
2018-07-18 19:57:00.080,16.5862045288,0.16,-0.1455,-0.014,-0.4314926,-0.1176798,12.008242925,144000.0,-58500.0,-457500.0,97144.747925,59.135000000000005,-6.825474262,0.721256912,-42.0412674,-16.27000046,-58.62045288,-107.6347198,85.0,0.0
2018-07-18 19:57:00.120,16.5777138604,0.21,-0.162,-0.003,-0.4314926,-0.55897905,12.20927925,142000.0,-58000.0,-459000.0,97143.72559,59.13,-6.825474262,0.721256912,-42.0412674,-16.27000046,-58.62045288,-107.6347198,85.0,0.0
