time,field.airspeed,field.angular_velocity.x,field.angular_velocity.y,field.angular_velocity.z,field.linear_acceleration.x,field.linear_acceleration.y,field.linear_acceleration.z,field.magnetic_field.x,field.magnetic_field.y,field.magnetic_field.z,field.fluid_pressure,field.temperature,field.alt_error,field.aspd_error,field.xtrack_error,field.wp_dist,field.measured.pitch,field.measured.roll,field.measured.yaw,fault_state
2018-07-30 21:14:36.160,15.2962379456,0.398,-0.059,-0.102,0.9218251,0.57859235,9.81645665,16000.0,-269000.0,-380000.0,96834.46655,61.58,0.449999988,-7.335090637,-30.63302612,14.0,-4.062574863,11.30237579,-98.13918304,0.0
2018-07-30 21:14:36.200,15.2962379456,0.532,-0.036,-0.125,0.6668522,0.38245935,8.65927195,22000.0,-283000.0,-368000.0,96836.38916,61.57,0.449999988,-7.335090637,-30.63302612,14.0,-4.062574863,11.30237579,-98.13918304,0.0
2018-07-30 21:14:36.240,15.2962379456,0.512,-0.051,-0.11925,0.7232404375,0.4339442624999999,8.749983462500001,22750.0,-287000.0,-364750.0,96837.498475,61.57,0.4833333293333333,-14.764658611333337,-30.06742477333333,14.333333333333334,-4.062574863,11.30237579,-98.13918304,0.0
2018-07-30 21:14:36.280,15.2962379456,0.492,-0.066,-0.1134999999999999,0.779628675,0.485429175,8.840694975000002,23500.0,-291000.0,-361500.0,96838.60779,61.57,0.5166666706666667,-22.19422658566667,-29.501823426666668,14.666666666666666,-4.062574863,11.30237579,-98.13918304,0.0
2018-07-30 21:14:36.320,15.2962379456,0.472,-0.081,-0.10775,0.8360169125,0.5369140875,8.9314064875,24250.0,-295000.0,-358250.0,96839.717105,61.57,0.550000012,-29.62379456,-28.93622208,15.0,-4.062574863,11.30237579,-98.13918304,0.0
2018-07-30 21:14:36.360,15.45473565,0.452,-0.096,-0.102,0.89240515,0.588399,9.022118,25000.0,-299000.0,-355000.0,96840.82642,61.57,0.669999957,-47.25074768,-372.623291,17.0,-3.93370223,23.42770767,-95.05877686,0.0
2018-07-30 21:14:36.400,15.6132333544,0.4326666666666667,-0.1133333333333333,-0.1136666666666666,0.8629852,0.6112811833333334,9.558214866666669,28666.666666666668,-309333.3333333333,-345333.3333333333,96841.01156,61.56666666666667,0.669999957,-47.25074768,-372.623291,17.0,-3.93370223,23.42770767,-95.05877686,0.0
2018-07-30 21:14:36.440,15.7717310588,0.4133333333333333,-0.1306666666666666,-0.1253333333333333,0.8335652499999999,0.6341633666666666,10.094311733333337,32333.33333333333,-319666.6666666667,-335666.6666666667,96841.1967,61.56333333333333,0.7399999795000001,-16.898489,-371.7610626,18.0,-3.93370223,23.42770767,-95.05877686,0.0
2018-07-30 21:14:36.480,15.9302287632,0.394,-0.148,-0.137,0.8041453,0.65704555,10.6304086,36000.0,-330000.0,-326000.0,96841.38184,61.56,0.810000002,13.45376968,-370.8988342,19.0,-3.93370223,23.42770767,-95.05877686,0.0
2018-07-30 21:14:36.520,16.0887264676,0.359,-0.131,-0.148,1.34351105,0.7256921,10.9246081,36000.0,-330000.0,-326000.0,96841.38184,61.56,0.810000002,13.45376968,-370.8988342,19.0,-3.93370223,23.42770767,-95.05877686,0.0
2018-07-30 21:14:36.560,16.247224172000003,0.3873333333333333,-0.1173333333333333,-0.173,1.5723328833333334,0.6505077833333333,11.104396683333334,34333.333333333336,-335333.3333333333,-320333.3333333333,96844.00024666666,61.556666666666665,0.949999988,-28.70101929,-369.1659241,20.0,-3.93370223,23.42770767,-95.05877686,0.0
2018-07-30 21:14:36.600,16.4057218764,0.4156666666666667,-0.1036666666666666,-0.198,1.8011547166666668,0.5753234666666667,11.284185266666666,32666.666666666668,-340666.6666666667,-314666.6666666667,96846.61865333334,61.553333333333335,0.949999988,-28.70101929,-369.1659241,20.0,-3.93370223,23.42770767,-95.05877686,0.0
2018-07-30 21:14:36.640,16.5642195808,0.444,-0.09,-0.223,2.02997655,0.50013915,11.46397385,31000.0,-346000.0,-309000.0,96849.23706,61.55,1.0200000105,-50.486373905,-368.2783356,21.0,-3.93370223,23.42770767,-95.05877686,0.0
2018-07-30 21:14:36.680,16.7227172852,0.4246666666666667,-0.0796666666666666,-0.215,2.356864883333333,0.4707192,11.764711116666668,28000.0,-352666.6666666667,-302333.3333333333,96853.06193,61.54666666666667,1.090000033,-72.27172852,-367.3907471,22.0,-3.93370223,23.42770767,-95.05877686,0.0
2018-07-30 21:14:36.720,16.9218654633,0.4053333333333333,-0.0693333333333333,-0.207,2.6837532166666667,0.44129925,12.065448383333331,25000.0,-359333.3333333333,-295666.6666666667,96856.8868,61.54333333333333,1.090000033,-72.27172852,-367.3907471,22.0,-3.737994671,31.55894661,-91.18915558,0.0
2018-07-30 21:14:36.760,17.1210136414,0.386,-0.059,-0.199,3.01064155,0.4118793,12.36618565,22000.0,-366000.0,-289000.0,96860.71167,61.54,1.230000019,-128.1461792,-365.5986633,24.0,-3.737994671,31.55894661,-91.18915558,0.0
2018-07-30 21:14:36.800,17.3201618195,0.4103333333333333,-0.0546666666666666,-0.188,2.7033665166666667,0.6439700166666666,12.0033396,32333.333333333336,-371000.0,-280000.0,96865.83659,61.54,1.230000019,-128.1461792,-365.5986633,24.0,-3.737994671,31.55894661,-91.18915558,0.0
2018-07-30 21:14:36.840,17.5193099976,0.4346666666666667,-0.0503333333333333,-0.177,2.396091483333333,0.8760607333333333,11.64049355,42666.66666666667,-376000.0,-271000.0,96870.96151,61.54,1.230000019,-128.1461792,-365.5986633,24.0,-3.737994671,31.55894661,-91.18915558,0.0
2018-07-30 21:14:36.880,17.7184581757,0.459,-0.046,-0.166,2.08881645,1.10815145,11.2776475,53000.0,-381000.0,-262000.0,96876.08643,61.54,1.300000012,-151.78204345,-364.68572995,25.0,-3.737994671,31.55894661,-91.18915558,0.0
2018-07-30 21:14:36.920,17.9176063538,0.307,-0.0715,-0.201,1.8828768,0.77472535,11.8072066,53000.0,-381000.0,-262000.0,96872.885135,61.535,1.370000005,-175.4179077,-363.7727966,26.0,-3.737994671,31.55894661,-91.18915558,0.0
2018-07-30 21:14:36.960,18.1167545319,0.155,-0.097,-0.236,1.67693715,0.44129925,12.3367657,53000.0,-381000.0,-262000.0,96869.68384,61.53,1.519999981,-229.5326233,-361.9384766,28.0,-3.737994671,31.55894661,-91.18915558,0.0
2018-07-30 21:14:37.000,18.31590271,0.1659999999999999,-0.1165,-0.254,1.338607725,0.367749375,11.8856598,59500.0,-382500.0,-258500.0,96869.68384,61.53,1.519999981,-229.5326233,-361.9384766,28.0,-3.737994671,31.55894661,-91.18915558,0.0
2018-07-30 21:14:37.040,18.5150508881,0.177,-0.136,-0.272,1.0002783,0.2941995,11.4345539,66000.0,-384000.0,-255000.0,96869.68384,61.53,1.519999981,-229.5326233,-361.9384766,28.0,-3.737994671,31.55894661,-91.18915558,0.0
2018-07-30 21:14:37.080,18.7141990662,0.2205,-0.1515,-0.2505,0.7453054,0.122583125,10.89518815,72000.0,-383500.0,-252500.0,96870.10193,61.525000000000006,1.669999957,-271.4199219,-360.0702515,30.0,-3.737994671,31.55894661,-91.18915558,0.0
2018-07-30 21:14:37.120,18.74820264183333,0.264,-0.167,-0.229,0.4903325,-0.04903325,10.3558224,78000.0,-383000.0,-250000.0,96870.52002,61.52,1.669999957,-271.4199219,-360.0702515,30.0,-5.28554678,38.17069244,-85.90966797,0.0
2018-07-30 21:14:37.160,18.782206217466666,0.153,-0.17675,-0.20775,0.3947176625,-0.06864655,9.71839015,80000.0,-383750.0,-249250.0,96867.456055,61.5175,1.839999914,-298.7823486,-358.193634,32.0,-5.28554678,38.17069244,-85.90966797,0.0
2018-07-30 21:14:37.200,18.8162097931,0.042,-0.1865,-0.1865,0.299102825,-0.08825985,9.0809579,82000.0,-384500.0,-248500.0,96864.39209,61.515,1.839999914,-298.7823486,-358.193634,32.0,-5.28554678,38.17069244,-85.90966797,0.0
2018-07-30 21:14:37.240,18.85021336873333,-0.069,-0.1962499999999999,-0.16525,0.2034879875,-0.10787315,8.44352565,84000.0,-385250.0,-247750.0,96861.328125,61.5125,1.839999914,-298.7823486,-358.193634,32.0,-5.28554678,38.17069244,-85.90966797,0.0
2018-07-30 21:14:37.280,18.884216944366667,-0.18,-0.206,-0.144,0.10787315,-0.12748645,7.8060934,86000.0,-386000.0,-247000.0,96858.26416,61.51,1.839999914,-298.7823486,-358.193634,32.0,-5.28554678,38.17069244,-85.90966797,0.0
2018-07-30 21:14:37.320,18.91822052,-0.228,-0.237,-0.139,-0.46091255,1.08853815,6.2958693,94000.0,-388000.0,-242000.0,96858.26416,61.51,2.029999971,-304.5074463,-356.3254089,34.0,-5.28554678,38.17069244,-85.90966797,0.0
2018-07-30 21:14:37.360,18.952224095633333,-0.2173333333333333,-0.222,-0.173,-0.4936013833333333,1.1114203333333332,6.7469752,95000.0,-385666.6666666667,-245333.3333333333,96857.88167333334,61.50666666666667,2.24000001,-302.0231323,-354.448822,36.0,-5.28554678,38.17069244,-85.90966797,0.0
2018-07-30 21:14:37.400,18.986227671266665,-0.2066666666666666,-0.207,-0.207,-0.5262902166666666,1.1343025166666667,7.1980811000000005,96000.0,-383333.3333333333,-248666.66666666663,96857.49918666668,61.50333333333333,2.24000001,-302.0231323,-354.448822,36.0,-5.28554678,38.17069244,-85.90966797,0.0
2018-07-30 21:14:37.440,19.0202312469,-0.196,-0.192,-0.241,-0.55897905,1.1571847,7.649187,97000.0,-381000.0,-252000.0,96857.1167,61.5,2.3600000145,-304.30288695,-353.5401001,37.0,-4.9042878155,37.2204113,-83.26881027499999,0.0
2018-07-30 21:14:37.480,19.11709679493333,-0.1335,-0.1905,-0.314,-0.71588545,1.0787315,8.811275025,97000.0,-376500.0,-258000.0,96857.888795,61.5,2.480000019,-306.5826416,-352.6313782,38.0,-4.523028851,36.27013016,-80.62795258,0.0
2018-07-30 21:14:37.520,19.213962342966667,-0.071,-0.189,-0.387,-0.87279185,1.0002783,9.97336305,97000.0,-372000.0,-264000.0,96858.66089,61.5,2.480000019,-306.5826416,-352.6313782,38.0,-4.523028851,36.27013016,-80.62795258,0.0
2018-07-30 21:14:37.560,19.310827891,-0.06,-0.202,-0.4083333333333333,-0.9577828166666668,0.8597163166666666,10.7284751,100000.0,-369666.6666666667,-267333.3333333333,96858.04647,61.49666666666667,2.730000019,-330.5793762,-350.7799988,40.0,-4.523028851,36.27013016,-80.62795258,0.0
2018-07-30 21:14:37.600,19.40769343903333,-0.049,-0.215,-0.4296666666666667,-1.0427737833333337,0.7191543333333332,11.48358715,103000.0,-367333.3333333333,-270666.6666666667,96857.43205,61.49333333333333,2.730000019,-330.5793762,-350.7799988,40.0,-4.523028851,36.27013016,-80.62795258,0.0
2018-07-30 21:14:37.640,19.504558987066662,-0.038,-0.228,-0.451,-1.12776475,0.57859235,12.2386992,106000.0,-365000.0,-274000.0,96856.81763,61.49,2.855000019,-347.19200135,-349.8797455,41.0,-4.523028851,36.27013016,-80.62795258,0.0
2018-07-30 21:14:37.680,19.6014245351,0.0349999999999999,-0.244,-0.457,-1.18660465,0.2745862,12.58193195,111000.0,-361000.0,-277500.0,96854.88892,61.485,2.980000019,-363.8046265,-348.9794922,42.0,-4.523028851,36.27013016,-80.62795258,0.0
2018-07-30 21:14:37.720,19.698290083133333,0.108,-0.26,-0.463,-1.24544455,-0.02941995,12.9251647,116000.0,-357000.0,-281000.0,96852.96021,61.48,3.0566666920000003,-372.2704569666666,-348.3849080333333,42.66666666666666,-4.523028851,36.27013016,-80.62795258,0.0
2018-07-30 21:14:37.760,19.79515563116667,0.1933333333333333,-0.2623333333333333,-0.441,-1.2748645,0.0130755333333333,13.343581766666668,119666.66666666669,-355333.3333333333,-282000.0,96853.93677,61.48,3.133333365,-380.73628743333336,-347.79032386666665,43.333333333333336,-4.523028851,36.27013016,-80.62795258,0.0
2018-07-30 21:14:37.800,19.8920211792,0.2786666666666667,-0.2646666666666666,-0.419,-1.30428445,0.0555710166666666,13.761998833333331,123333.33333333331,-353666.6666666667,-283000.0,96854.91333,61.48,3.210000038,-389.2021179,-347.1957397,44.0,-4.523028851,36.27013016,-80.62795258,0.0
2018-07-30 21:14:37.840,19.964423497522223,0.364,-0.267,-0.397,-1.3337044,0.0980665,14.1804159,127000.0,-352000.0,-284000.0,96855.88989,61.48,3.314999938,-411.6792755,-346.34197995,45.0,-5.2896173005,36.15447426,-75.069618225,0.0
2018-07-30 21:14:37.880,20.036825815844445,0.3155,-0.2754999999999999,-0.347,-1.230734575,-0.328522775,14.8080415,132500.0,-350500.0,-282500.0,96855.80444,61.475,3.419999838,-434.1564331,-345.4882202,46.0,-6.05620575,36.03881836,-69.51128387,0.0
2018-07-30 21:14:37.920,20.109228134166667,0.267,-0.284,-0.297,-1.12776475,-0.75511205,15.4356671,138000.0,-349000.0,-281000.0,96855.71899,61.47,3.419999838,-434.1564331,-345.4882202,46.0,-6.05620575,36.03881836,-69.51128387,0.0
2018-07-30 21:14:37.960,20.18163045248889,0.141,-0.277,-0.2204999999999999,-1.12776475,-0.750208725,14.8668814,142000.0,-350500.0,-278500.0,96857.479855,61.47,3.589999914,-452.0046387,-343.7891235,48.0,-6.05620575,36.03881836,-69.51128387,0.0
2018-07-30 21:14:38.000,20.25403277081111,0.015,-0.27,-0.144,-1.12776475,-0.7453054,14.2980957,146000.0,-352000.0,-276000.0,96859.24072,61.47,3.589999914,-452.0046387,-343.7891235,48.0,-6.05620575,36.03881836,-69.51128387,0.0
2018-07-30 21:14:38.040,20.326435089133334,-0.056,-0.2693333333333333,-0.1153333333333333,-1.1931424166666666,-0.7060788,13.732578883333332,146666.66666666666,-352666.6666666667,-274333.3333333333,96859.83683,61.46666666666667,3.6599999665,-456.14242555,-342.98184200000003,49.0,-6.05620575,36.03881836,-69.51128387,0.0
2018-07-30 21:14:38.080,20.39883740745556,-0.127,-0.2686666666666666,-0.0866666666666666,-1.2585200833333334,-0.6668522,13.167062066666666,147333.33333333334,-353333.3333333333,-272666.6666666667,96860.43294,61.46333333333333,3.730000019,-460.2802124,-342.1745605,50.0,-6.05620575,36.03881836,-69.51128387,0.0
2018-07-30 21:14:38.120,20.471239725777775,-0.198,-0.268,-0.058,-1.32389775,-0.6276256,12.60154525,148000.0,-354000.0,-271000.0,96861.02905,61.46,3.730000019,-460.2802124,-342.1745605,50.0,-6.05620575,36.03881836,-69.51128387,0.0
2018-07-30 21:14:38.160,20.5436420441,-0.2433333333333333,-0.2736666666666666,-0.039,-1.3402421666666666,-0.0719154333333332,12.666922916666666,147000.0,-353333.3333333333,-272666.6666666667,96861.10432666668,61.45333333333333,3.849999905,-454.3641968,-340.5769348,51.0,-6.05620575,36.03881836,-69.51128387,0.0
2018-07-30 21:14:38.200,20.506852044033334,-0.2886666666666667,-0.2793333333333333,-0.02,-1.3565865833333333,0.4837947333333334,12.732300583333334,146000.0,-352666.6666666667,-274333.3333333333,96861.17960333332,61.446666666666665,3.849999905,-454.3641968,-340.5769348,51.0,-4.06322813,36.76103973,-63.0697403,0.0
2018-07-30 21:14:38.240,20.470062043966667,-0.334,-0.285,-0.001,-1.372931,1.0395049,12.79767825,145000.0,-352000.0,-276000.0,96861.25488,61.44,3.899999857,-449.8904114,-339.81179810000003,52.0,-4.06322813,36.76103973,-63.0697403,0.0
2018-07-30 21:14:38.280,20.4332720439,-0.4196666666666667,-0.2603333333333333,-0.02,-1.3990820666666666,0.7387676333333333,12.1210194,139666.66666666666,-345666.6666666667,-286000.0,96861.92423333332,61.44,3.949999809,-445.416626,-339.0466614,53.0,-4.06322813,36.76103973,-63.0697403,0.0
2018-07-30 21:14:38.320,20.39648204383333,-0.5053333333333333,-0.2356666666666666,-0.039,-1.4252331333333332,0.4380303666666666,11.44436055,134333.33333333334,-339333.3333333333,-296000.0,96862.59358666668,61.44,3.97999986,-442.4865010666667,-338.55074056666666,53.66666666666666,-4.06322813,36.76103973,-63.0697403,0.0
2018-07-30 21:14:38.360,20.359692043766668,-0.591,-0.211,-0.058,-1.4513842,0.1372931,10.7677017,129000.0,-333000.0,-306000.0,96863.26294,61.44,4.009999911,-439.5563761333333,-338.0548197333333,54.333333333333336,-4.06322813,36.76103973,-63.0697403,0.0
2018-07-30 21:14:38.400,20.3229020437,-0.604,-0.1975,-0.08,-1.4709975,0.289296175,11.125644425,129000.0,-333000.0,-306000.0,96863.26294,61.44,4.039999962,-436.6262512,-337.5588989,55.0,-4.06322813,36.76103973,-63.0697403,0.0
2018-07-30 21:14:38.440,20.28611204363333,-0.617,-0.184,-0.102,-1.4906108,0.44129925,11.48358715,129000.0,-333000.0,-306000.0,96863.26294,61.44,4.039999962,-436.6262512,-337.5588989,55.0,-4.06322813,36.76103973,-63.0697403,0.0
2018-07-30 21:14:38.480,20.249322043566668,-0.653,-0.157,-0.132,-1.42196425,0.784532,11.34629405,125000.0,-322500.0,-317500.0,96863.476565,61.435,4.099999905,-421.2532043,-336.1387634,57.0,-4.06322813,36.76103973,-63.0697403,0.0
2018-07-30 21:14:38.520,20.2125320435,-0.689,-0.13,-0.162,-1.3533177,1.12776475,11.20900095,121000.0,-312000.0,-329000.0,96863.69019,61.43,4.099999905,-421.2532043,-336.1387634,57.0,-4.06322813,36.76103973,-63.0697403,0.0
2018-07-30 21:14:38.560,20.15049591068,-0.6499999999999999,-0.107,-0.189,-1.359855466666667,0.9447072833333334,11.01286795,119000.0,-305000.0,-336666.6666666667,96864.47550666668,61.43,4.159999847,-401.4984131,-334.743866,59.0,-1.099699259,24.85985565,-58.55889511,0.0
2018-07-30 21:14:38.600,20.08845977786,-0.611,-0.0839999999999999,-0.216,-1.3663932333333333,0.7616498166666668,10.81673495,117000.0,-298000.0,-344333.3333333333,96865.26082333332,61.43,4.1699998375,-398.5543213,-334.414192225,59.5,-1.099699259,24.85985565,-58.55889511,0.0
2018-07-30 21:14:38.640,20.02642364504,-0.572,-0.061,-0.243,-1.372931,0.57859235,10.62060195,115000.0,-291000.0,-352000.0,96866.04614,61.43,4.179999828,-395.6102295,-334.08451845,60.0,-1.099699259,24.85985565,-58.55889511,0.0
2018-07-30 21:14:38.680,19.96438751222,-0.5409999999999999,-0.04,-0.253,-1.4121576,0.328522775,10.5715687,115000.0,-278500.0,-361500.0,96867.06543,61.425,4.1899998185000005,-392.6661377,-333.754844675,60.5,-1.099699259,24.85985565,-58.55889511,0.0
2018-07-30 21:14:38.720,19.9023513794,-0.51,-0.019,-0.263,-1.4513842,0.0784532,10.52253545,115000.0,-266000.0,-371000.0,96868.08472,61.42,4.199999809,-389.7220459,-333.4251709,61.0,-1.099699259,24.85985565,-58.55889511,0.0
2018-07-30 21:14:38.760,19.84031524658,-0.5196666666666667,-0.018,-0.257,-1.4448464333333333,0.1667130499999999,10.362360166666669,115666.66666666669,-258333.3333333333,-377333.3333333333,96867.72461,61.42,4.224999904500001,-384.9437561,-332.7742615,62.0,-1.099699259,24.85985565,-58.55889511,0.0
2018-07-30 21:14:38.800,19.77827911376,-0.5293333333333333,-0.017,-0.251,-1.438308666666667,0.2549728999999999,10.202184883333333,116333.33333333331,-250666.66666666663,-383666.6666666667,96867.3645,61.42,4.25,-380.1654663,-332.1233521,63.0,-1.099699259,24.85985565,-58.55889511,0.0
2018-07-30 21:14:38.840,19.71624298094,-0.539,-0.016,-0.245,-1.4317709,0.34323275,10.0420096,117000.0,-243000.0,-390000.0,96867.00439,61.42,4.25,-380.1654663,-332.1233521,63.0,-1.099699259,24.85985565,-58.55889511,0.0
2018-07-30 21:14:38.880,19.65420684812,-0.5326666666666667,-0.0099999999999999,-0.2313333333333333,-1.4252331333333337,0.30400615,9.780498933333334,118666.66666666669,-235333.3333333333,-394000.0,96867.00439,61.41333333333333,4.299999714,-359.2170715,-330.8469238,64.0,-1.099699259,24.85985565,-58.55889511,0.0
2018-07-30 21:14:38.920,19.5921707153,-0.5263333333333333,-0.0039999999999999,-0.2176666666666666,-1.4186953666666666,0.26477955,9.518988266666666,120333.33333333331,-227666.66666666663,-398000.0,96867.00439,61.406666666666666,4.299999714,-359.2170715,-330.8469238,64.0,-1.7383648160000005,18.754468915,-55.62024498,0.0
2018-07-30 21:14:38.960,19.4838695525875,-0.52,0.002,-0.204,-1.4121576,0.22555295,9.2574776,122000.0,-220000.0,-402000.0,96867.00439,61.4,4.299999714,-359.2170715,-330.8469238,64.0,-2.377030373,12.64908218,-52.68159485,0.0
2018-07-30 21:14:39.000,19.375568389875,-0.4905,0.016,-0.193,-1.40235095,0.132389775,9.01231135,123000.0,-206500.0,-409000.0,96867.00439,61.4,4.360000134,-328.7025452,-329.5956421,66.0,-2.377030373,12.64908218,-52.68159485,0.0
2018-07-30 21:14:39.040,19.2672672271625,-0.461,0.03,-0.182,-1.3925443,0.0392266,8.7671451,124000.0,-193000.0,-416000.0,96867.00439,61.4,4.360000134,-328.7025452,-329.5956421,66.0,-2.377030373,12.64908218,-52.68159485,0.0
2018-07-30 21:14:39.080,19.15896606445,-0.4376666666666667,0.0286666666666666,-0.1689999999999999,-1.372931,-0.0392266,8.799833933333334,125333.33333333331,-185000.0,-419333.3333333333,96867.43163666666,61.4,4.420000076,-303.4378052,-328.3783875,68.0,-2.377030373,12.64908218,-52.68159485,0.0
2018-07-30 21:14:39.120,19.050664901737505,-0.4143333333333333,0.0273333333333333,-0.156,-1.3533177,-0.1176798,8.832522766666667,126666.66666666669,-177000.0,-422666.6666666667,96867.85888333332,61.4,4.440000057000001,-295.72238925,-328.07408145,68.5,-2.377030373,12.64908218,-52.68159485,0.0
2018-07-30 21:14:39.160,18.942363739025,-0.391,0.026,-0.143,-1.3337044,-0.196133,8.8652116,128000.0,-169000.0,-426000.0,96868.28613,61.4,4.460000038,-288.0069733,-327.7697754,69.0,-2.377030373,12.64908218,-52.68159485,0.0
2018-07-30 21:14:39.200,18.8340625763125,-0.328,0.0344999999999999,-0.1154999999999999,-1.32389775,-0.40207265,8.816178350000001,128500.0,-158500.0,-431000.0,96868.344115,61.395,4.5,-272.5761414,-327.1611633,70.0,-2.377030373,12.64908218,-52.68159485,0.0
2018-07-30 21:14:39.240,18.7257614136,-0.265,0.043,-0.088,-1.3140911,-0.6080123,8.7671451,129000.0,-148000.0,-436000.0,96868.4021,61.39,4.539999962,-262.172699,-326.56936645,70.5,-2.933167458,8.8200588205,-51.146347045,0.0
2018-07-30 21:14:39.280,18.596219698616668,-0.2395,0.047,-0.054,-1.34351105,-0.573689025,8.811275025,131000.0,-139000.0,-438500.0,96868.441775,61.39,4.579999924,-251.7692566,-325.9775696,71.0,-3.489304543,4.991035461,-49.61109924,0.0
2018-07-30 21:14:39.320,18.466677983633332,-0.214,0.051,-0.02,-1.372931,-0.53936575,8.85540495,133000.0,-130000.0,-441000.0,96868.48145,61.39,4.579999924,-251.7692566,-325.9775696,71.0,-3.489304543,4.991035461,-49.61109924,0.0
2018-07-30 21:14:39.360,18.33713626865,-0.22725,0.05275,0.00625,-1.3704793375,-0.392266,8.8186300125,134500.0,-124750.0,-442000.0,96869.993595,61.3875,4.613333225333333,-242.04070026666668,-325.5830892,71.66666666666667,-3.489304543,4.991035461,-49.61109924,0.0
2018-07-30 21:14:39.400,18.207594553666667,-0.2405,0.0545,0.0325,-1.368027675,-0.2451662499999999,8.781855075,136000.0,-119500.0,-443000.0,96871.50574,61.385000000000005,4.6466665266666665,-232.3121439333333,-325.1886088,72.33333333333333,-3.489304543,4.991035461,-49.61109924,0.0
2018-07-30 21:14:39.440,18.07805283868333,-0.25375,0.05625,0.05875,-1.3655760125,-0.0980664999999999,8.7450801375,137500.0,-114250.0,-444000.0,96873.017885,61.3825,4.679999828,-222.5835876,-324.7941284,73.0,-3.489304543,4.991035461,-49.61109924,0.0
2018-07-30 21:14:39.480,17.9485111237,-0.267,0.058,0.085,-1.36312435,0.04903325,8.7083052,139000.0,-109000.0,-445000.0,96874.53003,61.38,4.789999962,-194.8511047,-323.6104736,75.0,-3.489304543,4.991035461,-49.61109924,0.0
2018-07-30 21:14:39.520,17.89805280249231,-0.2945,0.069,0.1005,-1.309187775,0.0,8.6102387,139000.0,-104500.0,-446000.0,96873.55652,61.375,4.8450000285,-183.8671646,-323.02297969999995,76.0,-3.9326558115,3.3656039235,-49.73443031,0.0
2018-07-30 21:14:39.560,17.847594481284617,-0.322,0.08,0.116,-1.2552512,-0.04903325,8.5121722,139000.0,-100000.0,-447000.0,96872.58301,61.37,4.900000095,-172.8832245,-322.4354858,77.0,-4.37600708,1.740172386,-49.85776138,0.0
2018-07-30 21:14:39.600,17.797136160076924,-0.318,0.101,0.13,-1.26505785,-0.14709975,8.7867584,139000.0,-100000.0,-447000.0,96872.58301,61.37,4.900000095,-172.8832245,-322.4354858,77.0,-4.37600708,1.740172386,-49.85776138,0.0
2018-07-30 21:14:39.640,17.746677838869232,-0.3056666666666667,0.1016666666666666,0.128,-1.2519823166666666,-0.06864655,8.819447233333333,140000.0,-96000.0,-448666.6666666667,96874.00309333332,61.36666666666667,4.964999914,-168.41268159999998,-321.85223385,78.0,-4.37600708,1.740172386,-49.85776138,0.0
2018-07-30 21:14:39.680,17.69621951766154,-0.2933333333333333,0.1023333333333333,0.126,-1.2389067833333334,0.00980665,8.852136066666667,141000.0,-92000.0,-450333.3333333333,96875.42317666666,61.36333333333333,5.029999733,-163.9421387,-321.2689819,79.0,-4.37600708,1.740172386,-49.85776138,0.0
2018-07-30 21:14:39.720,17.645761196453847,-0.281,0.103,0.124,-1.22583125,0.08825985,8.8848249,142000.0,-88000.0,-452000.0,96876.84326,61.36,5.029999733,-163.9421387,-321.2689819,79.0,-4.37600708,1.740172386,-49.85776138,0.0
2018-07-30 21:14:39.760,17.595302875246155,-0.2325,0.1144999999999999,0.1164999999999999,-1.24544455,0.0441299250000005,8.629852,143000.0,-82000.0,-453000.0,96876.651,61.36,5.170000076,-161.5730286,-320.1107178,80.0,-4.37600708,1.740172386,-49.85776138,0.0
2018-07-30 21:14:39.800,17.544844554038463,-0.184,0.126,0.109,-1.26505785,1.03e-15,8.3748791,144000.0,-76000.0,-454000.0,96876.45874,61.36,5.170000076,-161.5730286,-320.1107178,80.0,-4.37600708,1.740172386,-49.85776138,0.0
2018-07-30 21:14:39.840,17.49438623283077,-0.195,0.133,0.104,-1.29055514,-0.0568785699999991,8.108138219999999,145800.0,-73200.0,-453600.0,96877.453614,61.358,5.319999695,-149.0558624,-318.9103394,82.0,-4.37600708,1.740172386,-49.85776138,0.0
2018-07-30 21:14:39.880,17.443927911623078,-0.206,0.14,0.099,-1.31605243,-0.1137571399999993,7.841397339999999,147600.0,-70400.0,-453200.0,96878.448488,61.356,5.373333136333334,-142.4556732,-318.5130107,82.66666666666667,-4.37600708,1.740172386,-49.85776138,0.0
2018-07-30 21:14:39.920,17.393469590415386,-0.217,0.147,0.094,-1.34154972,-0.1706357099999995,7.57465646,149400.0,-67600.0,-452800.0,96879.443362,61.354,5.4266665776666665,-135.855484,-318.115682,83.33333333333333,-4.37600708,1.740172386,-49.85776138,0.0
2018-07-30 21:14:39.960,17.343011269207693,-0.2279999999999999,0.154,0.089,-1.36704701,-0.2275142799999998,7.307915579999999,151200.0,-64800.0,-452400.0,96880.438236,61.352,5.480000019,-129.2552948,-317.7183533,84.0,-4.37600708,1.740172386,-49.85776138,0.0
2018-07-30 21:14:40.000,17.292552948,-0.239,0.161,0.084,-1.3925443,-0.28439285,7.0411747,153000.0,-62000.0,-452000.0,96881.43311,61.35,5.480000019,-129.2552948,-317.7183533,84.0,-6.0745191575,-1.896625042,-51.174041745,0.0
2018-07-30 21:14:40.040,17.230799780955557,-0.274,0.156,0.096,-1.40235095,-0.22555295,6.65871535,161000.0,-52000.0,-452000.0,96883.41064,61.34,5.480000019,-129.2552948,-317.7183533,84.0,-7.773031235,-5.53342247,-52.49032211,0.0
2018-07-30 21:14:40.080,17.169046613911114,-0.2885,0.14,0.097,-1.40235095,-0.06864655,6.7077486,161000.0,-52000.0,-452000.0,96883.41064,61.34,5.670000076,-103.0973434,-316.5180054,86.0,-7.773031235,-5.53342247,-52.49032211,0.0
2018-07-30 21:14:40.120,17.107293446866667,-0.303,0.124,0.098,-1.40235095,0.08825985,6.75678185,161000.0,-52000.0,-452000.0,96883.41064,61.34,5.670000076,-103.0973434,-316.5180054,86.0,-7.773031235,-5.53342247,-52.49032211,0.0
2018-07-30 21:14:40.160,17.045540279822223,-0.249,0.1226666666666666,0.0913333333333333,-1.3925443,0.0457643666666666,6.822159516666667,162666.66666666666,-49000.0,-451666.6666666667,96883.55712666668,61.34,5.909999847,-77.59819031,-315.3007507,87.0,-7.773031235,-5.53342247,-52.49032211,0.0
2018-07-30 21:14:40.200,16.98378711277778,-0.195,0.1213333333333333,0.0846666666666666,-1.38273765,0.0032688833333333,6.887537183333333,164333.33333333334,-46000.0,-451333.3333333333,96883.70361333332,61.34,5.909999847,-77.59819031,-315.3007507,87.0,-7.773031235,-5.53342247,-52.49032211,0.0
2018-07-30 21:14:40.240,16.922033945733336,-0.141,0.12,0.078,-1.372931,-0.0392266,6.95291485,166000.0,-43000.0,-451000.0,96883.8501,61.34,5.909999847,-77.59819031,-315.3007507,87.0,-7.773031235,-5.53342247,-52.49032211,0.0
2018-07-30 21:14:40.280,16.86028077868889,-0.0849999999999999,0.1365,0.0755,-1.40235095,-0.044129925,6.898978275,168500.0,-38000.0,-450500.0,96885.403445,61.335,6.179999828,-73.67744446,-314.049469,89.0,-7.773031235,-5.53342247,-52.49032211,0.0
2018-07-30 21:14:40.320,16.798527611644445,-0.029,0.153,0.073,-1.4317709,-0.04903325,6.8450417,171000.0,-33000.0,-450000.0,96886.95679,61.33,6.179999828,-73.67744446,-314.049469,89.0,-7.773031235,-5.53342247,-52.49032211,0.0
2018-07-30 21:14:40.360,16.7367744446,-0.066,0.152,0.0703333333333333,-1.4448464333333333,-0.0555710166666666,6.959452616666667,172333.33333333334,-32333.33333333333,-449000.0,96889.61588666668,61.32666666666667,6.480000019,-62.40844727,-312.7984009,91.0,-11.38572598,-9.700586319,-53.67866135,0.0
2018-07-30 21:14:40.400,16.724819607222223,-0.103,0.151,0.0676666666666666,-1.4579219666666667,-0.0621087833333333,7.073863533333333,173666.66666666666,-31666.666666666668,-448000.0,96892.27498333334,61.32333333333333,6.480000019,-62.40844727,-312.7984009,91.0,-11.38572598,-9.700586319,-53.67866135,0.0
2018-07-30 21:14:40.440,16.712864769844444,-0.14,0.15,0.065,-1.4709975,-0.06864655,7.18827445,175000.0,-31000.0,-447000.0,96894.93408,61.32,6.589999993666667,-60.065587363333336,-312.37288413333334,91.66666666666669,-11.38572598,-9.700586319,-53.67866135,0.0
2018-07-30 21:14:40.480,16.70090993246667,-0.1485,0.1385,0.0725,-1.446480875,0.0784532,6.997044775,179500.0,-30000.0,-446000.0,96894.93408,61.32,6.6999999683333336,-57.72272745666667,-311.94736736666664,92.33333333333331,-11.38572598,-9.700586319,-53.67866135,0.0
2018-07-30 21:14:40.520,16.68895509508889,-0.157,0.127,0.08,-1.42196425,0.22555295,6.8058151,184000.0,-29000.0,-445000.0,96894.93408,61.32,6.809999943,-55.37986755,-311.5218506,93.0,-11.38572598,-9.700586319,-53.67866135,0.0
2018-07-30 21:14:40.560,16.67700025771111,-0.0835,0.1255,0.072,-1.456287525,0.171616375,6.93330155,187500.0,-27500.0,-444000.0,96897.43347,61.315,7.179999828,-50.51078796,-310.2369995,95.0,-11.38572598,-9.700586319,-53.67866135,0.0
2018-07-30 21:14:40.600,16.665045420333332,-0.01,0.124,0.064,-1.4906108,0.1176798,7.060788,191000.0,-26000.0,-443000.0,96899.93286,61.31,7.179999828,-50.51078796,-310.2369995,95.0,-11.38572598,-9.700586319,-53.67866135,0.0
2018-07-30 21:14:40.640,16.653090582955556,0.0146666666666666,0.1293333333333333,0.0533333333333333,-1.4938796833333334,0.12748645,6.864655,192666.66666666663,-24333.33333333333,-441666.6666666667,96901.38956666666,61.31,7.179999828,-50.51078796,-310.2369995,95.0,-11.38572598,-9.700586319,-53.67866135,0.0
2018-07-30 21:14:40.680,16.641135745577778,0.0393333333333333,0.1346666666666666,0.0426666666666666,-1.4971485666666666,0.1372931,6.668521999999999,194333.3333333333,-22666.666666666668,-440333.3333333333,96902.84627333331,61.31,7.579999924,-62.91809082,-308.9520569,97.0,-11.38572598,-9.700586319,-53.67866135,0.0
2018-07-30 21:14:40.720,16.6291809082,0.064,0.14,0.032,-1.50041745,0.14709975,6.472389,196000.0,-21000.0,-439000.0,96904.30298,61.31,7.579999924,-62.91809082,-308.9520569,97.0,-14.8772583,-11.40441036,-54.08089447,0.0
2018-07-30 21:14:40.760,16.674996058144444,0.1185,0.1175,0.024,-1.485707475,0.2745862,6.63910205,198500.0,-22000.0,-438500.0,96906.99768,61.305,7.789999962,-65.13290405500001,-308.30116275,98.0,-14.8772583,-11.40441036,-54.08089447,0.0
2018-07-30 21:14:40.800,16.72081120808889,0.173,0.095,0.016,-1.4709975,0.40207265,6.8058151,201000.0,-23000.0,-438000.0,96909.69238,61.3,8.0,-67.34771729,-307.6502686,99.0,-14.8772583,-11.40441036,-54.08089447,0.0
2018-07-30 21:14:40.840,16.76662635803333,0.143,0.0863333333333333,0.014,-1.5298374,0.3595771666666666,6.979065916666666,203333.3333333333,-24000.0,-436666.6666666667,96911.42985,61.3,8.2350001335,-76.56850815,-306.99093630000004,100.0,-14.8772583,-11.40441036,-54.08089447,0.0
2018-07-30 21:14:40.880,16.812441507977777,0.1129999999999999,0.0776666666666666,0.012,-1.5886773,0.3170816833333333,7.1523167333333335,205666.66666666663,-25000.0,-435333.3333333333,96913.16732,61.3,8.470000267,-85.78929901,-306.331604,101.0,-14.8772583,-11.40441036,-54.08089447,0.0
2018-07-30 21:14:40.920,16.858256657922222,0.083,0.069,0.01,-1.6475172,0.2745862,7.32556755,208000.0,-26000.0,-434000.0,96914.90479,61.3,8.470000267,-85.78929901,-306.331604,101.0,-14.8772583,-11.40441036,-54.08089447,0.0
2018-07-30 21:14:40.960,16.904071807866668,0.118,0.067,0.0066666666666666,-1.6213661333333331,0.1699819333333333,6.812352866666666,210000.0,-28333.33333333333,-433333.3333333333,96918.34920666668,61.29666666666667,8.720000267,-89.46647644,-305.6594696,102.0,-14.8772583,-11.40441036,-54.08089447,0.0
2018-07-30 21:14:41.000,16.94988695781111,0.153,0.065,0.0033333333333333,-1.595215066666667,0.0653776666666666,6.2991381833333335,212000.0,-30666.666666666668,-432666.6666666667,96921.79362333332,61.29333333333333,8.970000267,-93.14365387,-304.9873352,103.0,-14.8772583,-11.40441036,-54.08089447,0.0
2018-07-30 21:14:41.040,16.995702107755555,0.188,0.063,-7.72e-18,-1.569064,-0.0392266,5.7859235,214000.0,-33000.0,-432000.0,96925.23804,61.29,9.2449998855,-98.647689835,-304.3026428,103.5,-14.8772583,-11.40441036,-54.08089447,0.0
2018-07-30 21:14:41.080,17.0415172577,0.208,0.0579999999999999,0.0099999999999999,-1.5886773,-0.250069575,6.055606375,216500.0,-33500.0,-430000.0,96925.23804,61.29,9.519999504,-104.1517258,-303.6179504,104.0,-14.8772583,-11.40441036,-54.08089447,0.0
2018-07-30 21:14:41.120,17.129364585890002,0.228,0.053,0.02,-1.6082906,-0.46091255,6.32528925,219000.0,-34000.0,-428000.0,96925.23804,61.29,9.519999504,-104.1517258,-303.6179504,104.0,-17.19544411,-9.284231186,-53.43286514,0.0
2018-07-30 21:14:41.160,17.21721191408,0.284,0.0345,0.0525,-1.632807225,-0.279489525,7.1980811,220000.0,-38000.0,-427500.0,96926.38855,61.285,10.10999966,-118.7286377,-302.2400513,106.0,-17.19544411,-9.284231186,-53.43286514,0.0
2018-07-30 21:14:41.200,17.30505924227,0.34,0.016,0.085,-1.65732385,-0.0980665,8.07087295,221000.0,-42000.0,-427000.0,96927.53906,61.28,10.10999966,-118.7286377,-302.2400513,106.0,-17.19544411,-9.284231186,-53.43286514,0.0
2018-07-30 21:14:41.240,17.39290657046,0.3433333333333333,0.0136666666666666,0.0993333333333333,-1.673668266666667,-0.1438308666666666,8.48275225,222666.66666666663,-45666.66666666666,-425666.6666666667,96930.81258,61.28,10.414999485,-129.92468259999998,-301.55111695,107.0,-17.19544411,-9.284231186,-53.43286514,0.0
2018-07-30 21:14:41.280,17.48075389865,0.3466666666666667,0.0113333333333333,0.1136666666666666,-1.690012683333333,-0.1895952333333333,8.89463155,224333.3333333333,-49333.333333333336,-424333.3333333333,96934.0861,61.28,10.71999931,-141.1207275,-300.8621826,108.0,-17.19544411,-9.284231186,-53.43286514,0.0
2018-07-30 21:14:41.320,17.568601226840002,0.35,0.009,0.128,-1.7063571,-0.2353596,9.30651085,226000.0,-53000.0,-423000.0,96937.35962,61.28,10.71999931,-141.1207275,-300.8621826,108.0,-17.19544411,-9.284231186,-53.43286514,0.0
2018-07-30 21:14:41.360,17.65644855503,0.31875,0.0052499999999999,0.1385,-1.7039054375,-0.171616375,8.870114925000001,226750.0,-60500.0,-421000.0,96940.682985,61.2775,11.039999485,-156.29444884999998,-300.15203855,109.0,-17.19544411,-9.284231186,-53.43286514,0.0
2018-07-30 21:14:41.400,17.74429588322,0.2875,0.0014999999999999,0.149,-1.701453775,-0.10787315,8.433719,227500.0,-68000.0,-419000.0,96944.00635,61.275000000000006,11.35999966,-171.4681702,-299.4418945,110.0,-17.19544411,-9.284231186,-53.43286514,0.0
2018-07-30 21:14:41.440,17.83214321141,0.25625,-0.00225,0.1595,-1.6990021125,-0.044129925,7.997323075000001,228250.0,-75500.0,-417000.0,96947.329715,61.2725,11.566666286666669,-178.31179813333333,-298.9826151333333,110.66666666666669,-17.56155523,-7.105568727,-53.83381271333333,0.0
2018-07-30 21:14:41.480,17.9199905396,0.225,-0.006,0.17,-1.69655045,0.0196133,7.56092715,229000.0,-83000.0,-415000.0,96950.65308,61.27,11.773332913333332,-185.15542606666668,-298.52333576666666,111.33333333333331,-17.92766635,-4.926906268,-54.23476028666666,0.0
2018-07-30 21:14:41.520,18.02783656125,0.2205,-0.0175,0.1655,-1.711260425,-0.0392266,8.63965865,229000.0,-83000.0,-415000.0,96950.65308,61.27,11.97999954,-191.999054,-298.0640564,112.0,-18.29377747,-2.748243809,-54.63570786,0.0
2018-07-30 21:14:41.560,18.1356825829,0.216,-0.029,0.161,-1.7259704,-0.0980665,9.71839015,229000.0,-83000.0,-415000.0,96950.65308,61.27,12.63999939,-210.5712891,-296.6439209,114.0,-18.29377747,-2.748243809,-54.63570786,0.0
2018-07-30 21:14:41.600,18.24352860455,0.1985,-0.048,0.146,-1.6965504500000002,-0.08825985,10.684345175,228000.0,-90000.0,-413500.0,96954.782105,61.265,12.63999939,-210.5712891,-296.6439209,114.0,-18.29377747,-2.748243809,-54.63570786,0.0
2018-07-30 21:14:41.640,18.3513746262,0.181,-0.067,0.131,-1.6671305,-0.0784532,11.6503002,227000.0,-97000.0,-412000.0,96958.91113,61.26,12.95999956,-231.37788395,-295.9305115,115.0,-18.29377747,-2.748243809,-54.63570786,0.0
2018-07-30 21:14:41.680,18.45922064785,0.1696666666666666,-0.0763333333333333,0.114,-1.6932815666666667,-0.0065377666666666,11.4149406,226666.66666666663,-100000.0,-411666.6666666667,96962.53662,61.25666666666667,13.27999973,-252.1844788,-295.2171021,116.0,-18.29377747,-2.748243809,-54.63570786,0.0
2018-07-30 21:14:41.720,18.5670666695,0.1583333333333333,-0.0856666666666666,0.097,-1.7194326333333334,0.0653776666666666,11.179581,226333.3333333333,-103000.0,-411333.3333333333,96966.16211,61.25333333333333,13.27999973,-252.1844788,-295.2171021,116.0,-18.29377747,-2.748243809,-54.63570786,0.0
2018-07-30 21:14:41.760,18.67491269115,0.147,-0.095,0.08,-1.7455837,0.1372931,10.9442214,226000.0,-106000.0,-411000.0,96969.7876,61.25,13.58499956,-265.23017885,-294.49432375,117.0,-18.29377747,-2.748243809,-54.63570786,0.0
2018-07-30 21:14:41.800,18.7827587128,0.1895,-0.0825,0.0695,-1.7848103000000002,0.181423025,9.67916355,223500.0,-110500.0,-411000.0,96969.7876,61.25,13.88999939,-278.2758789,-293.7715454,118.0,-18.29377747,-2.748243809,-54.63570786,0.0
2018-07-30 21:14:41.840,18.771952492871428,0.232,-0.07,0.059,-1.8240369,0.22555295,8.4141057,221000.0,-115000.0,-411000.0,96969.7876,61.25,13.88999939,-278.2758789,-293.7715454,118.0,-17.5324707,0.516818523,-56.16266632,0.0
2018-07-30 21:14:41.880,18.761146272942856,0.1813333333333333,-0.0773333333333333,0.033,-1.8109613666666664,0.2124774166666666,8.201628283333333,219000.0,-120000.0,-410666.6666666667,96973.10994666666,61.24666666666667,14.5,-282.7569885,-292.2836914,120.0,-17.5324707,0.516818523,-56.16266632,0.0
2018-07-30 21:14:41.920,18.750340053014284,0.1306666666666666,-0.0846666666666666,0.0069999999999999,-1.7978858333333334,0.1994018833333333,7.989150866666667,217000.0,-125000.0,-410333.3333333333,96976.43229333332,61.24333333333333,14.5,-282.7569885,-292.2836914,120.0,-17.5324707,0.516818523,-56.16266632,0.0
2018-07-30 21:14:41.960,18.73953383308572,0.08,-0.092,-0.019,-1.7848103,0.18632635,7.77667345,215000.0,-130000.0,-410000.0,96979.75464,61.24,14.5,-282.7569885,-292.2836914,120.0,-17.5324707,0.516818523,-56.16266632,0.0
2018-07-30 21:14:42.000,18.728727613157144,0.0795,-0.0995,-0.0355,-1.760293675,0.00980665,8.6494653,215000.0,-130000.0,-410000.0,96983.755495,61.24,15.13000011,-272.1464233,-290.8162842,122.0,-17.5324707,0.516818523,-56.16266632,0.0
2018-07-30 21:14:42.040,18.71792139322857,0.079,-0.107,-0.052,-1.73577705,-0.16671305,9.52225715,215000.0,-130000.0,-410000.0,96987.75635,61.24,15.440000055,-271.4289703,-290.0805054,123.0,-17.5324707,0.516818523,-56.16266632,0.0
2018-07-30 21:14:42.080,18.7071151733,0.0613333333333333,-0.1033333333333333,-0.051,-1.768465883333333,-0.1242175666666666,9.626861416666667,215000.0,-130666.66666666669,-409333.3333333333,96987.75635,61.24,15.75,-270.7115173,-289.3447266,124.0,-17.5324707,0.516818523,-56.16266632,0.0
2018-07-30 21:14:42.120,18.74576028185,0.0436666666666666,-0.0996666666666666,-0.05,-1.8011547166666668,-0.0817220833333333,9.731465683333331,215000.0,-131333.33333333334,-408666.6666666667,96987.75635,61.24,15.75,-270.7115173,-289.3447266,124.0,-16.33761215,2.091510296,-55.10909271,0.0
2018-07-30 21:14:42.160,18.7844053904,0.026,-0.096,-0.049,-1.83384355,-0.0392266,9.83606995,215000.0,-132000.0,-408000.0,96987.75635,61.24,16.37999916,-279.1019287,-288.1440125,126.0,-16.33761215,2.091510296,-55.10909271,0.0
2018-07-30 21:14:42.200,18.82305049895,0.081,-0.0955,-0.034,-1.828940225,0.142196425,9.958653075,213500.0,-133500.0,-408500.0,96992.007445,61.235,16.37999916,-279.1019287,-288.1440125,126.0,-16.33761215,2.091510296,-55.10909271,0.0
2018-07-30 21:14:42.240,18.8616956075,0.136,-0.095,-0.019,-1.8240369,0.32361945,10.0812362,212000.0,-135000.0,-409000.0,96996.25854,61.23,16.694999695,-286.5002594,-287.3958588,127.0,-16.33761215,2.091510296,-55.10909271,0.0
2018-07-30 21:14:42.280,18.90034071605,0.103,-0.1125,-0.0215,-1.81423025,0.2745862,10.066526225,210500.0,-134500.0,-410000.0,96999.70703,61.23,17.01000023,-293.8985901,-286.6477051,128.0,-16.33761215,2.091510296,-55.10909271,0.0
2018-07-30 21:14:42.320,18.9389858246,0.07,-0.13,-0.024,-1.8044236,0.22555295,10.05181625,209000.0,-134000.0,-411000.0,97003.15552,61.23,17.01000023,-293.8985901,-286.6477051,128.0,-16.33761215,2.091510296,-55.10909271,0.0
2018-07-30 21:14:42.360,19.006683985408333,0.085,-0.13,-0.031,-1.73577705,0.0980665,10.792218325,206500.0,-136000.0,-411000.0,97006.73828,61.225,17.32499981,-295.1183319,-285.8910065,129.0,-15.74322271,2.434230447,-54.578315735,0.0
2018-07-30 21:14:42.400,19.074382146216667,0.1,-0.13,-0.038,-1.6671305,-0.02941995,11.5326204,204000.0,-138000.0,-411000.0,97010.32104,61.22,17.63999939,-296.3380737,-285.1343079,130.0,-15.14883327,2.776950598,-54.04753876,0.0
2018-07-30 21:14:42.440,19.142080307025,0.114,-0.127,-0.0316666666666666,-1.6638616166666669,-0.196133,11.5914603,203000.0,-138333.33333333334,-411333.3333333333,97011.66585,61.21666666666667,17.944999695,-302.9485626,-284.38607790000003,131.0,-15.14883327,2.776950598,-54.04753876,0.0
2018-07-30 21:14:42.480,19.20977846783333,0.128,-0.124,-0.0253333333333333,-1.6605927333333337,-0.36284605,11.6503002,202000.0,-138666.66666666666,-411666.6666666667,97013.01066,61.21333333333333,18.25,-309.5590515,-283.6378479,132.0,-15.14883327,2.776950598,-54.04753876,0.0
2018-07-30 21:14:42.520,19.27747662864167,0.142,-0.121,-0.019,-1.65732385,-0.5295591,11.7091401,201000.0,-139000.0,-412000.0,97014.35547,61.21,18.25,-309.5590515,-283.6378479,132.0,-15.14883327,2.776950598,-54.04753876,0.0
2018-07-30 21:14:42.560,19.34517478945,0.1094999999999999,-0.1195,0.0005,-1.65732385,-0.534462425,12.0425662,199000.0,-140500.0,-412500.0,97018.408205,61.21,18.25,-309.5590515,-283.6378479,132.0,-15.14883327,2.776950598,-54.04753876,0.0
2018-07-30 21:14:42.600,19.412872950258333,0.077,-0.118,0.02,-1.65732385,-0.53936575,12.3759923,197000.0,-142000.0,-413000.0,97022.46094,61.21,18.85000038,-329.09375,-282.1326599,134.0,-15.14883327,2.776950598,-54.04753876,0.0
2018-07-30 21:14:42.640,19.480571111066663,0.1036666666666666,-0.1186666666666666,0.0356666666666666,-1.6671305,-0.3955348833333333,12.604814133333331,196333.3333333333,-143333.33333333334,-412666.6666666667,97024.63989333334,61.21,19.125,-340.88926695,-281.7464752,135.0,-15.14883327,2.776950598,-54.04753876,0.0
2018-07-30 21:14:42.680,19.548269271875,0.1303333333333333,-0.1193333333333333,0.0513333333333333,-1.67693715,-0.2517040166666666,12.833635966666668,195666.66666666663,-144666.66666666666,-412333.3333333333,97026.81884666666,61.21,19.39999962,-352.6847839,-281.3602905,136.0,-15.14883327,2.776950598,-54.04753876,0.0
2018-07-30 21:14:42.720,19.61596743268333,0.157,-0.12,0.067,-1.6867438,-0.10787315,13.0624578,195000.0,-146000.0,-412000.0,97028.9978,61.21,19.39999962,-352.6847839,-281.3602905,136.0,-15.14883327,2.776950598,-54.04753876,0.0
2018-07-30 21:14:42.760,19.683665593491668,0.123,-0.1139999999999999,0.068,-1.6932815666666663,-0.0621087833333333,12.863055916666667,192666.66666666663,-147333.33333333334,-412333.3333333333,97031.70776333332,61.20666666666667,19.93999863,-375.1363831,-279.7702026,138.0,-15.14883327,2.776950598,-54.04753876,0.0
2018-07-30 21:14:42.800,19.7513637543,0.089,-0.108,0.069,-1.6998193333333331,-0.0163444166666666,12.663654033333334,190333.3333333333,-148666.66666666666,-412666.6666666667,97034.41772666668,61.20333333333333,19.93999863,-375.1363831,-279.7702026,138.0,-13.87441587,4.013930917,-53.70215607,0.0
2018-07-30 21:14:42.840,19.76921908063333,0.055,-0.102,0.07,-1.7063571,0.02941995,12.46425215,188000.0,-150000.0,-413000.0,97037.12769,61.2,19.93999863,-375.1363831,-279.7702026,138.0,-12.59999847,5.250911236,-53.35677338,0.0
2018-07-30 21:14:42.880,19.787074406966667,0.036,-0.104,0.0655,-1.69655045,0.250069575,12.26811915,186500.0,-153000.0,-413000.0,97037.609865,61.195,20.43000031,-385.5785522,-278.3963623,140.0,-12.59999847,5.250911236,-53.35677338,0.0
2018-07-30 21:14:42.920,19.8049297333,0.017,-0.106,0.061,-1.6867438,0.4707192,12.07198615,185000.0,-156000.0,-413000.0,97038.09204,61.19,20.43000031,-385.5785522,-278.3963623,140.0,-12.59999847,5.250911236,-53.35677338,0.0
2018-07-30 21:14:42.960,19.822785059633333,0.0173333333333333,-0.1063333333333333,0.0496666666666666,-1.6834749166666667,0.4936013833333333,11.951037466666667,183000.0,-157333.33333333334,-413333.3333333333,97040.72672333334,61.19,20.65999985,-387.5012512,-277.62820435000003,141.0,-12.59999847,5.250911236,-53.35677338,0.0
2018-07-30 21:14:43.000,19.84064038596667,0.0176666666666666,-0.1066666666666666,0.0383333333333333,-1.6802060333333333,0.5164835666666666,11.830088783333334,181000.0,-158666.66666666666,-413666.6666666667,97043.36140666666,61.19,20.88999939,-389.4239502,-276.8600464,142.0,-12.59999847,5.250911236,-53.35677338,0.0
2018-07-30 21:14:43.040,19.8584957123,0.018,-0.107,0.027,-1.67693715,0.53936575,11.7091401,179000.0,-160000.0,-414000.0,97045.99609,61.19,21.109999655,-390.3150635,-276.0692749,143.0,-12.59999847,5.250911236,-53.35677338,0.0
2018-07-30 21:14:43.080,19.87635103863333,0.012,-0.0945,0.0019999999999999,-1.6965504500000002,0.3334261,11.26784085,177500.0,-160000.0,-414000.0,97047.12524,61.19,21.32999992,-391.2061768,-275.2785034,144.0,-12.59999847,5.250911236,-53.35677338,0.0
2018-07-30 21:14:43.120,19.894206364966667,0.006,-0.082,-0.023,-1.71616375,0.12748645,10.8265416,176000.0,-160000.0,-414000.0,97048.25439,61.19,21.32999992,-391.2061768,-275.2785034,144.0,-12.59999847,5.250911236,-53.35677338,0.0
2018-07-30 21:14:43.160,19.9120616913,-0.0079999999999999,-0.0836666666666666,-0.0349999999999999,-1.71616375,0.04903325,10.9638347,175000.0,-160666.66666666666,-415000.0,97050.60628,61.18666666666667,21.75,-382.4495239,-273.5177002,146.0,-11.00214958,5.570217609,-53.19544601,0.0
2018-07-30 21:14:43.200,19.873110241377777,-0.022,-0.0853333333333333,-0.047,-1.71616375,-0.02941995,11.1011278,174000.0,-161333.33333333334,-416000.0,97052.95817,61.18333333333333,21.75,-382.4495239,-273.5177002,146.0,-11.00214958,5.570217609,-53.19544601,0.0
2018-07-30 21:14:43.240,19.834158791455557,-0.036,-0.087,-0.059,-1.71616375,-0.10787315,11.2384209,173000.0,-162000.0,-417000.0,97055.31006,61.18,21.75,-382.4495239,-273.5177002,146.0,-11.00214958,5.570217609,-53.19544601,0.0
2018-07-30 21:14:43.280,19.79520734153333,0.0265,-0.086,-0.064,-1.71616375,0.20593965,11.017771275,172000.0,-161000.0,-417000.0,97056.15845,61.175,22.13999939,-369.6149902,-271.8887939,149.0,-11.00214958,5.570217609,-53.19544601,0.0
2018-07-30 21:14:43.320,19.75625589161111,0.089,-0.085,-0.069,-1.71616375,0.51975245,10.79712165,171000.0,-160000.0,-417000.0,97057.00684,61.17,22.13999939,-369.6149902,-271.8887939,149.0,-11.00214958,5.570217609,-53.19544601,0.0
2018-07-30 21:14:43.360,19.71730444168889,0.0424999999999999,-0.082,-0.081,-1.71616375,0.6129156250000001,10.846154899999998,169000.0,-159000.0,-417500.0,97060.144045,61.17,22.52999878,-365.7058716,-269.1617737,151.0,-11.00214958,5.570217609,-53.19544601,0.0
2018-07-30 21:14:43.400,19.678352991766666,-0.004,-0.079,-0.093,-1.71616375,0.7060788,10.89518815,167000.0,-158000.0,-418000.0,97063.28125,61.17,22.52999878,-365.7058716,-269.1617737,151.0,-11.00214958,5.570217609,-53.19544601,0.0
2018-07-30 21:14:43.440,19.63940154184445,-0.0113333333333333,-0.076,-0.105,-1.7063571,0.3988037666666666,11.13054775,167000.0,-157666.66666666666,-418333.3333333333,97064.14998333334,61.16666666666666,22.709999085,-360.9278717,-268.31364440000004,152.0,-11.00214958,5.570217609,-53.19544601,0.0
2018-07-30 21:14:43.480,19.600450091922223,-0.0186666666666666,-0.073,-0.117,-1.69655045,0.0915287333333333,11.36590735,167000.0,-157333.33333333334,-418666.6666666667,97065.01871666666,61.16333333333333,22.88999939,-356.1498718,-267.4655151,153.0,-11.00214958,5.570217609,-53.19544601,0.0
2018-07-30 21:14:43.520,19.561498642,-0.026,-0.07,-0.129,-1.6867438,-0.2157463,11.60126695,167000.0,-157000.0,-419000.0,97065.88745,61.16,22.88999939,-356.1498718,-267.4655151,153.0,-11.00214958,5.570217609,-53.19544601,0.0
2018-07-30 21:14:43.560,19.5129184723125,0.0005,-0.0525,-0.123,-1.69655045,-0.16671305,11.047191225,166500.0,-156000.0,-419500.0,97068.185425,61.16,23.23999977,-347.0930176,-264.8056946,155.0,-9.885397911,5.097507,-50.57086182,0.0
2018-07-30 21:14:43.600,19.464338302625,0.027,-0.035,-0.117,-1.7063571,-0.1176798,10.4931155,166000.0,-155000.0,-420000.0,97070.4834,61.16,23.23999977,-347.0930176,-264.8056946,155.0,-9.885397911,5.097507,-50.57086182,0.0
2018-07-30 21:14:43.640,19.4157581329375,0.1123333333333333,-0.039,-0.1056666666666666,-1.6834749166666667,-0.0163444166666666,10.359091283333331,166000.0,-153666.66666666666,-420666.6666666667,97069.91577333333,61.156666666666666,23.23999977,-347.0930176,-264.8056946,155.0,-9.885397911,5.097507,-50.57086182,0.0
2018-07-30 21:14:43.680,19.36717796325,0.1976666666666666,-0.043,-0.0943333333333333,-1.6605927333333332,0.0849909666666666,10.225067066666666,166000.0,-152333.33333333334,-421333.3333333333,97069.34814666669,61.15333333333333,23.56999969,-330.3260803,-263.091095,157.0,-9.885397911,5.097507,-50.57086182,0.0
2018-07-30 21:14:43.720,19.3185977935625,0.283,-0.047,-0.083,-1.63771055,0.18632635,10.09104285,166000.0,-151000.0,-422000.0,97068.78052,61.15,23.56999969,-330.3260803,-263.091095,157.0,-9.885397911,5.097507,-50.57086182,0.0
2018-07-30 21:14:43.760,19.270017623875,0.3903333333333333,-0.046,-0.075,-1.6148283666666667,0.2092085333333333,10.5519554,166333.33333333334,-152333.33333333334,-421666.6666666667,97071.07747666667,61.15,23.734999655,-323.8059082,-262.2242737,158.0,-9.885397911,5.097507,-50.57086182,0.0
2018-07-30 21:14:43.800,19.2214374541875,0.4976666666666666,-0.045,-0.067,-1.5919461833333333,0.2320907166666666,11.01286795,166666.66666666666,-153666.66666666666,-421333.3333333333,97073.37443333332,61.15,23.89999962,-317.2857361,-261.3574524,159.0,-9.885397911,5.097507,-50.57086182,0.0
2018-07-30 21:14:43.840,19.1728572845,0.605,-0.044,-0.059,-1.569064,0.2549729,11.4737805,167000.0,-155000.0,-421000.0,97075.67139,61.15,24.003332773333334,-319.6240132666667,-258.3877411,159.66666666666666,-9.820359865666669,6.431158383666667,-49.793655396666665,0.0
2018-07-30 21:14:43.880,19.1750540732875,0.5245,-0.0345,-0.036,-1.6082906,0.30400615,11.2188076,169000.0,-162000.0,-417000.0,97076.635745,61.15,24.106665926666665,-321.9622904333333,-255.4180298,160.33333333333334,-9.755321820333332,7.764809767333334,-49.01644897333333,0.0
2018-07-30 21:14:43.920,19.177250862075,0.444,-0.025,-0.013,-1.6475172,0.3530394,10.9638347,171000.0,-169000.0,-413000.0,97077.6001,61.15,24.20999908,-324.3005676,-252.4483185,161.0,-9.690283775,9.098461151,-48.23924255,0.0
2018-07-30 21:14:43.960,19.1794476508625,0.4126666666666667,-0.0226666666666666,-0.0236666666666666,-1.7063571,0.3693838166666666,10.0812362,171333.33333333334,-175666.66666666666,-409000.0,97079.68139666668,61.14666666666667,24.35499954,-326.65499875,-251.51654055,162.0,-9.690283775,9.098461151,-48.23924255,0.0
2018-07-30 21:14:44.000,19.18164443965,0.3813333333333333,-0.0203333333333333,-0.0343333333333333,-1.765197,0.3857282333333333,9.1986377,171666.66666666666,-182333.3333333333,-405000.0,97081.76269333332,61.14333333333333,24.5,-329.0094299,-250.5847626,163.0,-9.690283775,9.098461151,-48.23924255,0.0
2018-07-30 21:14:44.040,19.1838412284375,0.35,-0.018,-0.045,-1.8240369,0.40207265,8.3160392,172000.0,-189000.0,-401000.0,97083.84399,61.14,24.78999901,-319.0431519,-233.4844513,165.0,-9.690283775,9.098461151,-48.23924255,0.0
2018-07-30 21:14:44.080,19.186038017225,0.3335,-0.0409999999999999,-0.075,-1.79461695,0.3383294249999999,9.5516771,173500.0,-196000.0,-397000.0,97084.46655,61.135000000000005,24.78999901,-319.0431519,-233.4844513,165.0,-9.690283775,9.098461151,-48.23924255,0.0
2018-07-30 21:14:44.120,19.1882348060125,0.317,-0.064,-0.105,-1.765197,0.2745862,10.787315,175000.0,-203000.0,-393000.0,97085.08911,61.13,24.78999901,-319.0431519,-233.4844513,165.0,-9.690283775,9.098461151,-48.23924255,0.0
2018-07-30 21:14:44.160,19.1904315948,0.361,-0.066,-0.1343333333333333,-1.75539035,0.2124774166666666,10.918070333333333,175666.66666666666,-207000.0,-391000.0,97086.89371666667,61.13,25.07999992,-317.0772705,-52.73173523,167.0,-9.658894539,15.76782131,-46.89325333,0.0
2018-07-30 21:14:44.200,19.1958589553375,0.405,-0.068,-0.1636666666666666,-1.7455837,0.1503686333333333,11.048825666666668,176333.33333333334,-211000.0,-389000.0,97088.69832333332,61.13,25.07999992,-317.0772705,-52.73173523,167.0,-9.658894539,15.76782131,-46.89325333,0.0
2018-07-30 21:14:44.240,19.201286315875,0.449,-0.07,-0.193,-1.73577705,0.08825985,11.179581,177000.0,-215000.0,-387000.0,97090.50293,61.13,25.07999992,-317.0772705,-52.73173523,167.0,-9.658894539,15.76782131,-46.89325333,0.0
2018-07-30 21:14:44.280,19.206713676412495,0.419,-0.076,-0.1925,-1.7259704,0.3677493749999999,10.9638347,178500.0,-220500.0,-382000.0,97090.26184,61.125,25.35000038,-329.9014893,-51.12874603,169.0,-9.658894539,15.76782131,-46.89325333,0.0
2018-07-30 21:14:44.320,19.21214103695,0.389,-0.082,-0.192,-1.71616375,0.6472389,10.7480884,180000.0,-226000.0,-377000.0,97090.02075,61.12,25.35000038,-329.9014893,-51.12874603,169.0,-9.658894539,15.76782131,-46.89325333,0.0
2018-07-30 21:14:44.360,19.2175683974875,0.487,-0.0835,-0.1985,-1.691647125,0.5687857,10.2381426,182000.0,-231500.0,-372500.0,97093.28613,61.12,25.62999916,-333.7621765,-49.48122787,171.0,-9.658894539,15.76782131,-46.89325333,0.0
2018-07-30 21:14:44.400,19.222995758025,0.585,-0.085,-0.205,-1.6671305,0.4903325,9.7281968,184000.0,-237000.0,-368000.0,97096.55151,61.12,25.62999916,-333.7621765,-49.48122787,171.0,-9.658894539,15.76782131,-46.89325333,0.0
2018-07-30 21:14:44.440,19.2284231185625,0.5616666666666666,-0.0986666666666666,-0.2256666666666666,-1.6279039,0.4151481833333333,10.055085133333332,186333.3333333333,-241000.0,-364000.0,97096.59423666669,61.11666666666667,25.88999939,-323.3850403,-47.80031204,173.0,-9.658894539,15.76782131,-46.89325333,0.0
2018-07-30 21:14:44.480,19.2338504791,0.5383333333333333,-0.1123333333333333,-0.2463333333333333,-1.5886773,0.3399638666666666,10.381973466666668,188666.66666666663,-245000.0,-360000.0,97096.63696333334,61.11333333333333,25.88999939,-323.3850403,-47.80031204,173.0,-9.729339123,20.418281075,-44.45790291,0.0
2018-07-30 21:14:44.520,19.16482868192,0.515,-0.126,-0.267,-1.5494507,0.26477955,10.7088618,191000.0,-249000.0,-356000.0,97096.67969,61.11,25.88999939,-323.3850403,-47.80031204,173.0,-9.799783707,25.06874084,-42.02255249,0.0
2018-07-30 21:14:44.560,19.09580688474,0.5523333333333333,-0.127,-0.291,-1.5134929833333333,0.2092085333333333,10.584644233333332,192666.66666666663,-254000.0,-352000.0,97097.95939333334,61.11,26.14999962,-318.4320374,-46.09713364,175.0,-9.799783707,25.06874084,-42.02255249,0.0
2018-07-30 21:14:44.600,19.02678508756,0.5896666666666667,-0.128,-0.315,-1.4775352666666668,0.1536375166666666,10.460426666666669,194333.3333333333,-259000.0,-348000.0,97099.23909666669,61.11,26.14999962,-318.4320374,-46.09713364,175.0,-9.799783707,25.06874084,-42.02255249,0.0
2018-07-30 21:14:44.640,18.95776329038,0.627,-0.129,-0.339,-1.44157755,0.0980665,10.3362091,196000.0,-264000.0,-344000.0,97100.5188,61.11,26.14999962,-318.4320374,-46.09713364,175.0,-9.799783707,25.06874084,-42.02255249,0.0
2018-07-30 21:14:44.680,18.8887414932,0.5095000000000001,-0.134,-0.331,-1.4709975000000002,0.201036325,9.919426475,199000.0,-269000.0,-337500.0,97101.239015,61.105,26.40999985,-304.4202881,-44.36056137,177.0,-9.799783707,25.06874084,-42.02255249,0.0
2018-07-30 21:14:44.720,18.81971969602,0.392,-0.139,-0.323,-1.50041745,0.30400615,9.50264385,202000.0,-274000.0,-331000.0,97101.95923,61.1,26.40999985,-304.4202881,-44.36056137,177.0,-9.799783707,25.06874084,-42.02255249,0.0
2018-07-30 21:14:44.760,18.75069789884,0.3405,-0.1455,-0.3275,-1.534740725,0.4756225249999999,9.07115125,206000.0,-279500.0,-325000.0,97101.59302,61.1,26.68000031,-281.253418,-42.59059143,179.0,-9.799783707,25.06874084,-42.02255249,0.0
2018-07-30 21:14:44.800,18.68167610166,0.289,-0.152,-0.332,-1.569064,0.6472389,8.63965865,210000.0,-285000.0,-319000.0,97101.22681,61.1,26.68000031,-281.253418,-42.59059143,179.0,-9.799783707,25.06874084,-42.02255249,0.0
2018-07-30 21:14:44.840,18.61265430448,0.2613333333333333,-0.1653333333333333,-0.3433333333333333,-1.5625262333333334,0.6112811833333333,8.97308475,212666.66666666663,-286000.0,-316000.0,97102.92155333332,61.09666666666667,26.68000031,-281.253418,-42.59059143,179.0,-9.799783707,25.06874084,-42.02255249,0.0
2018-07-30 21:14:44.880,18.5436325073,0.2336666666666666,-0.1786666666666666,-0.3546666666666667,-1.5559884666666666,0.5753234666666667,9.30651085,215333.3333333333,-287000.0,-313000.0,97104.61629666666,61.09333333333333,26.95999908,-254.3632507,-40.7983551,181.0,-9.799783707,25.06874084,-42.02255249,0.0
2018-07-30 21:14:44.920,18.48738940555,0.206,-0.192,-0.366,-1.5494507,0.53936575,9.63993695,218000.0,-288000.0,-310000.0,97106.31104,61.09,27.05999946333333,-249.1410573,-40.197233833333335,181.66666666666663,-10.284651758,28.03066126333333,-39.05420049,0.0
2018-07-30 21:14:44.960,18.4311463038,0.2333333333333333,-0.199,-0.369,-1.5854084166666669,0.4445681333333333,9.996245233333331,220000.0,-288000.0,-309000.0,97108.51847666666,61.09,27.159999846666665,-243.9188639,-39.59611256666667,182.3333333333333,-10.769519809,30.992581686666668,-36.08584849,0.0
2018-07-30 21:14:45.000,18.37490320205,0.2606666666666666,-0.206,-0.372,-1.6213661333333331,0.3497705166666667,10.352553516666664,222000.0,-288000.0,-308000.0,97110.72591333334,61.09,27.26000023,-238.6966705,-38.9949913,183.0,-11.25438786,33.95450211,-33.11749649,0.0
2018-07-30 21:14:45.040,18.3186601003,0.288,-0.213,-0.375,-1.65732385,0.2549729,10.7088618,224000.0,-288000.0,-307000.0,97112.93335,61.09,27.40999985,-238.5314941,-38.076610565,184.0,-11.25438786,33.95450211,-33.11749649,0.0
2018-07-30 21:14:45.080,18.26241699855,0.2855,-0.2215,-0.373,-1.6671305,0.4118792999999999,10.46369555,228000.0,-286000.0,-305000.0,97114.79492,61.09,27.55999947,-238.3663177,-37.15822983,185.0,-11.25438786,33.95450211,-33.11749649,0.0
2018-07-30 21:14:45.120,18.2061738968,0.283,-0.23,-0.371,-1.67693715,0.5687857,10.2185293,232000.0,-284000.0,-303000.0,97116.65649,61.09,27.55999947,-238.3663177,-37.15822983,185.0,-11.25438786,33.95450211,-33.11749649,0.0
2018-07-30 21:14:45.160,18.14993079505,0.2754999999999999,-0.2505,-0.354,-1.63771055,0.40207265,10.56176205,235000.0,-283000.0,-303000.0,97116.452025,61.085,27.87999916,-223.8092346,-35.28807449,187.0,-11.25438786,33.95450211,-33.11749649,0.0
2018-07-30 21:14:45.200,18.0936876933,0.268,-0.271,-0.337,-1.59848395,0.2353596,10.9049948,238000.0,-282000.0,-303000.0,97116.24756,61.08,27.87999916,-223.8092346,-35.28807449,187.0,-11.25438786,33.95450211,-33.11749649,0.0
2018-07-30 21:14:45.240,18.03744459155,0.2706666666666666,-0.279,-0.326,-1.611559483333333,0.1601752833333333,10.9638347,239333.3333333333,-281666.6666666667,-302000.0,97118.42244666666,61.08,28.03999901,-214.07632445,-34.352996825,188.0,-11.25438786,33.95450211,-33.11749649,0.0
2018-07-30 21:14:45.280,17.9812014898,0.2733333333333334,-0.287,-0.315,-1.6246350166666668,0.0849909666666666,11.0226746,240666.66666666663,-281333.3333333333,-301000.0,97120.59733333334,61.08,28.19999886,-204.3434143,-33.41791916,189.0,-11.25438786,33.95450211,-33.11749649,0.0
2018-07-30 21:14:45.320,17.924958388049998,0.276,-0.295,-0.304,-1.63771055,0.00980665,11.0815145,242000.0,-281000.0,-300000.0,97122.77222,61.08,28.369998935,-195.60746765,-32.44944477,190.0,-11.25438786,33.95450211,-33.11749649,0.0
2018-07-30 21:14:45.360,17.8687152863,0.285,-0.3055,-0.2744999999999999,-1.573967325,0.142196425,11.723850075,243000.0,-280500.0,-300500.0,97124.139405,61.075,28.53999901,-186.871521,-31.48097038,191.0,-11.25438786,33.95450211,-33.11749649,0.0
2018-07-30 21:14:45.400,17.833329306744442,0.294,-0.316,-0.245,-1.5102241,0.2745862,12.36618565,244000.0,-280000.0,-301000.0,97125.50659,61.07,28.53999901,-186.871521,-31.48097038,191.0,-11.90526581,38.73652649,-21.21351433,0.0
