time,field.airspeed,field.angular_velocity.x,field.angular_velocity.y,field.angular_velocity.z,field.linear_acceleration.x,field.linear_acceleration.y,field.linear_acceleration.z,field.magnetic_field.x,field.magnetic_field.y,field.magnetic_field.z,field.fluid_pressure,field.temperature,field.alt_error,field.aspd_error,field.xtrack_error,field.wp_dist,field.measured.pitch,field.measured.roll,field.measured.yaw,fault_state
2018-07-18 20:30:30.240,26.0537910461,0.85,-0.181,-0.121,-0.6276256,0.392266,11.9052731,-91000.0,-122000.0,-430000.0,97254.84009,62.81,-0.519999981,-1111.7266845,-39.62464333,4.5,3.182499647,-5.157012939,-83.29364777,0.0
2018-07-18 20:30:30.280,26.00824470516,0.8089999999999999,-0.1676666666666666,-0.147,-0.71588545,0.3465016333333333,11.535889283333333,-88000.0,-134666.66666666666,-428666.6666666667,97250.72021666668,62.806666666666665,-0.649999976,-1105.37915,-38.44285584,6.0,7.264645576,4.256863594,-82.12002563,0.0
2018-07-18 20:30:30.320,25.96269836422,0.768,-0.1543333333333333,-0.173,-0.8041453,0.3007372666666666,11.166505466666669,-85000.0,-147333.33333333334,-427333.3333333333,97246.60034333332,62.803333333333335,-0.7849999665,-1098.310669,-37.303606035,7.0,7.264645576,4.256863594,-82.12002563,0.0
2018-07-18 20:30:30.360,25.91715202328,0.727,-0.141,-0.199,-0.89240515,0.2549729,10.79712165,-82000.0,-160000.0,-426000.0,97242.48047,62.8,-0.919999957,-1091.242188,-36.16435623,8.0,7.264645576,4.256863594,-82.12002563,0.0
2018-07-18 20:30:30.400,25.87160568234,0.777,-0.1406666666666666,-0.1883333333333333,-1.046042666666667,0.1013353833333333,11.2188076,-80333.33333333333,-169666.66666666666,-422666.6666666667,97242.94637,62.79666666666667,-0.9924999475,-1088.7388004999998,-67.4573774225,8.5,7.264645576,4.256863594,-82.12002563,0.0
2018-07-18 20:30:30.440,25.8260593414,0.827,-0.1403333333333333,-0.1776666666666666,-1.1996801833333333,-0.0523021333333333,11.64049355,-78666.66666666667,-179333.33333333334,-419333.3333333333,97243.41227,62.79333333333333,-1.064999938,-1086.235413,-98.750398615,9.0,7.264645576,4.256863594,-82.12002563,0.0
2018-07-18 20:30:30.480,25.78051300046,0.877,-0.14,-0.167,-1.3533177,-0.20593965,12.0621795,-77000.0,-189000.0,-416000.0,97243.87817,62.79,-1.21249994625,-1057.822983075,-129.4812860325,10.25,7.264645576,4.256863594,-82.12002563,0.0
2018-07-18 20:30:30.520,25.73496665952,0.777,-0.142,-0.126,-1.36312435,-0.2941995,13.1212977,-64000.0,-226000.0,-399000.0,97237.6709,62.78,-1.3599999545,-1029.41055315,-160.21217345000002,11.5,7.264645576,4.256863594,-82.12002563,0.0
2018-07-18 20:30:30.560,25.68942031858,0.6677500000000001,-0.14475,-0.094,-1.4048026125000002,-0.38245935,12.748645,-62000.0,-234500.0,-395000.0,97235.5850225,62.7775,-1.464999953666667,-1009.1779074333332,-159.47534180000002,12.333333333333334,7.604760169666667,6.813402016666666,-81.49783452,0.0
2018-07-18 20:30:30.600,25.64387397764,0.5585,-0.1475,-0.062,-1.446480875,-0.4707192,12.3759923,-60000.0,-243000.0,-391000.0,97233.499145,62.775000000000006,-1.5699999528333335,-988.9452617166668,-158.73851015000002,13.166666666666666,7.944874763333334,9.369940439333334,-80.87564341,0.0
2018-07-18 20:30:30.640,25.5983276367,0.44925,-0.15025,-0.03,-1.4881591374999998,-0.55897905,12.0033396,-58000.0,-251500.0,-387000.0,97231.4132675,62.7725,-1.674999952,-968.712616,-158.00167850000005,14.0,8.284989357,11.926478862,-80.25345229999999,0.0
2018-07-18 20:30:30.680,25.54451026915,0.34,-0.153,0.002,-1.5298374,-0.6472389,11.6306869,-56000.0,-260000.0,-383000.0,97229.32739,62.77,-1.839999914,-959.8327637,-156.9154511,15.0,9.305333138,19.59609413,-78.38687897,0.0
2018-07-18 20:30:30.720,25.4906929016,0.645,-0.16,0.034,-1.672033825,-0.622722275,13.008521225,-55500.0,-269500.0,-375500.0,97225.622555,62.765,-2.180000067,-944.3372803,-154.7514496,17.0,9.305333138,19.59609413,-78.38687897,0.0
2018-07-18 20:30:30.760,25.43687553405,0.95,-0.167,0.066,-1.81423025,-0.59820565,14.38635555,-55000.0,-279000.0,-368000.0,97221.91772,62.76,-2.180000067,-944.3372803,-154.7514496,17.0,9.305333138,19.59609413,-78.38687897,0.0
2018-07-18 20:30:30.800,25.3830581665,0.8536666666666667,-0.1583333333333333,0.091,-1.7913480666666668,-0.3889971166666667,13.9450563,-55000.0,-287000.0,-361000.0,97219.99715,62.75666666666667,-2.180000067,-944.3372803,-154.7514496,17.0,9.305333138,19.59609413,-78.38687897,0.0
2018-07-18 20:30:30.840,25.32924079895,0.7573333333333333,-0.1496666666666666,0.1159999999999999,-1.768465883333333,-0.1797885833333333,13.50375705,-55000.0,-295000.0,-354000.0,97218.07658,62.75333333333333,-2.539999962,-936.4107056,-152.6550751,19.0,9.305333138,19.59609413,-78.38687897,0.0
2018-07-18 20:30:30.880,25.2754234314,0.661,-0.141,0.141,-1.7455837,0.02941995,13.0624578,-55000.0,-303000.0,-347000.0,97216.15601,62.75,-2.539999962,-936.4107056,-152.6550751,19.0,9.305333138,19.59609413,-78.38687897,0.0
2018-07-18 20:30:30.920,25.22160606385,0.5425,-0.1555,0.146,-1.73577705,0.3726527,11.998436275,-56000.0,-316500.0,-332500.0,97211.987305,62.745000000000005,-2.539999962,-936.4107056,-152.6550751,19.0,9.305333138,19.59609413,-78.38687897,0.0
2018-07-18 20:30:30.960,25.1677886963,0.424,-0.17,0.151,-1.7259704,0.71588545,10.93441475,-57000.0,-330000.0,-318000.0,97207.8186,62.74,-2.929999828,-906.0153809,-150.6009674,21.0,9.305333138,19.59609413,-78.38687897,0.0
2018-07-18 20:30:31.000,25.11397132875,0.3225,-0.181,0.0849999999999999,-1.770100325,0.583495675,11.2972608,-61500.0,-338000.0,-308000.0,97207.04956,62.735,-2.929999828,-906.0153809,-150.6009674,21.0,9.305333138,19.59609413,-78.38687897,0.0
2018-07-18 20:30:31.040,25.0601539612,0.221,-0.192,0.019,-1.81423025,0.4511059,11.66010685,-66000.0,-346000.0,-298000.0,97206.28052,62.73,-3.319999933,-867.3614502,-148.6144714,23.0,13.27877331,33.34357071,-78.35408783,0.0
2018-07-18 20:30:31.080,24.94245815279,0.161,-0.18525,-0.0174999999999999,-1.79461695,0.5761406875,11.5399753875,-67000.0,-347750.0,-295250.0,97204.182435,62.7275,-3.319999933,-867.3614502,-148.6144714,23.0,13.27877331,33.34357071,-78.35408783,0.0
2018-07-18 20:30:31.120,24.82476234438,0.101,-0.1785,-0.0539999999999999,-1.77500365,0.7011754750000001,11.419843925,-68000.0,-349500.0,-292500.0,97202.08435,62.725,-3.4499998886666665,-859.0880737333333,-147.97767126666668,23.666666666666668,13.27877331,33.34357071,-78.35408783,0.0
2018-07-18 20:30:31.160,24.70706653597,0.041,-0.17175,-0.0904999999999999,-1.75539035,0.8262102625000001,11.2997124625,-69000.0,-351250.0,-289750.0,97199.986265,62.7225,-3.5799998443333334,-850.8146972666667,-147.34087113333334,24.33333333333333,13.27877331,33.34357071,-78.35408783,0.0
2018-07-18 20:30:31.200,24.58937072756,-0.019,-0.165,-0.127,-1.73577705,0.95124505,11.179581,-70000.0,-353000.0,-287000.0,97197.88818,62.72,-3.7099998,-842.5413208,-146.704071,25.0,13.27877331,33.34357071,-78.35408783,0.0
2018-07-18 20:30:31.240,24.47167491915,-0.044,-0.181,-0.207,-1.6867438,0.32361945,10.69905515,-73000.0,-355000.0,-281000.0,97194.83643,62.71,-3.9049998525,-829.43429565,-145.76576995,26.0,13.27877331,33.34357071,-78.35408783,0.0
2018-07-18 20:30:31.280,24.35397911074,-0.0419999999999999,-0.173,-0.239,-1.7030882166666663,0.3138128,10.506191033333334,-72000.0,-355000.0,-281000.0,97190.70435,62.70666666666667,-4.002499878749999,-822.880783075,-145.29661942500002,26.5,13.27877331,33.34357071,-78.35408783,0.0
2018-07-18 20:30:31.320,24.23628330233,-0.04,-0.165,-0.271,-1.7194326333333334,0.30400615,10.313326916666666,-71000.0,-355000.0,-281000.0,97186.57227,62.70333333333333,-4.099999905,-816.3272705,-144.8274689,27.0,13.27877331,33.34357071,-78.35408783,0.0
2018-07-18 20:30:31.360,24.11858749392,-0.038,-0.157,-0.303,-1.73577705,0.2941995,10.1204628,-70000.0,-355000.0,-281000.0,97182.44019,62.7,-4.480000019,-788.3195801,-143.0015564,29.0,13.27877331,33.34357071,-78.35408783,0.0
2018-07-18 20:30:31.400,24.00089168551,-0.012,-0.1686666666666666,-0.3153333333333333,-1.6703993833333333,0.3497705166666666,10.195647116666668,-68333.33333333333,-355000.0,-281666.6666666667,97183.31909333332,62.696666666666665,-4.480000019,-788.3195801,-143.0015564,29.0,13.27877331,33.34357071,-78.35408783,0.0
2018-07-18 20:30:31.440,23.8831958771,0.0139999999999999,-0.1803333333333333,-0.3276666666666666,-1.6050217166666667,0.4053415333333333,10.270831433333331,-66666.66666666667,-355000.0,-282333.3333333333,97184.19799666668,62.693333333333335,-4.664999962,-769.328125,-142.11820985,30.0,13.665225985,34.397605895,-75.512340545,0.0
2018-07-18 20:30:31.480,23.670242309585717,0.04,-0.192,-0.34,-1.53964405,0.46091255,10.34601575,-65000.0,-355000.0,-283000.0,97185.0769,62.69,-4.849999905,-750.3366699,-141.2348633,31.0,14.05167866,35.45164108,-72.67059326,0.0
2018-07-18 20:30:31.520,23.45728874207143,0.0325,-0.195,-0.351,-1.544547375,0.191229675,10.73828175,-60500.0,-355500.0,-284500.0,97181.280515,62.685,-4.849999905,-750.3366699,-141.2348633,31.0,14.05167866,35.45164108,-72.67059326,0.0
2018-07-18 20:30:31.560,23.244335174557143,0.025,-0.198,-0.362,-1.5494507,-0.0784532,11.13054775,-56000.0,-356000.0,-286000.0,97177.48413,62.68,-5.210000038,-718.3466187,-139.5357819,33.0,14.05167866,35.45164108,-72.67059326,0.0
2018-07-18 20:30:31.600,23.031381607042857,-0.027,-0.181,-0.346,-1.485707475,-0.16671305,10.488212175,-51500.0,-356000.0,-285000.0,97174.249265,62.675,-5.210000038,-718.3466187,-139.5357819,33.0,14.05167866,35.45164108,-72.67059326,0.0
2018-07-18 20:30:31.640,22.81842803952857,-0.079,-0.164,-0.33,-1.42196425,-0.2549729,9.8458766,-47000.0,-356000.0,-284000.0,97171.0144,62.67,-5.384999990500001,-701.0131836,-138.71159365,33.5,14.05167866,35.45164108,-72.67059326,0.0
2018-07-18 20:30:31.680,22.605474472014286,-0.1193333333333333,-0.1573333333333333,-0.3403333333333333,-1.4186953666666666,-0.10787315,9.5909037,-44000.0,-356333.3333333333,-285333.3333333333,97169.66756,62.66666666666666,-5.559999943,-683.6797485,-137.8874054,34.0,14.05167866,35.45164108,-72.67059326,0.0
2018-07-18 20:30:31.720,22.3925209045,-0.1596666666666666,-0.1506666666666666,-0.3506666666666667,-1.4154264833333334,0.0392266,9.3359308,-41000.0,-356666.6666666667,-286666.6666666667,97168.32072,62.66333333333333,-5.879999638,-639.2520752,-136.3066559,36.0,14.05167866,35.45164108,-72.67059326,0.0
2018-07-18 20:30:31.760,22.25357402450909,-0.2,-0.144,-0.361,-1.4121576,0.18632635,9.0809579,-38000.0,-357000.0,-288000.0,97166.97388,62.66,-5.879999638,-639.2520752,-136.3066559,36.0,13.34894228,35.994083405,-69.185150145,0.0
2018-07-18 20:30:31.800,22.11462714451818,-0.1455,-0.155,-0.363,-1.318994425,0.28439285,8.997601374999999,-34000.0,-354000.0,-291000.0,97166.6626,62.655,-5.879999638,-639.2520752,-136.3066559,36.0,12.6462059,36.53652573,-65.69970703,0.0
2018-07-18 20:30:31.840,21.975680264527277,-0.091,-0.166,-0.365,-1.22583125,0.38245935,8.91424485,-30000.0,-351000.0,-294000.0,97166.35132,62.65,-6.179999828,-596.6564331,-134.7512207,38.0,12.6462059,36.53652573,-65.69970703,0.0
2018-07-18 20:30:31.880,21.83673338453636,-0.145,-0.1756666666666666,-0.3573333333333333,-1.2552512,0.2582417833333333,8.848867183333333,-27000.0,-349666.6666666667,-296333.3333333333,97165.47648333332,62.64666666666667,-6.179999828,-596.6564331,-134.7512207,38.0,12.6462059,36.53652573,-65.69970703,0.0
2018-07-18 20:30:31.920,21.69778650454545,-0.199,-0.1853333333333333,-0.3496666666666667,-1.28467115,0.1340242166666666,8.783489516666666,-24000.0,-348333.3333333333,-298666.6666666667,97164.60164666666,62.64333333333333,-6.460000038,-559.3282471,-133.2719269,39.0,12.6462059,36.53652573,-65.69970703,0.0
2018-07-18 20:30:31.960,21.558839624554544,-0.253,-0.195,-0.342,-1.3140911,0.00980665,8.71811185,-21000.0,-347000.0,-301000.0,97163.72681,62.64,-6.539999961666667,-547.0547892333333,-132.78727213333335,39.66666666666666,12.6462059,36.53652573,-65.69970703,0.0
2018-07-18 20:30:32.000,21.41989274456364,-0.279,-0.204,-0.3295,-1.171894675,0.063743225,9.18883105,-16500.0,-345000.0,-305500.0,97160.372925,62.635000000000005,-6.619999885333334,-534.7813313666667,-132.30261736666665,40.333333333333336,12.6462059,36.53652573,-65.69970703,0.0
2018-07-18 20:30:32.040,21.280945864572725,-0.305,-0.213,-0.317,-1.02969825,0.1176798,9.65955025,-12000.0,-343000.0,-310000.0,97157.01904,62.63,-6.699999809,-522.5078735,-131.8179626,41.0,12.6462059,36.53652573,-65.69970703,0.0
2018-07-18 20:30:32.080,21.141998984581814,-0.3123333333333333,-0.206,-0.316,-0.95124505,0.2778550833333333,10.045278483333334,-11333.333333333334,-339333.3333333333,-313000.0,97156.05672,62.626666666666665,-6.699999809,-522.5078735,-131.8179626,41.0,12.6462059,36.53652573,-65.69970703,0.0
2018-07-18 20:30:32.120,21.003052104590907,-0.3196666666666666,-0.199,-0.315,-0.87279185,0.4380303666666666,10.431006716666667,-10666.666666666666,-335666.6666666667,-316000.0,97155.0944,62.623333333333335,-6.699999809,-522.5078735,-131.8179626,41.0,12.6462059,36.53652573,-65.69970703,0.0
2018-07-18 20:30:32.160,20.8641052246,-0.327,-0.192,-0.314,-0.79433865,0.59820565,10.81673495,-10000.0,-332000.0,-319000.0,97154.13208,62.62,-6.8099999425,-504.459198,-131.12480925,41.5,11.78834295,34.89248848,-60.79550171,0.0
2018-07-18 20:30:32.200,20.7816202981,-0.3096666666666667,-0.1883333333333333,-0.316,-0.6668522,0.4053415333333333,11.54242705,-9333.333333333334,-328666.6666666667,-322333.3333333333,97153.74349,62.61666666666667,-6.920000076,-486.4105225,-130.4316559,42.0,10.93048,33.24845123,-55.89129639,0.0
2018-07-18 20:30:32.240,20.6991353716,-0.2923333333333333,-0.1846666666666666,-0.318,-0.53936575,0.2124774166666666,12.26811915,-8666.666666666666,-325333.3333333333,-325666.6666666667,97153.3549,62.61333333333333,-6.920000076,-486.4105225,-130.4316559,42.0,10.93048,33.24845123,-55.89129639,0.0
2018-07-18 20:30:32.280,20.6166504451,-0.275,-0.181,-0.32,-0.4118793,0.0196133,12.99381125,-8000.0,-322000.0,-329000.0,97152.96631,62.61,-7.024999857,-475.6346741,-129.763855,43.0,10.93048,33.24845123,-55.89129639,0.0
2018-07-18 20:30:32.320,20.5341655186,-0.346,-0.1735,-0.3389999999999999,-0.328522775,-0.18632635,13.440013825,-6500.0,-317000.0,-333500.0,97151.9043,62.605,-7.129999638,-464.8588257,-129.0960541,44.0,10.93048,33.24845123,-55.89129639,0.0
2018-07-18 20:30:32.360,20.4516805921,-0.417,-0.166,-0.358,-0.24516625,-0.392266,13.8862164,-5000.0,-312000.0,-338000.0,97150.84229,62.6,-7.234999656999999,-454.1332245,-128.4578438,44.5,10.93048,33.24845123,-55.89129639,0.0
2018-07-18 20:30:32.400,20.3691956656,-0.4226666666666666,-0.154,-0.356,-0.16671305,-0.3563082833333333,13.716234466666666,-4000.0,-307000.0,-343333.3333333333,97149.33675333334,62.59666666666667,-7.339999676,-443.4076233,-127.8196335,45.0,10.93048,33.24845123,-55.89129639,0.0
2018-07-18 20:30:32.440,20.2867107391,-0.4283333333333333,-0.142,-0.354,-0.08825985,-0.3203505666666666,13.546252533333334,-3000.0,-302000.0,-348666.6666666667,97147.83121666666,62.59333333333333,-7.569999695,-428.6710815,-126.6192856,47.0,10.93048,33.24845123,-55.89129639,0.0
2018-07-18 20:30:32.480,20.15353145596,-0.434,-0.13,-0.352,-0.00980665,-0.28439285,13.3762706,-2000.0,-297000.0,-354000.0,97146.32568,62.59,-7.569999695,-428.6710815,-126.6192856,47.0,10.54702568,30.75118637,-52.270421985,0.0
2018-07-18 20:30:32.520,20.02035217282,-0.468,-0.095,-0.329,-0.1372931,-0.2353596,12.6113519,1000.0,-282000.0,-369000.0,97144.15283,62.58,-7.569999695,-428.6710815,-126.6192856,47.0,10.16357136,28.25392151,-48.64954758,0.0
2018-07-18 20:30:32.560,19.88717288968,-0.483,-0.0916666666666666,-0.3113333333333333,-0.1438308666666666,-0.4380303666666666,12.666922916666667,2666.666666666667,-276000.0,-373333.3333333333,97144.71028666668,62.58,-7.699999809499999,-415.5214386,-126.0444527,47.5,10.16357136,28.25392151,-48.64954758,0.0
2018-07-18 20:30:32.600,19.75399360654,-0.498,-0.0883333333333333,-0.2936666666666667,-0.1503686333333333,-0.6407011333333332,12.722493933333332,4333.333333333334,-270000.0,-377666.6666666667,97145.26774333334,62.58,-7.829999924,-402.3717957,-125.4696198,48.0,10.16357136,28.25392151,-48.64954758,0.0
2018-07-18 20:30:32.640,19.6208143234,-0.513,-0.085,-0.276,-0.1569064,-0.8433719,12.77806495,6000.0,-264000.0,-382000.0,97145.8252,62.58,-8.119999886,-373.8901062,-124.3791733,50.0,10.16357136,28.25392151,-48.64954758,0.0
2018-07-18 20:30:32.680,19.48763504026,-0.4733333333333333,-0.0786666666666666,-0.2546666666666667,-0.18632635,-0.9414384,12.392336716666666,7000.0,-258333.3333333333,-386333.3333333333,97143.75000333332,62.57333333333333,-8.119999886,-373.8901062,-124.3791733,50.0,10.16357136,28.25392151,-48.64954758,0.0
2018-07-18 20:30:32.720,19.35445575712,-0.4336666666666667,-0.0723333333333333,-0.2333333333333333,-0.2157463,-1.0395048999999998,12.006608483333334,8000.0,-252666.66666666663,-390666.6666666667,97141.67480666668,62.56666666666667,-8.119999886,-373.8901062,-124.3791733,50.0,10.16357136,28.25392151,-48.64954758,0.0
2018-07-18 20:30:32.760,19.22127647398,-0.394,-0.066,-0.212,-0.24516625,-1.1375714,11.62088025,9000.0,-247000.0,-395000.0,97139.59961,62.56,-8.274999618999999,-359.14125060000003,-123.85930255,50.5,10.16357136,28.25392151,-48.64954758,0.0
2018-07-18 20:30:32.800,19.08809719084,-0.4245,-0.065,-0.1555,-0.28439285,-1.08853815,10.949124725,11000.0,-237500.0,-402000.0,97139.889525,62.56,-8.429999352,-344.392395,-123.3394318,51.0,10.16357136,28.25392151,-48.64954758,0.0
2018-07-18 20:30:32.840,18.9549179077,-0.455,-0.064,-0.099,-0.32361945,-1.0395049,10.2773692,13000.0,-228000.0,-409000.0,97140.17944,62.56,-8.429999352,-344.392395,-123.3394318,51.0,10.16357136,28.25392151,-48.64954758,0.0
2018-07-18 20:30:32.880,18.76672782897,-0.405,-0.066,-0.0736666666666666,-0.2876617333333333,-1.0395049,10.480039966666666,11666.666666666666,-222000.0,-413333.3333333333,97138.09204,62.556666666666665,-8.75,-295.4917908,-122.3588181,52.0,9.224244118,19.30577469,-42.60477829,0.0
2018-07-18 20:30:32.920,18.57853775024,-0.355,-0.068,-0.0483333333333333,-0.2517040166666666,-1.0395049,10.682710733333334,10333.333333333334,-216000.0,-417666.6666666667,97136.00464,62.553333333333335,-8.9099998475,-278.396698,-121.88544085,52.5,9.224244118,19.30577469,-42.60477829,0.0
2018-07-18 20:30:32.960,18.39034767151,-0.305,-0.07,-0.023,-0.2157463,-1.0395049,10.8853815,9000.0,-210000.0,-422000.0,97133.91724,62.55,-9.069999695,-261.3016052,-121.4120636,53.0,9.224244118,19.30577469,-42.60477829,0.0
2018-07-18 20:30:33.000,18.20215759278,-0.286,-0.054,0.002,-0.196133,-0.97085835,10.5323421,9000.0,-201500.0,-425000.0,97132.543945,62.545,-9.2299995425,-242.05436705,-120.959816,54.0,9.224244118,19.30577469,-42.60477829,0.0
2018-07-18 20:30:33.040,18.01396751405,-0.267,-0.038,0.027,-0.1765197,-0.9022118,10.1793027,9000.0,-193000.0,-428000.0,97131.17065,62.54,-9.283332825,-235.638621,-120.8090668,54.333333333333336,9.224244118,19.30577469,-42.60477829,0.0
2018-07-18 20:30:33.080,17.82577743532,-0.2796666666666667,-0.032,0.0346666666666666,-0.1503686333333333,-0.6930032666666667,9.999514116666663,7333.333333333333,-189333.3333333333,-430333.3333333333,97130.22460666668,62.53666666666667,-9.3366661075,-229.22287495,-120.6583176,54.66666666666666,9.224244118,19.30577469,-42.60477829,0.0
2018-07-18 20:30:33.120,17.63758735659,-0.2923333333333333,-0.026,0.0423333333333333,-0.1242175666666666,-0.4837947333333333,9.819725533333331,5666.666666666666,-185666.66666666663,-432666.6666666667,97129.27856333333,62.53333333333333,-9.38999939,-222.8071289,-120.5075684,55.0,9.224244118,19.30577469,-42.60477829,0.0
2018-07-18 20:30:33.160,17.44939727786,-0.305,-0.02,0.05,-0.0980665,-0.2745862,9.63993695,4000.0,-182000.0,-435000.0,97128.33252,62.53,-9.5449995995,-193.99909975,-120.0806847,55.5,9.224244118,19.30577469,-42.60477829,0.0
2018-07-18 20:30:33.200,17.26120719913,-0.35,0.0036666666666666,0.0473333333333333,-0.0523021333333333,0.0228821833333333,9.42419065,2666.666666666667,-178000.0,-437000.0,97127.11588666668,62.52666666666667,-9.699999809,-165.1910706,-119.653801,56.0,9.224244118,19.30577469,-42.60477829,0.0
2018-07-18 20:30:33.240,17.0730171204,-0.395,0.0273333333333333,0.0446666666666666,-0.0065377666666666,0.3203505666666666,9.20844435,1333.3333333333337,-174000.0,-439000.0,97125.89925333334,62.52333333333333,-10.01000023,-107.301712,-118.8169479,57.0,9.224244118,19.30577469,-42.60477829,0.0
2018-07-18 20:30:33.280,16.921717717130768,-0.44,0.051,0.042,0.0392266,0.61781895,8.99269805,0.0,-170000.0,-441000.0,97124.68262,62.52,-10.01000023,-107.301712,-118.8169479,57.0,9.592647552,11.62920761,-42.51868439,0.0
2018-07-18 20:30:33.320,16.770418313861537,-0.4649999999999999,0.0735,0.038,0.02941995,0.671755525,8.7083052,-1000.0,-162500.0,-445500.0,97124.87793,62.515,-10.16499996,-81.493473035,-118.4111595,57.5,9.592647552,11.62920761,-42.51868439,0.0
2018-07-18 20:30:33.360,16.619118910592306,-0.49,0.096,0.034,0.0196133,0.7256921,8.42391235,-2000.0,-155000.0,-450000.0,97125.07324,62.51,-10.31999969,-55.68523407,-118.0053711,58.0,9.592647552,11.62920761,-42.51868439,0.0
2018-07-18 20:30:33.400,16.467819507323075,-0.4655,0.1075,0.0135,0.00980665,0.2206496249999999,8.497462225,-1000.0,-144000.0,-453000.0,97123.117065,62.505,-10.31999969,-55.68523407,-118.0053711,58.0,9.592647552,11.62920761,-42.51868439,0.0
2018-07-18 20:30:33.440,16.316520104053847,-0.441,0.119,-0.007,0.0,-0.28439285,8.5710121,0.0,-133000.0,-456000.0,97121.16089,62.5,-10.464999675,-34.926223754999995,-117.6123009,58.5,9.592647552,11.62920761,-42.51868439,0.0
2018-07-18 20:30:33.480,16.165220700784616,-0.4343333333333333,0.1343333333333333,-0.012,-0.0261510666666666,-0.3955348833333333,8.267005950000001,1333.3333333333333,-125666.66666666669,-458000.0,97119.77132333332,62.49666666666667,-10.60999966,-14.16721344,-117.2192307,59.0,9.592647552,11.62920761,-42.51868439,0.0
2018-07-18 20:30:33.520,16.013921297515385,-0.4276666666666666,0.1496666666666666,-0.017,-0.0523021333333333,-0.5066769166666667,7.9629998,2666.6666666666665,-118333.33333333331,-460000.0,97118.38175666668,62.49333333333333,-10.88000011,21.64859772,-116.4415054,61.0,9.592647552,11.62920761,-42.51868439,0.0
2018-07-18 20:30:33.560,15.862621894246152,-0.421,0.165,-0.022,-0.0784532,-0.61781895,7.65899365,4000.0,-111000.0,-462000.0,97116.99219,62.49,-10.88000011,21.64859772,-116.4415054,61.0,9.592647552,11.62920761,-42.51868439,0.0
2018-07-18 20:30:33.600,15.711322490976922,-0.391,0.1755,-0.0204999999999999,-0.053936575,-0.57859235,7.585443775,6500.0,-101000.0,-464000.0,97117.66968,62.49,-11.0,33.412599565,-116.05688855,61.5,9.592647552,11.62920761,-42.51868439,0.0
2018-07-18 20:30:33.640,15.560023087707693,-0.361,0.186,-0.019,-0.02941995,-0.53936575,7.5118939,9000.0,-91000.0,-466000.0,97118.34717,62.49,-11.11999989,45.17660141,-115.6722717,62.0,9.592647552,11.62920761,-42.51868439,0.0
2018-07-18 20:30:33.680,15.408723684438462,-0.3403333333333333,0.1863333333333333,-0.0163333333333333,-0.00980665,-0.4936013833333333,7.495549483333333,10333.333333333334,-84666.66666666667,-467666.6666666667,97116.73584,62.486666666666665,-11.11999989,45.17660141,-115.6722717,62.0,9.592647552,11.62920761,-42.51868439,0.0
2018-07-18 20:30:33.720,15.25742428116923,-0.3196666666666666,0.1866666666666666,-0.0136666666666666,0.00980665,-0.4478370166666666,7.479205066666666,11666.666666666666,-78333.33333333333,-469333.3333333333,97115.12451,62.48333333333333,-11.11999989,45.17660141,-115.6722717,62.0,9.592647552,11.62920761,-42.51868439,0.0
2018-07-18 20:30:33.760,15.1061248779,-0.299,0.187,-0.011,0.02941995,-0.40207265,7.46286065,13000.0,-72000.0,-471000.0,97113.51318,62.48,-11.34000015,89.38751221,-114.9368515,63.0,5.346506596,-0.741978645,-42.46324539,0.0
2018-07-18 20:30:33.800,14.98257818219,-0.2754999999999999,0.1955,0.0,0.053936575,-0.1569064,7.10982125,18500.0,-65500.0,-471500.0,97113.168335,62.475,-11.34000015,89.38751221,-114.9368515,63.0,5.346506596,-0.741978645,-42.46324539,0.0
2018-07-18 20:30:33.840,14.85903148648,-0.252,0.204,0.011,0.0784532,0.08825985,6.75678185,24000.0,-59000.0,-472000.0,97112.82349,62.47,-11.5199995,122.3430634,-114.1845016,64.0,5.346506596,-0.741978645,-42.46324539,0.0
2018-07-18 20:30:33.880,14.735484790769998,-0.2308,0.1986,0.0146,0.10787315,0.0019613299999999,6.71559392,27200.0,-55000.0,-472000.0,97112.816166,62.466,-11.5199995,122.3430634,-114.1845016,64.0,5.346506596,-0.741978645,-42.46324539,0.0
2018-07-18 20:30:33.920,14.61193809506,-0.2096,0.1931999999999999,0.0182,0.1372931,-0.08433719,6.67440599,30400.0,-51000.0,-472000.0,97112.808842,62.462,-11.5199995,122.3430634,-114.1845016,64.0,5.346506596,-0.741978645,-42.46324539,0.0
2018-07-18 20:30:33.960,14.48839139935,-0.1883999999999999,0.1878,0.0218,0.16671305,-0.17063571,6.63321806,33600.0,-47000.0,-472000.0,97112.801518,62.458,-11.591666218333334,139.80588788333333,-113.80832796666668,64.5,5.346506596,-0.741978645,-42.46324539,0.0
2018-07-18 20:30:34.000,14.36484470364,-0.1672,0.1823999999999999,0.0254,0.196133,-0.25693423,6.59203013,36800.0,-43000.0,-472000.0,97112.794194,62.454,-11.663332936666666,157.26871236666668,-113.43215433333332,65.0,5.346506596,-0.741978645,-42.46324539,0.0
2018-07-18 20:30:34.040,14.241298007929998,-0.146,0.177,0.029,0.22555295,-0.34323275,6.5508422,40000.0,-39000.0,-472000.0,97112.78687,62.45,-11.734999655,174.73153685,-113.0559807,65.5,5.346506596,-0.741978645,-42.46324539,0.0
2018-07-18 20:30:34.080,14.11775131222,-0.151,0.18,0.037,0.196133,-0.2157463,6.58026215,40000.0,-39000.0,-472000.0,97112.78687,62.45,-11.78249979,187.8302307,-112.67980195,66.0,5.346506596,-0.741978645,-42.46324539,0.0
2018-07-18 20:30:34.120,13.99420461651,-0.146,0.1865,0.0485,0.2353596,-0.0735498749999999,6.418452425,44000.0,-35500.0,-471500.0,97113.528445,62.445,-11.829999925,200.92892455,-112.3036232,66.5,5.346506596,-0.741978645,-42.46324539,0.0
2018-07-18 20:30:34.160,13.8706579208,-0.141,0.193,0.06,0.2745862,0.06864655,6.2566427,48000.0,-32000.0,-471000.0,97114.27002,62.44,-11.856666566666666,212.14837646666663,-111.9218165,67.0,3.735825856666666,-2.3437396683333334,-42.47019449666666,0.0
2018-07-18 20:30:34.200,13.838315884241666,-0.1363333333333333,0.19,0.0673333333333333,0.3170816833333333,0.1046042666666666,6.42335575,49000.0,-29666.666666666668,-470666.6666666667,97113.68204666668,62.43666666666667,-11.883333208333331,223.3678283833333,-111.5400098,67.5,2.1251451173333336,-3.945500691666667,-42.47714360333333,0.0
2018-07-18 20:30:34.240,13.805973847683331,-0.1316666666666666,0.187,0.0746666666666666,0.3595771666666666,0.1405619833333333,6.5900688,50000.0,-27333.33333333333,-470333.3333333333,97113.09407333333,62.43333333333333,-11.90999985,234.5872803,-111.1582031,68.0,0.514464378,-5.547261715,-42.48409271,0.0
2018-07-18 20:30:34.280,13.773631811125,-0.127,0.184,0.082,0.40207265,0.1765197,6.75678185,51000.0,-25000.0,-470000.0,97112.5061,62.43,-11.90999985,234.5872803,-111.1582031,68.0,0.514464378,-5.547261715,-42.48409271,0.0
2018-07-18 20:30:34.320,13.741289774566669,-0.1025,0.1785,0.091,0.392266,0.083356525,6.89407495,54500.0,-23000.0,-471000.0,97112.20398,62.43,-11.90999985,234.5872803,-111.1582031,68.0,0.514464378,-5.547261715,-42.48409271,0.0
2018-07-18 20:30:34.360,13.708947738008334,-0.078,0.173,0.1,0.38245935,-0.00980665,7.03136805,58000.0,-21000.0,-472000.0,97111.90186,62.43,-11.90999985,248.4013519,-110.3889694,69.0,0.514464378,-5.547261715,-42.48409271,0.0
2018-07-18 20:30:34.400,13.67660570145,-0.0579999999999999,0.17475,0.104,0.392266,-0.0122583125,6.9234949,61500.0,-20500.0,-470500.0,97111.9415325,62.4275,-11.90999985,248.4013519,-110.3889694,69.0,0.514464378,-5.547261715,-42.48409271,0.0
2018-07-18 20:30:34.440,13.644263664891666,-0.038,0.1765,0.108,0.40207265,-0.014709975,6.81562175,65000.0,-20000.0,-469000.0,97111.981205,62.425,-11.89666653,247.6536712333333,-110.1353785,69.66666666666667,0.514464378,-5.547261715,-42.48409271,0.0
2018-07-18 20:30:34.480,13.611921628333333,-0.018,0.17825,0.112,0.4118792999999999,-0.0171616375,6.7077486,68500.0,-19500.0,-467500.0,97112.0208775,62.4225,-11.88333321,246.90599056666667,-109.8817876,70.33333333333333,0.514464378,-5.547261715,-42.48409271,0.0
2018-07-18 20:30:34.520,13.579579591775,0.002,0.18,0.116,0.42168595,-0.0196133,6.59987545,72000.0,-19000.0,-466000.0,97112.06055,62.42,-11.86999989,246.1583099,-109.6281967,71.0,0.514464378,-5.547261715,-42.48409271,0.0
2018-07-18 20:30:34.560,13.547237555216666,0.003,0.167,0.131,0.38245935,-0.18632635,6.63910205,79000.0,-18000.0,-465000.0,97114.99023,62.41,-11.80999947,250.1696625,-108.83358,72.0,0.514464378,-5.547261715,-42.48409271,0.0
2018-07-18 20:30:34.600,13.514895518658331,0.017,0.1445,0.143,0.436395925,0.0,6.9725281500000005,81000.0,-18500.0,-464000.0,97116.333005,62.405,-11.784999612499998,250.563411725,-108.6370449,72.25,-0.7325823310000001,-5.9651896955,-42.988804815,0.0
2018-07-18 20:30:34.640,13.4825534821,0.031,0.122,0.155,0.4903325,0.18632635,7.30595425,83000.0,-19000.0,-463000.0,97117.67578,62.4,-11.759999755,250.95716095,-108.4405098,72.5,-1.97962904,-6.383117676,-43.493516920000005,0.0
2018-07-18 20:30:34.680,13.52584800724,0.0276666666666666,0.1173333333333333,0.1593333333333333,0.48052585,0.1994018833333333,7.400751866666667,86666.66666666667,-20666.666666666668,-462333.3333333333,97117.68188333334,62.39666666666667,-11.7349998975,251.350910175,-108.2439747,72.75,-3.226675749,-6.8010456565,-43.998229025,0.0
2018-07-18 20:30:34.720,13.56914253238,0.0243333333333333,0.1126666666666666,0.1636666666666666,0.4707192,0.2124774166666666,7.495549483333333,90333.33333333331,-22333.33333333333,-461666.6666666667,97117.68798666669,62.39333333333333,-11.71000004,251.7446594,-108.0474396,73.0,-4.473722458,-7.218973637,-44.50294113,0.0
2018-07-18 20:30:34.760,13.61243705752,0.021,0.108,0.168,0.46091255,0.22555295,7.5903471,94000.0,-24000.0,-461000.0,97117.69409,62.39,-11.57999992,235.5681458,-107.2359161,74.0,-4.473722458,-7.218973637,-44.50294113,0.0
2018-07-18 20:30:34.800,13.65573158266,0.0275,0.102,0.1645,0.42168595,0.279489525,7.394214099999999,96000.0,-25500.0,-459500.0,97117.69409,62.385000000000005,-11.57999992,235.5681458,-107.2359161,74.0,-4.473722458,-7.218973637,-44.50294113,0.0
2018-07-18 20:30:34.840,13.6990261078,0.034,0.096,0.161,0.38245935,0.3334261,7.1980811,98000.0,-27000.0,-458000.0,97117.69409,62.38,-11.42000008,221.7051544,-106.3990631,75.0,-4.473722458,-7.218973637,-44.50294113,0.0
2018-07-18 20:30:34.880,13.74232063294,0.0756666666666666,0.0693333333333333,0.147,0.3955348833333333,0.24516625,7.587078216666666,101333.33333333331,-29000.0,-457666.6666666667,97119.40714333332,62.38,-11.42000008,221.7051544,-106.3990631,75.0,-4.473722458,-7.218973637,-44.50294113,0.0
2018-07-18 20:30:34.920,13.78561515808,0.1173333333333333,0.0426666666666666,0.133,0.4086104166666666,0.1569064,7.976075333333333,104666.66666666669,-31000.0,-457333.3333333333,97121.12019666668,62.38,-11.42000008,221.7051544,-106.3990631,75.0,-4.473722458,-7.218973637,-44.50294113,0.0
2018-07-18 20:30:34.960,13.82890968322,0.159,0.016,0.119,0.42168595,0.06864655,8.36507245,108000.0,-33000.0,-457000.0,97122.83325,62.38,-11.23999977,208.4501343,-105.5706177,76.0,-4.473722458,-7.218973637,-44.50294113,0.0
2018-07-18 20:30:35.000,13.87220420836,0.1746666666666666,0.013,0.1116666666666666,0.4151481833333333,0.0555710166666666,8.420643466666666,109000.0,-35000.0,-456333.3333333333,97123.87695333333,62.376666666666665,-11.18749976,202.444938675,-105.35294915,76.5,-5.07382679,-6.760441542000001,-45.2884407025,0.0
2018-07-18 20:30:35.040,13.9154987335,0.1903333333333333,0.0099999999999999,0.1043333333333333,0.4086104166666666,0.0424954833333333,8.476214483333333,110000.0,-37000.0,-455666.6666666667,97124.92065666668,62.373333333333335,-11.13499975,196.43974305,-105.1352806,77.0,-5.673931122,-6.301909447,-46.073940275,0.0
2018-07-18 20:30:35.080,14.015807238472728,0.206,0.007,0.097,0.40207265,0.02941995,8.5317855,111000.0,-39000.0,-455000.0,97125.96436,62.37,-11.02999973,184.4293518,-104.6999435,78.0,-6.874139786,-5.384845257,-47.64493942,0.0
2018-07-18 20:30:35.120,14.116115743445455,0.238,0.0075,0.0915,0.40207265,0.083356525,8.60043205,111500.0,-43500.0,-455000.0,97125.96436,62.365,-10.81999969,163.3270264,-103.8377304,79.0,-6.874139786,-5.384845257,-47.64493942,0.0
2018-07-18 20:30:35.160,14.216424248418182,0.27,0.008,0.086,0.40207265,0.1372931,8.6690786,112000.0,-48000.0,-455000.0,97125.96436,62.36,-10.81999969,163.3270264,-103.8377304,79.0,-6.874139786,-5.384845257,-47.64493942,0.0
2018-07-18 20:30:35.200,14.316732753390909,0.2463333333333333,-0.0023333333333333,0.0773333333333333,0.4314926,0.1340242166666666,8.881556016666668,111000.0,-52333.333333333336,-454000.0,97127.03857666666,62.35666666666667,-10.81999969,163.3270264,-103.8377304,79.0,-6.874139786,-5.384845257,-47.64493942,0.0
2018-07-18 20:30:35.240,14.417041258363636,0.2226666666666666,-0.0126666666666666,0.0686666666666666,0.46091255,0.1307553333333333,9.094033433333331,110000.0,-56666.66666666666,-453000.0,97128.11279333332,62.35333333333333,-10.59999943,150.9977417,-102.9501419,80.0,-6.874139786,-5.384845257,-47.64493942,0.0
2018-07-18 20:30:35.280,14.517349763336364,0.199,-0.023,0.06,0.4903325,0.12748645,9.30651085,109000.0,-61000.0,-452000.0,97129.18701,62.35,-10.59999943,150.9977417,-102.9501419,80.0,-6.874139786,-5.384845257,-47.64493942,0.0
2018-07-18 20:30:35.320,14.617658268309093,0.165,-0.0325,0.0485,0.505042475,0.152003075,9.762520075,110000.0,-66000.0,-451500.0,97131.365965,62.345,-10.36999989,128.5709381,-102.0371933,81.0,-6.874139786,-5.384845257,-47.64493942,0.0
2018-07-18 20:30:35.360,14.717966773281818,0.131,-0.042,0.037,0.51975245,0.1765197,10.2185293,111000.0,-71000.0,-451000.0,97133.54492,62.34,-10.36999989,128.5709381,-102.0371933,81.0,-6.874139786,-5.384845257,-47.64493942,0.0
2018-07-18 20:30:35.400,14.818275278254545,0.1083333333333333,-0.0496666666666666,0.0303333333333333,0.5360968666666667,0.1634441666666666,10.5519554,110333.33333333331,-72666.66666666667,-451333.3333333333,97134.41772333332,62.34,-10.36999989,128.5709381,-102.0371933,81.0,-6.874139786,-5.384845257,-47.64493942,0.0
2018-07-18 20:30:35.440,14.918583783227271,0.0856666666666666,-0.0573333333333333,0.0236666666666666,0.5524412833333333,0.1503686333333333,10.8853815,109666.66666666669,-74333.33333333333,-451666.6666666667,97135.29052666666,62.34,-10.13999939,98.11077118,-101.107338,83.0,-6.874139786,-5.384845257,-47.64493942,0.0
2018-07-18 20:30:35.480,15.0188922882,0.063,-0.065,0.017,0.5687857,0.1372931,11.2188076,109000.0,-76000.0,-452000.0,97136.16333,62.34,-10.034999371,81.75931167499999,-100.6339684,83.5,-6.737644434,-3.2161723375,-48.365951535,0.0
2018-07-18 20:30:35.520,15.095129706636364,0.0035,-0.0635,0.007,0.544269075,0.2157463,11.047191225,111000.0,-79000.0,-451000.0,97137.490845,62.335,-9.929999352,65.40785217,-100.1605988,84.0,-6.601149082,-1.047499418,-49.08696365,0.0
2018-07-18 20:30:35.560,15.171367125072727,-0.056,-0.062,-0.003,0.51975245,0.2941995,10.87557485,113000.0,-82000.0,-450000.0,97138.81836,62.33,-9.929999352,65.40785217,-100.1605988,84.0,-6.601149082,-1.047499418,-49.08696365,0.0
2018-07-18 20:30:35.600,15.247604543509093,-0.0556666666666666,-0.055,-0.004,0.4707192,0.38245935,10.7480884,111000.0,-81666.66666666667,-451333.3333333333,97139.14998333334,62.32666666666667,-9.929999352,65.40785217,-100.1605988,84.0,-6.601149082,-1.047499418,-49.08696365,0.0
2018-07-18 20:30:35.640,15.323841961945456,-0.0553333333333333,-0.048,-0.005,0.42168595,0.4707192,10.62060195,109000.0,-81333.33333333333,-452666.6666666667,97139.48160666668,62.32333333333333,-9.729999542,50.51870346,-99.20539856,85.0,-6.601149082,-1.047499418,-49.08696365,0.0
2018-07-18 20:30:35.680,15.400079380381818,-0.055,-0.041,-0.006,0.3726527,0.55897905,10.4931155,107000.0,-81000.0,-454000.0,97139.81323,62.32,-9.729999542,50.51870346,-99.20539856,85.0,-6.601149082,-1.047499418,-49.08696365,0.0
2018-07-18 20:30:35.720,15.476316798818182,-0.0755,-0.0595,-0.011,0.357942725,0.2941995,11.0422879,105500.0,-80000.0,-453500.0,97140.933225,62.315,-9.729999542,50.51870346,-99.20539856,85.0,-6.601149082,-1.047499418,-49.08696365,0.0
2018-07-18 20:30:35.760,15.552554217254546,-0.096,-0.078,-0.016,0.34323275,0.02941995,11.5914603,104000.0,-79000.0,-453000.0,97142.05322,62.31,-9.550000191,31.13889694,-98.22481537,87.0,-6.601149082,-1.047499418,-49.08696365,0.0
2018-07-18 20:30:35.800,15.62879163569091,-0.077,-0.07,-0.0183333333333333,0.3138128,0.26477955,11.359369583333333,104333.33333333331,-78000.0,-454000.0,97142.76733333334,62.31,-9.4650001525,22.69425392,-97.73031235,87.5,-6.601149082,-1.047499418,-49.08696365,0.0
2018-07-18 20:30:35.840,15.705029054127271,-0.058,-0.062,-0.0206666666666666,0.28439285,0.50013915,11.127278866666666,104666.66666666669,-77000.0,-455000.0,97143.48144666666,62.31,-9.380000114,14.2496109,-97.23580933,88.0,-6.601149082,-1.047499418,-49.08696365,0.0
2018-07-18 20:30:35.880,15.781266472563637,-0.039,-0.054,-0.023,0.2549729,0.73549875,10.89518815,105000.0,-76000.0,-456000.0,97144.19556,62.31,-9.380000114,14.2496109,-97.23580933,88.0,-6.601149082,-1.047499418,-49.08696365,0.0
2018-07-18 20:30:35.920,15.857503891,-0.039,-0.0465,-0.0325,0.1765197,0.750208725,10.40485565,104500.0,-74000.0,-457500.0,97146.203615,62.305,-9.3099999425,14.64328766,-96.732818605,88.5,-5.9618299005,-1.8637183905,-48.8934803,0.0
2018-07-18 20:30:35.960,15.85918307305,-0.039,-0.039,-0.042,0.0980665,0.7649187,9.91452315,104000.0,-72000.0,-459000.0,97148.21167,62.3,-9.239999771,15.03696442,-96.22982788,89.0,-5.322510719,-2.679937363,-48.69999695,0.0
2018-07-18 20:30:36.000,15.8608622551,-0.088,-0.0476666666666666,-0.0576666666666666,0.0621087833333333,0.5099458000000003,10.035471833333334,103333.33333333331,-71000.0,-459333.3333333333,97147.89632333332,62.29666666666667,-9.239999771,15.03696442,-96.22982788,89.0,-5.322510719,-2.679937363,-48.69999695,0.0
2018-07-18 20:30:36.040,15.86254143715,-0.1369999999999999,-0.0563333333333333,-0.0733333333333333,0.0261510666666666,0.2549729000000008,10.156420516666667,102666.66666666669,-70000.0,-459666.6666666667,97147.58097666666,62.29333333333333,-9.164999962,15.401124955,-95.722644805,90.0,-5.322510719,-2.679937363,-48.69999695,0.0
2018-07-18 20:30:36.080,15.8642206192,-0.186,-0.065,-0.089,-0.00980665,1.26e-15,10.2773692,102000.0,-69000.0,-460000.0,97147.26563,62.29,-9.090000153,15.76528549,-95.21546173,91.0,-5.322510719,-2.679937363,-48.69999695,0.0
2018-07-18 20:30:36.120,15.86589980125,-0.16,-0.083,-0.09,0.0392266,-0.1569063999999994,10.762798375,102500.0,-66500.0,-446500.0,97147.732545,62.285,-9.0250000955,14.335775375,-94.69982147,91.5,-5.322510719,-2.679937363,-48.69999695,0.0
2018-07-18 20:30:36.160,15.8675789833,-0.134,-0.101,-0.091,0.08825985,-0.3138128,11.24822755,103000.0,-64000.0,-433000.0,97148.19946,62.28,-8.99250006675,13.6210203175,-94.44200134,91.75,-5.322510719,-2.679937363,-48.69999695,0.0
2018-07-18 20:30:36.200,15.86925816535,-0.0813333333333333,-0.0933333333333333,-0.0816666666666666,0.0555710166666666,-0.32361945,11.104396683333333,102333.33333333331,-60666.66666666666,-443000.0,97149.00716,62.28,-8.960000038,12.90626526,-94.18418121,92.0,-5.322510719,-2.679937363,-48.69999695,0.0
2018-07-18 20:30:36.240,15.8709373474,-0.0286666666666666,-0.0856666666666666,-0.0723333333333333,0.0228821833333333,-0.3334261,10.960565816666668,101666.66666666669,-57333.333333333336,-453000.0,97149.81486,62.28,-8.894999981,11.970710755,-93.66944885,92.5,-4.7539293765,-3.665762663,-48.129873275,0.0
2018-07-18 20:30:36.280,15.85276298522,0.024,-0.078,-0.063,-0.00980665,-0.34323275,10.81673495,101000.0,-54000.0,-463000.0,97150.62256,62.28,-8.829999924,11.03515625,-93.15471649,93.0,-4.185348034,-4.651587963,-47.5597496,0.0
2018-07-18 20:30:36.320,15.83458862304,0.047,-0.0795,-0.032,-0.024516625,-0.210842975,10.5323421,98500.0,-54000.0,-463500.0,97152.886965,62.275000000000006,-8.769999981,14.54768181,-92.63059616,94.0,-4.185348034,-4.651587963,-47.5597496,0.0
2018-07-18 20:30:36.360,15.81641426086,0.07,-0.081,-0.001,-0.0392266,-0.0784532,10.24794925,96000.0,-54000.0,-464000.0,97155.15137,62.27,-8.710000038,18.06020737,-92.10647583,95.0,-4.185348034,-4.651587963,-47.5597496,0.0
2018-07-18 20:30:36.400,15.79823989868,0.0585,-0.0815,0.042,0.0784532,0.230456275,10.331305775,93000.0,-54500.0,-465000.0,97155.804445,62.265,-8.6599998475,21.82569504,-91.590805055,95.5,-4.185348034,-4.651587963,-47.5597496,0.0
2018-07-18 20:30:36.440,15.7800655365,0.047,-0.082,0.085,0.196133,0.53936575,10.4146623,90000.0,-55000.0,-466000.0,97156.45752,62.26,-8.63499975225,23.708438875,-91.3329696675,95.75,-4.185348034,-4.651587963,-47.5597496,0.0
2018-07-18 20:30:36.480,15.76189117432,0.0424999999999999,-0.096,0.1169999999999999,0.30400615,0.6766588499999999,11.05209455,88000.0,-56500.0,-465500.0,97154.70276,62.255,-8.609999657,25.59118271,-91.07513428,96.0,-4.185348034,-4.651587963,-47.5597496,0.0
2018-07-18 20:30:36.520,15.74371681214,0.038,-0.11,0.149,0.4118793,0.81395195,11.6895268,86000.0,-58000.0,-465000.0,97152.948,62.25,-8.609999657,25.59118271,-91.07513428,96.0,-4.185348034,-4.651587963,-47.5597496,0.0
2018-07-18 20:30:36.560,15.72554244996,0.072,-0.102,0.146,0.392266,0.73549875,11.56204035,84333.33333333333,-59666.66666666666,-464666.6666666667,97154.37825666666,62.25,-8.5549998285,28.86452675,-90.546787265,97.0,-4.185348034,-4.651587963,-47.5597496,0.0
2018-07-18 20:30:36.600,15.70736808778,0.106,-0.094,0.143,0.3726527,0.65704555,11.4345539,82666.66666666667,-61333.333333333336,-464333.3333333333,97155.80851333334,62.25,-8.5,32.13787079,-90.01844025,98.0,-4.185348034,-4.651587963,-47.5597496,0.0
2018-07-18 20:30:36.640,15.6891937256,0.14,-0.086,0.14,0.3530394,0.57859235,11.30706745,81000.0,-63000.0,-464000.0,97157.23877,62.25,-8.5,32.13787079,-90.01844025,98.0,-4.185348034,-4.651587963,-47.5597496,0.0
2018-07-18 20:30:36.680,15.71865959169,0.1053333333333333,-0.0873333333333333,0.1303333333333333,0.3334261,0.4837947333333333,11.457436083333333,79666.66666666667,-65333.333333333336,-464333.3333333333,97157.75960333332,62.24666666666667,-8.4549999235,31.609249115,-89.53932953,98.5,-3.2115782500000005,-3.8644901515,-48.38713646,0.0
2018-07-18 20:30:36.720,15.74812545778,0.0706666666666666,-0.0886666666666666,0.1206666666666666,0.3138128,0.3889971166666667,11.607804716666667,78333.33333333333,-67666.66666666667,-464666.6666666667,97158.28043666668,62.24333333333333,-8.409999847,31.08062744,-89.06021881,99.0,-2.237808466,-3.07739234,-49.21452332,0.0
2018-07-18 20:30:36.760,15.77759132387,0.036,-0.09,0.111,0.2941995,0.2941995,11.75817335,77000.0,-70000.0,-465000.0,97158.80127,62.24,-8.329999924,31.32410049,-87.99166107,100.0,-2.237808466,-3.07739234,-49.21452332,0.0
2018-07-18 20:30:36.800,15.80705718996,0.063,-0.0819999999999999,0.0975,0.318716125,0.38245935,11.75817335,76000.0,-72000.0,-464000.0,97159.716795,62.235,-8.329999924,31.32410049,-87.99166107,100.0,-2.237808466,-3.07739234,-49.21452332,0.0
2018-07-18 20:30:36.840,15.83652305605,0.09,-0.074,0.084,0.34323275,0.4707192,11.75817335,75000.0,-74000.0,-463000.0,97160.63232,62.23,-8.279999733,12.24679947,-86.90620422,102.0,-2.237808466,-3.07739234,-49.21452332,0.0
2018-07-18 20:30:36.880,15.86598892214,0.1023333333333333,-0.0569999999999999,0.0816666666666666,0.2386284833333333,0.5164835666666666,11.34629405,73000.0,-75333.33333333333,-463666.6666666667,97161.04532666667,62.22666666666667,-8.279999733,12.24679947,-86.90620422,102.0,-2.237808466,-3.07739234,-49.21452332,0.0
2018-07-18 20:30:36.920,15.89545478823,0.1146666666666666,-0.04,0.0793333333333333,0.1340242166666666,0.5622479333333333,10.93441475,71000.0,-76666.66666666667,-464333.3333333333,97161.45833333331,62.22333333333333,-8.2649998665,6.9307804115,-86.40910339000001,102.5,-2.237808466,-3.07739234,-49.21452332,0.0
2018-07-18 20:30:36.960,15.92492065432,0.127,-0.023,0.077,0.02941995,0.6080123,10.52253545,69000.0,-78000.0,-465000.0,97161.87134,62.22,-8.25,1.614761353,-85.91200256,103.0,-2.237808466,-3.07739234,-49.21452332,0.0
2018-07-18 20:30:37.000,15.95438652041,0.0269999999999999,-0.0365,0.052,0.112776475,0.750208725,10.370532375,69500.0,-80500.0,-463000.0,97163.43384,62.22,-8.25,1.614761353,-85.91200256,103.0,-2.237808466,-3.07739234,-49.21452332,0.0
2018-07-18 20:30:37.040,15.9838523865,-0.073,-0.05,0.027,0.196133,0.89240515,10.2185293,70000.0,-83000.0,-461000.0,97164.99634,62.22,-8.229999542,3.878879547,-84.83209991,105.0,-1.136781693,-1.416826963,-51.07169342,0.0
2018-07-18 20:30:37.080,15.95232086184,-0.0116666666666666,-0.0256666666666666,0.0086666666666666,0.1307553333333333,0.7518431666666666,9.509181616666666,69000.0,-83333.33333333333,-461333.3333333333,97164.41447,62.21666666666667,-8.229999542,3.878879547,-84.83209991,105.0,-1.136781693,-1.416826963,-51.07169342,0.0
2018-07-18 20:30:37.120,15.92078933718,0.0496666666666666,-0.0013333333333333,-0.0096666666666666,0.0653776666666666,0.6112811833333334,8.799833933333334,68000.0,-83666.66666666667,-461666.6666666667,97163.8326,62.21333333333333,-8.224999904499999,10.8814716335,-84.35242843500001,105.5,-1.136781693,-1.416826963,-51.07169342,0.0
2018-07-18 20:30:37.160,15.88925781252,0.111,0.023,-0.028,0.0,0.4707192,8.09048625,67000.0,-84000.0,-462000.0,97163.25073,62.21,-8.220000267,17.88406372,-83.87275696,106.0,-1.136781693,-1.416826963,-51.07169342,0.0
2018-07-18 20:30:37.200,15.85772628786,0.1086666666666666,0.0046666666666666,-0.037,0.00980665,0.3399638666666666,8.4141057,66333.33333333333,-84000.0,-462333.3333333333,97163.49487,62.20666666666667,-8.220000267,17.88406372,-83.87275696,106.0,-1.136781693,-1.416826963,-51.07169342,0.0
2018-07-18 20:30:37.240,15.8261947632,0.1063333333333333,-0.0136666666666666,-0.046,0.0196133,0.2092085333333333,8.73772515,65666.66666666667,-84000.0,-462666.6666666667,97163.73901,62.20333333333333,-8.199999809,22.996521,-82.77999878,107.0,-1.136781693,-1.416826963,-51.07169342,0.0
2018-07-18 20:30:37.280,15.79466323854,0.104,-0.032,-0.055,0.02941995,0.0784532,9.0613446,65000.0,-84000.0,-463000.0,97163.98315,62.2,-8.199999809,22.996521,-82.77999878,107.0,-1.136781693,-1.416826963,-51.07169342,0.0
2018-07-18 20:30:37.320,15.76313171388,0.195,-0.052,-0.041,0.06864655,-0.269682875,10.0420096,64500.0,-86000.0,-462500.0,97164.859005,62.195,-8.1849999425,28.071403505,-82.24207687500001,108.0,-1.136781693,-1.416826963,-51.07169342,0.0
2018-07-18 20:30:37.360,15.73160018922,0.286,-0.072,-0.027,0.10787315,-0.61781895,11.0226746,64000.0,-88000.0,-462000.0,97165.73486,62.19,-8.170000076,33.14628601,-81.70415497,109.0,-1.136781693,-1.416826963,-51.07169342,0.0
2018-07-18 20:30:37.400,15.70006866456,0.3076666666666666,-0.0606666666666666,-0.0053333333333333,0.1242175666666666,-0.5524412833333333,10.9442214,64666.66666666666,-91333.33333333331,-461000.0,97165.96069,62.19,-8.170000076,33.14628601,-81.70415497,109.0,-1.136781693,-1.416826963,-51.07169342,0.0
2018-07-18 20:30:37.440,15.6685371399,0.3293333333333333,-0.0493333333333333,0.0163333333333333,0.1405619833333333,-0.4870636166666666,10.8657682,65333.333333333336,-94666.66666666669,-460000.0,97166.18652,62.19,-8.154999733,28.84821892,-81.24638367,109.5,-0.7991797030000001,0.0752084854999999,-50.830114365,0.0
2018-07-18 20:30:37.480,15.695263438766666,0.351,-0.038,0.038,0.1569064,-0.42168595,10.787315,66000.0,-98000.0,-459000.0,97166.41235,62.19,-8.13999939,24.55015183,-80.78861237,110.0,-0.461577713,1.567243934,-50.58853531,0.0
2018-07-18 20:30:37.520,15.721989737633333,0.313,-0.033,0.062,0.20593965,-0.00980665,10.890284825,65000.0,-105500.0,-456500.0,97167.095945,62.185,-8.119999886,30.86385727,-79.68097687,111.0,-0.461577713,1.567243934,-50.58853531,0.0
2018-07-18 20:30:37.560,15.7487160365,0.275,-0.028,0.086,0.2549729,0.40207265,10.99325465,64000.0,-113000.0,-454000.0,97167.77954,62.18,-8.116666476333334,27.847544353333333,-79.49290466333333,111.66666666666669,-0.461577713,1.567243934,-50.58853531,0.0
2018-07-18 20:30:37.600,15.775442335366666,0.258,-0.0333333333333333,0.0893333333333333,0.2615106666666666,0.2974683833333333,11.0030613,63666.66666666666,-117666.66666666669,-453000.0,97167.0756,62.17666666666667,-8.113333066666666,24.831231436666663,-79.30483245666666,112.33333333333331,-0.461577713,1.567243934,-50.58853531,0.0
2018-07-18 20:30:37.640,15.802168634233334,0.241,-0.0386666666666666,0.0926666666666666,0.2680484333333333,0.1928641166666666,11.01286795,63333.333333333336,-122333.33333333331,-452000.0,97166.37166,62.17333333333333,-8.109999657,21.81491852,-79.11676025,113.0,-0.461577713,1.567243934,-50.58853531,0.0
2018-07-18 20:30:37.680,15.8288949331,0.224,-0.044,0.096,0.2745862,0.08825985,11.0226746,63000.0,-127000.0,-451000.0,97165.66772,62.17,-8.109999657,21.81491852,-79.11676025,113.0,-0.461577713,1.567243934,-50.58853531,0.0
2018-07-18 20:30:37.720,15.855621231966667,0.2145,-0.0615,0.107,0.328522775,-0.053936575,11.419843925,62000.0,-132500.0,-448000.0,97164.437865,62.165,-8.099999428,9.092617035,-78.02457428,114.0,-0.461577713,1.567243934,-50.58853531,0.0
2018-07-18 20:30:37.760,15.882347530833334,0.205,-0.079,0.118,0.38245935,-0.196133,11.81701325,61000.0,-138000.0,-445000.0,97163.20801,62.16,-8.099999428,9.092617035,-78.02457428,114.0,-0.461577713,1.567243934,-50.58853531,0.0
2018-07-18 20:30:37.800,15.9090738297,0.1025,-0.0655,0.122,0.406975975,0.2745862,11.596363625,60000.0,-142500.0,-444000.0,97165.69519,62.16,-8.099999428,9.092617035,-78.02457428,114.0,-0.461577713,1.567243934,-50.58853531,0.0
2018-07-18 20:30:37.840,15.86597490315,0.0,-0.052,0.126,0.4314926,0.7453054,11.375714,59000.0,-147000.0,-443000.0,97168.18237,62.16,-8.119999886,14.17236328,-77.26368713,116.0,0.630874395,6.924146652,-52.48423386,0.0
2018-07-18 20:30:37.880,15.8228759766,-0.0183333333333333,-0.0473333333333333,0.1153333333333333,0.4282237166666666,0.6308944833333333,11.048825666666668,56666.66666666666,-148333.33333333334,-443333.3333333333,97168.12133666666,62.156666666666666,-8.119999886,14.17236328,-77.26368713,116.0,0.630874395,6.924146652,-52.48423386,0.0
2018-07-18 20:30:37.920,15.77977705005,-0.0366666666666666,-0.0426666666666666,0.1046666666666666,0.4249548333333333,0.5164835666666666,10.721937333333331,54333.333333333336,-149666.66666666666,-443666.6666666667,97168.06030333332,62.15333333333333,-8.149999619,13.58804703,-76.16726685,117.0,0.630874395,6.924146652,-52.48423386,0.0
2018-07-18 20:30:37.960,15.7366781235,-0.055,-0.038,0.094,0.42168595,0.40207265,10.395049,52000.0,-151000.0,-444000.0,97167.99927,62.15,-8.158332984000001,15.69153468,-75.98874791833333,117.16666666666669,0.630874395,6.924146652,-52.48423386,0.0
2018-07-18 20:30:38.000,15.69357919695,-0.0495,-0.0019999999999999,0.049,0.3334261,0.7011754749999999,9.9831697,50500.0,-150000.0,-444000.0,97166.89453,62.145,-8.166666349,17.795022330000002,-75.81022898666667,117.33333333333331,0.630874395,6.924146652,-52.48423386,0.0
2018-07-18 20:30:38.040,15.6504802704,-0.044,0.034,0.004,0.24516625,1.0002783,9.5712904,49000.0,-149000.0,-444000.0,97165.78979,62.14,-8.174999714,19.89850998,-75.631710055,117.5,0.630874395,6.924146652,-52.48423386,0.0
2018-07-18 20:30:38.080,15.60738134385,-0.0246666666666666,0.047,-0.0356666666666666,0.2484351333333333,1.0852692666666666,9.417652883333334,49000.0,-148333.33333333334,-444666.6666666667,97166.28824666666,62.14,-8.212499857000001,31.735134125,-74.9978580475,118.75,0.630874395,6.924146652,-52.48423386,0.0
2018-07-18 20:30:38.120,15.5642824173,-0.0053333333333333,0.06,-0.0753333333333333,0.2517040166666666,1.1702602333333334,9.264015366666667,49000.0,-147666.66666666666,-445333.3333333333,97166.78670333332,62.14,-8.25,43.57175827,-74.36400604,120.0,0.630874395,6.924146652,-52.48423386,0.0
2018-07-18 20:30:38.160,15.568127778861538,0.014,0.073,-0.115,0.2549729,1.2552512,9.11037785,49000.0,-147000.0,-446000.0,97167.28516,62.14,-8.25,43.57175827,-74.36400604,120.0,0.787062228,6.146973133,-53.41205978,0.0
2018-07-18 20:30:38.200,15.571973140423076,0.0355,0.0839999999999999,-0.157,0.196133,1.054214875,8.54159215,53500.0,-147000.0,-445000.0,97165.31067,62.135000000000005,-8.25,43.57175827,-74.36400604,120.0,0.787062228,6.146973133,-53.41205978,0.0
2018-07-18 20:30:38.240,15.575818501984616,0.057,0.095,-0.199,0.1372931,0.85317855,7.97280645,58000.0,-147000.0,-444000.0,97163.33618,62.13,-8.279999733,50.91791153,-73.26093292,121.0,0.787062228,6.146973133,-53.41205978,0.0
2018-07-18 20:30:38.280,15.579663863546154,0.0526666666666666,0.1,-0.2213333333333333,0.0751843166666666,0.6537766666666667,7.9826131,58666.66666666666,-146666.66666666666,-444333.3333333333,97163.61490666668,62.126666666666665,-8.279999733,50.91791153,-73.26093292,121.0,0.787062228,6.146973133,-53.41205978,0.0
2018-07-18 20:30:38.320,15.583509225107692,0.0483333333333333,0.105,-0.2436666666666666,0.0130755333333333,0.4543747833333333,7.99241975,59333.333333333336,-146333.33333333334,-444666.6666666667,97163.89363333333,62.123333333333335,-8.279999733,50.91791153,-73.26093292,121.0,0.787062228,6.146973133,-53.41205978,0.0
2018-07-18 20:30:38.360,15.58735458666923,0.044,0.11,-0.266,-0.04903325,0.2549729,8.0022264,60000.0,-146000.0,-445000.0,97164.17236,62.12,-8.309999466,66.64190674,-72.56485748,122.0,0.787062228,6.146973133,-53.41205978,0.0
2018-07-18 20:30:38.400,15.59119994823077,0.0885,0.1055,-0.3005,-0.10787315,0.0735498749999999,8.89463155,65500.0,-145500.0,-443500.0,97164.63623,62.115,-8.309999466,66.64190674,-72.56485748,122.0,0.787062228,6.146973133,-53.41205978,0.0
2018-07-18 20:30:38.440,15.595045309792308,0.133,0.101,-0.335,-0.16671305,-0.10787315,9.7870367,71000.0,-145000.0,-442000.0,97165.1001,62.11,-8.319999695,43.74370575,-71.45371246,124.0,0.787062228,6.146973133,-53.41205978,0.0
2018-07-18 20:30:38.480,15.598890671353846,0.1933333333333333,0.0993333333333333,-0.3116666666666667,-0.2026707666666666,0.3530394,8.9044382,74000.0,-145333.33333333334,-441000.0,97165.44189666669,62.11,-8.319999695,43.74370575,-71.45371246,124.0,0.787062228,6.146973133,-53.41205978,0.0
2018-07-18 20:30:38.520,15.602736032915384,0.2536666666666666,0.0976666666666666,-0.2883333333333333,-0.2386284833333333,0.8139519500000001,8.0218397,77000.0,-145666.66666666666,-440000.0,97165.78369333332,62.11,-8.309999466,12.09449768,-70.35098267,125.0,0.787062228,6.146973133,-53.41205978,0.0
2018-07-18 20:30:38.560,15.606581394476924,0.314,0.096,-0.265,-0.2745862,1.2748645,7.1392412,80000.0,-146000.0,-439000.0,97166.12549,62.11,-8.309999466,12.09449768,-70.35098267,125.0,0.787062228,6.146973133,-53.41205978,0.0
2018-07-18 20:30:38.600,15.610426756038462,0.2826666666666667,0.093,-0.2883333333333333,-0.2941995,1.0983448,6.416817983333333,83333.33333333333,-149666.66666666666,-437000.0,97166.76229,62.10666666666667,-8.309999466,12.09449768,-70.35098267,125.0,0.787062228,6.146973133,-53.41205978,0.0
2018-07-18 20:30:38.640,15.6142721176,0.2513333333333333,0.09,-0.3116666666666667,-0.3138128,0.9218251,5.694394766666667,86666.66666666667,-153333.33333333334,-435000.0,97167.39909,62.10333333333333,-8.309999466,12.09449768,-70.35098267,125.0,0.787062228,6.146973133,-53.41205978,0.0
2018-07-18 20:30:38.680,15.60654172896,0.22,0.087,-0.335,-0.3334261,0.7453054,4.97197155,90000.0,-157000.0,-433000.0,97168.03589,62.1,-8.279999733,38.57278824,-70.53742218,127.0,-3.043102026,10.54428959,-46.12902832,0.0
2018-07-18 20:30:38.720,15.59881134032,0.157,0.0705,-0.363,-0.367749375,0.779628675,5.153394575,95000.0,-159000.0,-430500.0,97166.29944,62.095,-8.2449998855,45.757055285,-69.95958328,127.5,-3.043102026,10.54428959,-46.12902832,0.0
2018-07-18 20:30:38.760,15.59108095168,0.094,0.054,-0.391,-0.40207265,0.81395195,5.3348176,100000.0,-161000.0,-428000.0,97164.56299,62.09,-8.210000038,52.94132233,-69.38174438,128.0,-3.043102026,10.54428959,-46.12902832,0.0
2018-07-18 20:30:38.800,15.58335056304,0.177,0.0166666666666666,-0.4403333333333333,-0.3530394,0.5524412833333333,6.083391883333333,104000.0,-160666.66666666666,-426666.6666666667,97166.80705,62.086666666666666,-8.210000038,52.94132233,-69.38174438,128.0,-3.043102026,10.54428959,-46.12902832,0.0
2018-07-18 20:30:38.840,15.5756201744,0.26,-0.0206666666666666,-0.4896666666666667,-0.30400615,0.2909306166666666,6.831966166666667,108000.0,-160333.33333333334,-425333.3333333333,97169.05111,62.083333333333336,-8.090000153,42.48781204,-68.67198944,129.0,-3.043102026,10.54428959,-46.12902832,0.0
2018-07-18 20:30:38.880,15.56788978576,0.343,-0.058,-0.539,-0.2549729,0.02941995,7.58054045,112000.0,-160000.0,-424000.0,97171.29517,62.08,-8.090000153,42.48781204,-68.67198944,129.0,-3.043102026,10.54428959,-46.12902832,0.0
2018-07-18 20:30:38.920,15.56015939712,0.33,-0.0685,-0.5045,-0.269682875,-0.16671305,7.879643274999999,116500.0,-160000.0,-423000.0,97170.733645,62.08,-8.009999990499999,44.39549446,-68.08710861,130.0,-3.043102026,10.54428959,-46.12902832,0.0
2018-07-18 20:30:38.960,15.55242900848,0.317,-0.079,-0.47,-0.28439285,-0.36284605,8.1787461,121000.0,-160000.0,-422000.0,97170.17212,62.08,-7.929999828,46.30317688,-67.50222778,131.0,-3.043102026,10.54428959,-46.12902832,0.0
2018-07-18 20:30:39.000,15.54469861984,0.241,-0.091,-0.4105,-0.2059396499999999,-0.063743225,8.8063717,126000.0,-162000.0,-419000.0,97170.474245,62.075,-7.929999828,46.30317688,-67.50222778,131.0,-3.043102026,10.54428959,-46.12902832,0.0
2018-07-18 20:30:39.040,15.5369682312,0.165,-0.103,-0.351,-0.12748645,0.2353596,9.4339973,131000.0,-164000.0,-416000.0,97170.77637,62.07,-7.75,46.96712494,-66.33860779,132.0,-5.101819515,15.18061829,-36.51350784,0.0
2018-07-18 20:30:39.080,15.579993508081818,0.1793333333333333,-0.1096666666666666,-0.321,-0.1242175666666666,0.1569064000000004,9.4732239,131333.33333333334,-164666.66666666666,-415333.3333333333,97172.31445666667,62.06666666666667,-7.70249998575,42.65396595,-66.1518459325,132.25,-5.101819515,15.18061829,-36.51350784,0.0
2018-07-18 20:30:39.120,15.623018784963635,0.1936666666666666,-0.1163333333333333,-0.291,-0.1209486833333333,0.0784532000000007,9.5124505,131666.66666666666,-165333.33333333334,-414666.6666666667,97173.85254333333,62.06333333333333,-7.6549999715,38.34080696,-65.965084075,132.5,-5.101819515,15.18061829,-36.51350784,0.0
2018-07-18 20:30:39.160,15.666044061845454,0.208,-0.123,-0.261,-0.1176798,1.17e-15,9.5516771,132000.0,-166000.0,-414000.0,97175.39063,62.06,-7.607499957250001,34.02764797,-65.7783222175,132.75,-5.101819515,15.18061829,-36.51350784,0.0
2018-07-18 20:30:39.200,15.709069338727272,0.0946666666666666,-0.1336666666666666,-0.2506666666666667,-0.02941995,-0.0751843166666658,10.01258965,133000.0,-165666.66666666666,-413666.6666666667,97175.68766666666,62.06,-7.559999943,29.71448898,-65.59156036,133.0,-5.101819515,15.18061829,-36.51350784,0.0
2018-07-18 20:30:39.240,15.75209461560909,-0.0186666666666666,-0.1443333333333333,-0.2403333333333333,0.0588398999999999,-0.1503686333333329,10.4735022,134000.0,-165333.33333333334,-413333.3333333333,97175.98470333334,62.06,-7.359999657,18.13144684,-64.43841553,135.0,-5.101819515,15.18061829,-36.51350784,0.0
2018-07-18 20:30:39.280,15.795119892490908,-0.132,-0.155,-0.23,0.14709975,-0.22555295,10.93441475,135000.0,-165000.0,-413000.0,97176.28174,62.06,-7.359999657,18.13144684,-64.43841553,135.0,-5.101819515,15.18061829,-36.51350784,0.0
2018-07-18 20:30:39.320,15.838145169372726,-0.1195,-0.147,-0.2095,0.181423025,-0.26477955,10.890284825,133500.0,-162000.0,-415000.0,97178.15552,62.055,-7.259999752000001,13.9320373545,-63.86920357,135.5,-5.101819515,15.18061829,-36.51350784,0.0
2018-07-18 20:30:39.360,15.881170446254544,-0.107,-0.139,-0.189,0.2157463,-0.30400615,10.8461549,132000.0,-159000.0,-417000.0,97180.0293,62.05,-7.159999847,9.732627869,-63.29999161,136.0,-5.101819515,15.18061829,-36.51350784,0.0
